2nd Assignment - Navigation/tdm/MALARGUE_EXM_20161013T162614_20161014T032811.tdm

CCSDS_TDM_VERS = 2.0

COMMENT This TDM contains synthetic data, not from real observations

CREATION_DATE = 2021-11-26T14:48:28.639033
ORIGINATOR = POLIMI-DAER

META_START
TIME_SYSTEM = UTC
START_TIME = 2016-10-13T16:26:14.117
STOP_TIME = 2016-10-14T03:28:11.717
PARTICIPANT_1 = MALARGUE
PARTICIPANT_2 = EXM
MODE = SEQUENTIAL
PATH = 1,2,1
RANGE_UNITS = km
ANGLE_TYPE = AZEL
META_STOP

DATA_START

ANGLE_1 = 2016-10-13T16:26:14.117 107.45118217700443
ANGLE_2 = 2016-10-13T16:26:14.117 19.999677257521675
RANGE = 2016-10-13T16:26:14.117 169586810.04272714

ANGLE_1 = 2016-10-13T16:27:00.000 107.35569789632213
ANGLE_2 = 2016-10-13T16:27:00.000 20.148118982653155
RANGE = 2016-10-13T16:27:00.000 169587374.36142996

ANGLE_1 = 2016-10-13T16:28:00.000 107.23199081352583
ANGLE_2 = 2016-10-13T16:28:00.000 20.3416270460497
RANGE = 2016-10-13T16:28:00.000 169588112.33194938

ANGLE_1 = 2016-10-13T16:29:00.000 107.10707648243756
ANGLE_2 = 2016-10-13T16:29:00.000 20.535691340511356
RANGE = 2016-10-13T16:29:00.000 169588850.30727977

ANGLE_1 = 2016-10-13T16:30:00.000 106.98403919064238
ANGLE_2 = 2016-10-13T16:30:00.000 20.73025480279281
RANGE = 2016-10-13T16:30:00.000 169589588.3189257

ANGLE_1 = 2016-10-13T16:31:00.000 106.85995549568474
ANGLE_2 = 2016-10-13T16:31:00.000 20.924314130559512
RANGE = 2016-10-13T16:31:00.000 169590326.29740378

ANGLE_1 = 2016-10-13T16:32:00.000 106.73573271782527
ANGLE_2 = 2016-10-13T16:32:00.000 21.11868680564287
RANGE = 2016-10-13T16:32:00.000 169591064.32974535

ANGLE_1 = 2016-10-13T16:33:00.000 106.61265543512337
ANGLE_2 = 2016-10-13T16:33:00.000 21.31274607717045
RANGE = 2016-10-13T16:33:00.000 169591802.3200831

ANGLE_1 = 2016-10-13T16:34:00.000 106.48881518632045
ANGLE_2 = 2016-10-13T16:34:00.000 21.507298774045523
RANGE = 2016-10-13T16:34:00.000 169592540.393679

ANGLE_1 = 2016-10-13T16:35:00.000 106.36551749070196
ANGLE_2 = 2016-10-13T16:35:00.000 21.7019455373279
RANGE = 2016-10-13T16:35:00.000 169593278.45629248

ANGLE_1 = 2016-10-13T16:36:00.000 106.24184608117376
ANGLE_2 = 2016-10-13T16:36:00.000 21.896972685952754
RANGE = 2016-10-13T16:36:00.000 169594016.51044476

ANGLE_1 = 2016-10-13T16:37:00.000 106.11905866172106
ANGLE_2 = 2016-10-13T16:37:00.000 22.091572707560477
RANGE = 2016-10-13T16:37:00.000 169594754.57459655

ANGLE_1 = 2016-10-13T16:38:00.000 105.9946058811438
ANGLE_2 = 2016-10-13T16:38:00.000 22.28660296163003
RANGE = 2016-10-13T16:38:00.000 169595492.69523153

ANGLE_1 = 2016-10-13T16:39:00.000 105.87105818290755
ANGLE_2 = 2016-10-13T16:39:00.000 22.481799304448483
RANGE = 2016-10-13T16:39:00.000 169596230.78362194

ANGLE_1 = 2016-10-13T16:40:00.000 105.74835046575448
ANGLE_2 = 2016-10-13T16:40:00.000 22.677374273158634
RANGE = 2016-10-13T16:40:00.000 169596968.94563687

ANGLE_1 = 2016-10-13T16:41:00.000 105.62514575388933
ANGLE_2 = 2016-10-13T16:41:00.000 22.872334997158287
RANGE = 2016-10-13T16:41:00.000 169597707.05280808

ANGLE_1 = 2016-10-13T16:42:00.000 105.50153188144783
ANGLE_2 = 2016-10-13T16:42:00.000 23.067883542849117
RANGE = 2016-10-13T16:42:00.000 169598445.21323535

ANGLE_1 = 2016-10-13T16:43:00.000 105.37884076446235
ANGLE_2 = 2016-10-13T16:43:00.000 23.26389558346242
RANGE = 2016-10-13T16:43:00.000 169599183.37969145

ANGLE_1 = 2016-10-13T16:44:00.000 105.25460166809549
ANGLE_2 = 2016-10-13T16:44:00.000 23.45934963513318
RANGE = 2016-10-13T16:44:00.000 169599921.55570817

ANGLE_1 = 2016-10-13T16:45:00.000 105.13181421701061
ANGLE_2 = 2016-10-13T16:45:00.000 23.655325212169263
RANGE = 2016-10-13T16:45:00.000 169600659.7692789

ANGLE_1 = 2016-10-13T16:46:00.000 105.00815167313819
ANGLE_2 = 2016-10-13T16:46:00.000 23.851650579162616
RANGE = 2016-10-13T16:46:00.000 169601397.97835428

ANGLE_1 = 2016-10-13T16:47:00.000 104.88605416661053
ANGLE_2 = 2016-10-13T16:47:00.000 24.04752403649792
RANGE = 2016-10-13T16:47:00.000 169602136.17932737

ANGLE_1 = 2016-10-13T16:48:00.000 104.76245754176121
ANGLE_2 = 2016-10-13T16:48:00.000 24.24427398653216
RANGE = 2016-10-13T16:48:00.000 169602874.47884274

ANGLE_1 = 2016-10-13T16:49:00.000 104.63947596460584
ANGLE_2 = 2016-10-13T16:49:00.000 24.43984343023858
RANGE = 2016-10-13T16:49:00.000 169603612.7469252

ANGLE_1 = 2016-10-13T16:50:00.000 104.51717070610239
ANGLE_2 = 2016-10-13T16:50:00.000 24.636231828447336
RANGE = 2016-10-13T16:50:00.000 169604351.01136166

ANGLE_1 = 2016-10-13T16:51:00.000 104.39349255394792
ANGLE_2 = 2016-10-13T16:51:00.000 24.832550658730256
RANGE = 2016-10-13T16:51:00.000 169605089.313253

ANGLE_1 = 2016-10-13T16:52:00.000 104.27077809157541
ANGLE_2 = 2016-10-13T16:52:00.000 25.029631321377664
RANGE = 2016-10-13T16:52:00.000 169605827.67316702

ANGLE_1 = 2016-10-13T16:53:00.000 104.147898947627
ANGLE_2 = 2016-10-13T16:53:00.000 25.226280912577863
RANGE = 2016-10-13T16:53:00.000 169606566.04376224

ANGLE_1 = 2016-10-13T16:54:00.000 104.02511279296529
ANGLE_2 = 2016-10-13T16:54:00.000 25.42321871553962
RANGE = 2016-10-13T16:54:00.000 169607304.36506972

ANGLE_1 = 2016-10-13T16:55:00.000 103.90249523071219
ANGLE_2 = 2016-10-13T16:55:00.000 25.62035511229497
RANGE = 2016-10-13T16:55:00.000 169608042.7604212

ANGLE_1 = 2016-10-13T16:56:00.000 103.77852943160393
ANGLE_2 = 2016-10-13T16:56:00.000 25.81742873734898
RANGE = 2016-10-13T16:56:00.000 169608781.1624731

ANGLE_1 = 2016-10-13T16:57:00.000 103.65596468719104
ANGLE_2 = 2016-10-13T16:57:00.000 26.01474576522952
RANGE = 2016-10-13T16:57:00.000 169609519.61694157

ANGLE_1 = 2016-10-13T16:58:00.000 103.53259916802168
ANGLE_2 = 2016-10-13T16:58:00.000 26.211169801958317
RANGE = 2016-10-13T16:58:00.000 169610258.01589388

ANGLE_1 = 2016-10-13T16:59:00.000 103.41021601866018
ANGLE_2 = 2016-10-13T16:59:00.000 26.40930635477912
RANGE = 2016-10-13T16:59:00.000 169610996.50134087

ANGLE_1 = 2016-10-13T17:00:00.000 103.28649134469865
ANGLE_2 = 2016-10-13T17:00:00.000 26.60625605655344
RANGE = 2016-10-13T17:00:00.000 169611735.0160865

ANGLE_1 = 2016-10-13T17:01:00.000 103.16378904683641
ANGLE_2 = 2016-10-13T17:01:00.000 26.804226921605938
RANGE = 2016-10-13T17:01:00.000 169612473.52745643

ANGLE_1 = 2016-10-13T17:02:00.000 103.04125975595345
ANGLE_2 = 2016-10-13T17:02:00.000 27.001249439322322
RANGE = 2016-10-13T17:02:00.000 169613212.04133493

ANGLE_1 = 2016-10-13T17:03:00.000 102.91808592128974
ANGLE_2 = 2016-10-13T17:03:00.000 27.199609160330876
RANGE = 2016-10-13T17:03:00.000 169613950.60497093

ANGLE_1 = 2016-10-13T17:04:00.000 102.79514291406136
ANGLE_2 = 2016-10-13T17:04:00.000 27.397217371552273
RANGE = 2016-10-13T17:04:00.000 169614689.2072698

ANGLE_1 = 2016-10-13T17:05:00.000 102.6720950434428
ANGLE_2 = 2016-10-13T17:05:00.000 27.59562324163028
RANGE = 2016-10-13T17:05:00.000 169615427.84349915

ANGLE_1 = 2016-10-13T17:06:00.000 102.5485665630208
ANGLE_2 = 2016-10-13T17:06:00.000 27.793254755684526
RANGE = 2016-10-13T17:06:00.000 169616166.4501112

ANGLE_1 = 2016-10-13T17:07:00.000 102.4259597202885
ANGLE_2 = 2016-10-13T17:07:00.000 27.991438746345384
RANGE = 2016-10-13T17:07:00.000 169616905.11280754

ANGLE_1 = 2016-10-13T17:08:00.000 102.30232254616223
ANGLE_2 = 2016-10-13T17:08:00.000 28.189372567550986
RANGE = 2016-10-13T17:08:00.000 169617643.79493243

ANGLE_1 = 2016-10-13T17:09:00.000 102.17949287365708
ANGLE_2 = 2016-10-13T17:09:00.000 28.387760979895393
RANGE = 2016-10-13T17:09:00.000 169618382.50242335

ANGLE_1 = 2016-10-13T17:10:00.000 102.05645196476561
ANGLE_2 = 2016-10-13T17:10:00.000 28.5861649370327
RANGE = 2016-10-13T17:10:00.000 169619121.2264589

ANGLE_1 = 2016-10-13T17:11:00.000 101.93310593100071
ANGLE_2 = 2016-10-13T17:11:00.000 28.785248878825946
RANGE = 2016-10-13T17:11:00.000 169619860.01466337

ANGLE_1 = 2016-10-13T17:12:00.000 101.80951400405249
ANGLE_2 = 2016-10-13T17:12:00.000 28.983772656644177
RANGE = 2016-10-13T17:12:00.000 169620598.77480754

ANGLE_1 = 2016-10-13T17:13:00.000 101.68613462098732
ANGLE_2 = 2016-10-13T17:13:00.000 29.182105371856903
RANGE = 2016-10-13T17:13:00.000 169621337.6107465

ANGLE_1 = 2016-10-13T17:14:00.000 101.56328941369597
ANGLE_2 = 2016-10-13T17:14:00.000 29.3816955363751
RANGE = 2016-10-13T17:14:00.000 169622076.44990477

ANGLE_1 = 2016-10-13T17:15:00.000 101.43912811004564
ANGLE_2 = 2016-10-13T17:15:00.000 29.580295428974786
RANGE = 2016-10-13T17:15:00.000 169622815.30890507

ANGLE_1 = 2016-10-13T17:16:00.000 101.31529542152941
ANGLE_2 = 2016-10-13T17:16:00.000 29.779555484700264
RANGE = 2016-10-13T17:16:00.000 169623554.20225102

ANGLE_1 = 2016-10-13T17:17:00.000 101.1922063980565
ANGLE_2 = 2016-10-13T17:17:00.000 29.977852619850296
RANGE = 2016-10-13T17:17:00.000 169624293.13662317

ANGLE_1 = 2016-10-13T17:18:00.000 101.06823807490456
ANGLE_2 = 2016-10-13T17:18:00.000 30.17751295182366
RANGE = 2016-10-13T17:18:00.000 169625032.0780454

ANGLE_1 = 2016-10-13T17:19:00.000 100.94483122422905
ANGLE_2 = 2016-10-13T17:19:00.000 30.377530765603954
RANGE = 2016-10-13T17:19:00.000 169625771.06231412

ANGLE_1 = 2016-10-13T17:20:00.000 100.82095936622741
ANGLE_2 = 2016-10-13T17:20:00.000 30.57553846005047
RANGE = 2016-10-13T17:20:00.000 169626510.09508276

ANGLE_1 = 2016-10-13T17:21:00.000 100.69746378409019
ANGLE_2 = 2016-10-13T17:21:00.000 30.77514276527125
RANGE = 2016-10-13T17:21:00.000 169627249.1020644

ANGLE_1 = 2016-10-13T17:22:00.000 100.57330781205694
ANGLE_2 = 2016-10-13T17:22:00.000 30.975135290703484
RANGE = 2016-10-13T17:22:00.000 169627988.22030598

ANGLE_1 = 2016-10-13T17:23:00.000 100.44908378320399
ANGLE_2 = 2016-10-13T17:23:00.000 31.174299405194525
RANGE = 2016-10-13T17:23:00.000 169628727.3263348

ANGLE_1 = 2016-10-13T17:24:00.000 100.32517789685913
ANGLE_2 = 2016-10-13T17:24:00.000 31.37421948822021
RANGE = 2016-10-13T17:24:00.000 169629466.4579588

ANGLE_1 = 2016-10-13T17:25:00.000 100.20072042578751
ANGLE_2 = 2016-10-13T17:25:00.000 31.573752250906395
RANGE = 2016-10-13T17:25:00.000 169630205.61639297

ANGLE_1 = 2016-10-13T17:26:00.000 100.07675401718186
ANGLE_2 = 2016-10-13T17:26:00.000 31.773613149354244
RANGE = 2016-10-13T17:26:00.000 169630944.82164565

ANGLE_1 = 2016-10-13T17:27:00.000 99.95144202940311
ANGLE_2 = 2016-10-13T17:27:00.000 31.97397701676822
RANGE = 2016-10-13T17:27:00.000 169631684.03534344

ANGLE_1 = 2016-10-13T17:28:00.000 99.82743529855253
ANGLE_2 = 2016-10-13T17:28:00.000 32.172566953308326
RANGE = 2016-10-13T17:28:00.000 169632423.30746564

ANGLE_1 = 2016-10-13T17:29:00.000 99.70253280517579
ANGLE_2 = 2016-10-13T17:29:00.000 32.37328627268243
RANGE = 2016-10-13T17:29:00.000 169633162.61530474

ANGLE_1 = 2016-10-13T17:30:00.000 99.57836458256476
ANGLE_2 = 2016-10-13T17:30:00.000 32.57375544412847
RANGE = 2016-10-13T17:30:00.000 169633901.93322143

ANGLE_1 = 2016-10-13T17:31:00.000 99.45328783306446
ANGLE_2 = 2016-10-13T17:31:00.000 32.773543363200496
RANGE = 2016-10-13T17:31:00.000 169634641.342938

ANGLE_1 = 2016-10-13T17:32:00.000 99.32874557280353
ANGLE_2 = 2016-10-13T17:32:00.000 32.97378784233147
RANGE = 2016-10-13T17:32:00.000 169635380.7307306

ANGLE_1 = 2016-10-13T17:33:00.000 99.20315351448701
ANGLE_2 = 2016-10-13T17:33:00.000 33.174285982441866
RANGE = 2016-10-13T17:33:00.000 169636120.1590508

ANGLE_1 = 2016-10-13T17:34:00.000 99.07811797040215
ANGLE_2 = 2016-10-13T17:34:00.000 33.37458939291263
RANGE = 2016-10-13T17:34:00.000 169636859.57549405

ANGLE_1 = 2016-10-13T17:35:00.000 98.95284245475644
ANGLE_2 = 2016-10-13T17:35:00.000 33.57480416219623
RANGE = 2016-10-13T17:35:00.000 169637599.12548962

ANGLE_1 = 2016-10-13T17:36:00.000 98.82810925696988
ANGLE_2 = 2016-10-13T17:36:00.000 33.77511740705026
RANGE = 2016-10-13T17:36:00.000 169638338.69887304

ANGLE_1 = 2016-10-13T17:37:00.000 98.7016954050448
ANGLE_2 = 2016-10-13T17:37:00.000 33.97601631388909
RANGE = 2016-10-13T17:37:00.000 169639078.26997837

ANGLE_1 = 2016-10-13T17:38:00.000 98.57650023859243
ANGLE_2 = 2016-10-13T17:38:00.000 34.17652850280018
RANGE = 2016-10-13T17:38:00.000 169639817.84180105

ANGLE_1 = 2016-10-13T17:39:00.000 98.45020197566448
ANGLE_2 = 2016-10-13T17:39:00.000 34.37785553899747
RANGE = 2016-10-13T17:39:00.000 169640557.4763446

ANGLE_1 = 2016-10-13T17:40:00.000 98.32351203947798
ANGLE_2 = 2016-10-13T17:40:00.000 34.57814338349535
RANGE = 2016-10-13T17:40:00.000 169641297.12864843

ANGLE_1 = 2016-10-13T17:41:00.000 98.19793209481453
ANGLE_2 = 2016-10-13T17:41:00.000 34.77918110659305
RANGE = 2016-10-13T17:41:00.000 169642036.872886

ANGLE_1 = 2016-10-13T17:42:00.000 98.07165865068711
ANGLE_2 = 2016-10-13T17:42:00.000 34.98010047850782
RANGE = 2016-10-13T17:42:00.000 169642776.61243746

ANGLE_1 = 2016-10-13T17:43:00.000 97.94474798777824
ANGLE_2 = 2016-10-13T17:43:00.000 35.18089329939576
RANGE = 2016-10-13T17:43:00.000 169643516.41433153

ANGLE_1 = 2016-10-13T17:44:00.000 97.8188228036683
ANGLE_2 = 2016-10-13T17:44:00.000 35.38247841905254
RANGE = 2016-10-13T17:44:00.000 169644256.2788101

ANGLE_1 = 2016-10-13T17:45:00.000 97.69181312672399
ANGLE_2 = 2016-10-13T17:45:00.000 35.58348986118214
RANGE = 2016-10-13T17:45:00.000 169644996.1101041

ANGLE_1 = 2016-10-13T17:46:00.000 97.56436880886375
ANGLE_2 = 2016-10-13T17:46:00.000 35.78335451365896
RANGE = 2016-10-13T17:46:00.000 169645736.06050664

ANGLE_1 = 2016-10-13T17:47:00.000 97.4378723197228
ANGLE_2 = 2016-10-13T17:47:00.000 35.985814793604376
RANGE = 2016-10-13T17:47:00.000 169646475.96706074

ANGLE_1 = 2016-10-13T17:48:00.000 97.31001995428845
ANGLE_2 = 2016-10-13T17:48:00.000 36.18699432730612
RANGE = 2016-10-13T17:48:00.000 169647216.001933

ANGLE_1 = 2016-10-13T17:49:00.000 97.18266865461406
ANGLE_2 = 2016-10-13T17:49:00.000 36.38821363176838
RANGE = 2016-10-13T17:49:00.000 169647955.9998148

ANGLE_1 = 2016-10-13T17:50:00.000 97.05492068128025
ANGLE_2 = 2016-10-13T17:50:00.000 36.589268572360645
RANGE = 2016-10-13T17:50:00.000 169648696.09382695

ANGLE_1 = 2016-10-13T17:51:00.000 96.92725893125741
ANGLE_2 = 2016-10-13T17:51:00.000 36.79124028101127
RANGE = 2016-10-13T17:51:00.000 169649436.1746177

ANGLE_1 = 2016-10-13T17:52:00.000 96.79888354950863
ANGLE_2 = 2016-10-13T17:52:00.000 36.992487701356
RANGE = 2016-10-13T17:52:00.000 169650176.32693696

ANGLE_1 = 2016-10-13T17:53:00.000 96.67039370525521
ANGLE_2 = 2016-10-13T17:53:00.000 37.19400122546315
RANGE = 2016-10-13T17:53:00.000 169650916.49353826

ANGLE_1 = 2016-10-13T17:54:00.000 96.54188185033665
ANGLE_2 = 2016-10-13T17:54:00.000 37.395611274344546
RANGE = 2016-10-13T17:54:00.000 169651656.73140574

ANGLE_1 = 2016-10-13T17:55:00.000 96.41303288487947
ANGLE_2 = 2016-10-13T17:55:00.000 37.59782438174623
RANGE = 2016-10-13T17:55:00.000 169652397.03986397

ANGLE_1 = 2016-10-13T17:56:00.000 96.28427079884369
ANGLE_2 = 2016-10-13T17:56:00.000 37.79902426314834
RANGE = 2016-10-13T17:56:00.000 169653137.33585608

ANGLE_1 = 2016-10-13T17:57:00.000 96.15491303052482
ANGLE_2 = 2016-10-13T17:57:00.000 38.001466089508305
RANGE = 2016-10-13T17:57:00.000 169653877.6962426

ANGLE_1 = 2016-10-13T17:58:00.000 96.02554091328294
ANGLE_2 = 2016-10-13T17:58:00.000 38.20312175627108
RANGE = 2016-10-13T17:58:00.000 169654618.11494607

ANGLE_1 = 2016-10-13T17:59:00.000 95.89650388795759
ANGLE_2 = 2016-10-13T17:59:00.000 38.40410178406548
RANGE = 2016-10-13T17:59:00.000 169655358.55292037

ANGLE_1 = 2016-10-13T18:00:00.000 95.76562967005192
ANGLE_2 = 2016-10-13T18:00:00.000 38.60634235700057
RANGE = 2016-10-13T18:00:00.000 169656099.0069918

ANGLE_1 = 2016-10-13T18:01:00.000 95.63563662788516
ANGLE_2 = 2016-10-13T18:01:00.000 38.80908048780831
RANGE = 2016-10-13T18:01:00.000 169656839.58953238

ANGLE_1 = 2016-10-13T18:02:00.000 95.50496293298251
ANGLE_2 = 2016-10-13T18:02:00.000 39.01132915518362
RANGE = 2016-10-13T18:02:00.000 169657580.14919356

ANGLE_1 = 2016-10-13T18:03:00.000 95.37427736932067
ANGLE_2 = 2016-10-13T18:03:00.000 39.21258947738791
RANGE = 2016-10-13T18:03:00.000 169658320.78898862

ANGLE_1 = 2016-10-13T18:04:00.000 95.24341856152418
ANGLE_2 = 2016-10-13T18:04:00.000 39.41476540286788
RANGE = 2016-10-13T18:04:00.000 169659061.45171443

ANGLE_1 = 2016-10-13T18:05:00.000 95.11226735990692
ANGLE_2 = 2016-10-13T18:05:00.000 39.61708572844599
RANGE = 2016-10-13T18:05:00.000 169659802.15076202

ANGLE_1 = 2016-10-13T18:06:00.000 94.98020066064714
ANGLE_2 = 2016-10-13T18:06:00.000 39.819050111328984
RANGE = 2016-10-13T18:06:00.000 169660542.9134463

ANGLE_1 = 2016-10-13T18:07:00.000 94.84848983059614
ANGLE_2 = 2016-10-13T18:07:00.000 40.02142938791371
RANGE = 2016-10-13T18:07:00.000 169661283.70872134

ANGLE_1 = 2016-10-13T18:08:00.000 94.71695115795883
ANGLE_2 = 2016-10-13T18:08:00.000 40.223846078288005
RANGE = 2016-10-13T18:08:00.000 169662024.58191776

ANGLE_1 = 2016-10-13T18:09:00.000 94.58459786369133
ANGLE_2 = 2016-10-13T18:09:00.000 40.425823100589824
RANGE = 2016-10-13T18:09:00.000 169662765.4596374

ANGLE_1 = 2016-10-13T18:10:00.000 94.45143547861754
ANGLE_2 = 2016-10-13T18:10:00.000 40.6286206616785
RANGE = 2016-10-13T18:10:00.000 169663506.41287646

ANGLE_1 = 2016-10-13T18:11:00.000 94.31855685667342
ANGLE_2 = 2016-10-13T18:11:00.000 40.830858850201544
RANGE = 2016-10-13T18:11:00.000 169664247.38704103

ANGLE_1 = 2016-10-13T18:12:00.000 94.18541724938024
ANGLE_2 = 2016-10-13T18:12:00.000 41.032982737406726
RANGE = 2016-10-13T18:12:00.000 169664988.4290926

ANGLE_1 = 2016-10-13T18:13:00.000 94.05163970423155
ANGLE_2 = 2016-10-13T18:13:00.000 41.2352601767123
RANGE = 2016-10-13T18:13:00.000 169665729.50916985

ANGLE_1 = 2016-10-13T18:14:00.000 93.91827401364645
ANGLE_2 = 2016-10-13T18:14:00.000 41.43806984601525
RANGE = 2016-10-13T18:14:00.000 169666470.63253966

ANGLE_1 = 2016-10-13T18:15:00.000 93.78341272944145
ANGLE_2 = 2016-10-13T18:15:00.000 41.63994879695136
RANGE = 2016-10-13T18:15:00.000 169667211.8320368

ANGLE_1 = 2016-10-13T18:16:00.000 93.64882992253652
ANGLE_2 = 2016-10-13T18:16:00.000 41.84291080893118
RANGE = 2016-10-13T18:16:00.000 169667953.0546723

ANGLE_1 = 2016-10-13T18:17:00.000 93.51325984526515
ANGLE_2 = 2016-10-13T18:17:00.000 42.044953250564745
RANGE = 2016-10-13T18:17:00.000 169668694.3846595

ANGLE_1 = 2016-10-13T18:18:00.000 93.37913648586004
ANGLE_2 = 2016-10-13T18:18:00.000 42.24816567871159
RANGE = 2016-10-13T18:18:00.000 169669435.69122264

ANGLE_1 = 2016-10-13T18:19:00.000 93.24257932088808
ANGLE_2 = 2016-10-13T18:19:00.000 42.450095224259876
RANGE = 2016-10-13T18:19:00.000 169670177.06864792

ANGLE_1 = 2016-10-13T18:20:00.000 93.10701961265129
ANGLE_2 = 2016-10-13T18:20:00.000 42.65289680431402
RANGE = 2016-10-13T18:20:00.000 169670918.48983943

ANGLE_1 = 2016-10-13T18:21:00.000 92.96998566621393
ANGLE_2 = 2016-10-13T18:21:00.000 42.85549847467947
RANGE = 2016-10-13T18:21:00.000 169671659.99252185

ANGLE_1 = 2016-10-13T18:22:00.000 92.83349631806055
ANGLE_2 = 2016-10-13T18:22:00.000 43.05871671782717
RANGE = 2016-10-13T18:22:00.000 169672401.50822532

ANGLE_1 = 2016-10-13T18:23:00.000 92.6959905697308
ANGLE_2 = 2016-10-13T18:23:00.000 43.26129992505165
RANGE = 2016-10-13T18:23:00.000 169673143.0894355

ANGLE_1 = 2016-10-13T18:24:00.000 92.55850449737457
ANGLE_2 = 2016-10-13T18:24:00.000 43.46435212168842
RANGE = 2016-10-13T18:24:00.000 169673884.72752336

ANGLE_1 = 2016-10-13T18:25:00.000 92.42038970853064
ANGLE_2 = 2016-10-13T18:25:00.000 43.667168935767144
RANGE = 2016-10-13T18:25:00.000 169674626.41596794

ANGLE_1 = 2016-10-13T18:26:00.000 92.28254989151333
ANGLE_2 = 2016-10-13T18:26:00.000 43.87036463781587
RANGE = 2016-10-13T18:26:00.000 169675368.1545908

ANGLE_1 = 2016-10-13T18:27:00.000 92.14361683629878
ANGLE_2 = 2016-10-13T18:27:00.000 44.072643133585295
RANGE = 2016-10-13T18:27:00.000 169676109.9837908

ANGLE_1 = 2016-10-13T18:28:00.000 92.0042036809843
ANGLE_2 = 2016-10-13T18:28:00.000 44.27532512611147
RANGE = 2016-10-13T18:28:00.000 169676851.81419694

ANGLE_1 = 2016-10-13T18:29:00.000 91.86475762326867
ANGLE_2 = 2016-10-13T18:29:00.000 44.47834494956056
RANGE = 2016-10-13T18:29:00.000 169677593.68953037

ANGLE_1 = 2016-10-13T18:30:00.000 91.72479483556026
ANGLE_2 = 2016-10-13T18:30:00.000 44.680899365898966
RANGE = 2016-10-13T18:30:00.000 169678335.61796197

ANGLE_1 = 2016-10-13T18:31:00.000 91.58384431470817
ANGLE_2 = 2016-10-13T18:31:00.000 44.88429225457442
RANGE = 2016-10-13T18:31:00.000 169679077.64778695

ANGLE_1 = 2016-10-13T18:32:00.000 91.4431629490744
ANGLE_2 = 2016-10-13T18:32:00.000 45.08718191475722
RANGE = 2016-10-13T18:32:00.000 169679819.69880062

ANGLE_1 = 2016-10-13T18:33:00.000 91.30192361161869
ANGLE_2 = 2016-10-13T18:33:00.000 45.28997818984374
RANGE = 2016-10-13T18:33:00.000 169680561.84704208

ANGLE_1 = 2016-10-13T18:34:00.000 91.1600371999506
ANGLE_2 = 2016-10-13T18:34:00.000 45.49297293368011
RANGE = 2016-10-13T18:34:00.000 169681303.98859864

ANGLE_1 = 2016-10-13T18:35:00.000 91.01697341757206
ANGLE_2 = 2016-10-13T18:35:00.000 45.69564497949976
RANGE = 2016-10-13T18:35:00.000 169682046.21483448

ANGLE_1 = 2016-10-13T18:36:00.000 90.87380436337688
ANGLE_2 = 2016-10-13T18:36:00.000 45.899121445670744
RANGE = 2016-10-13T18:36:00.000 169682788.46849275

ANGLE_1 = 2016-10-13T18:37:00.000 90.73076820887216
ANGLE_2 = 2016-10-13T18:37:00.000 46.10191777596472
RANGE = 2016-10-13T18:37:00.000 169683530.8363315

ANGLE_1 = 2016-10-13T18:38:00.000 90.58687639944405
ANGLE_2 = 2016-10-13T18:38:00.000 46.304242855772266
RANGE = 2016-10-13T18:38:00.000 169684273.21453434

ANGLE_1 = 2016-10-13T18:39:00.000 90.44242716466243
ANGLE_2 = 2016-10-13T18:39:00.000 46.507579648789154
RANGE = 2016-10-13T18:39:00.000 169685015.66813883

ANGLE_1 = 2016-10-13T18:40:00.000 90.29751818244044
ANGLE_2 = 2016-10-13T18:40:00.000 46.7105209050145
RANGE = 2016-10-13T18:40:00.000 169685758.14658394

ANGLE_1 = 2016-10-13T18:41:00.000 90.15192962106929
ANGLE_2 = 2016-10-13T18:41:00.000 46.91333313616061
RANGE = 2016-10-13T18:41:00.000 169686500.72552

ANGLE_1 = 2016-10-13T18:42:00.000 90.00557065302596
ANGLE_2 = 2016-10-13T18:42:00.000 47.11590373461825
RANGE = 2016-10-13T18:42:00.000 169687243.3135028

ANGLE_1 = 2016-10-13T18:43:00.000 89.85931829790034
ANGLE_2 = 2016-10-13T18:43:00.000 47.318967061428076
RANGE = 2016-10-13T18:43:00.000 169687986.0034533

ANGLE_1 = 2016-10-13T18:44:00.000 89.71212225064407
ANGLE_2 = 2016-10-13T18:44:00.000 47.52160427005308
RANGE = 2016-10-13T18:44:00.000 169688728.71529296

ANGLE_1 = 2016-10-13T18:45:00.000 89.5648052668424
ANGLE_2 = 2016-10-13T18:45:00.000 47.72544545259165
RANGE = 2016-10-13T18:45:00.000 169689471.52944586

ANGLE_1 = 2016-10-13T18:46:00.000 89.41580700750367
ANGLE_2 = 2016-10-13T18:46:00.000 47.92856835911629
RANGE = 2016-10-13T18:46:00.000 169690214.34990197

ANGLE_1 = 2016-10-13T18:47:00.000 89.26736061746406
ANGLE_2 = 2016-10-13T18:47:00.000 48.131840104434275
RANGE = 2016-10-13T18:47:00.000 169690957.25349542

ANGLE_1 = 2016-10-13T18:48:00.000 89.11800318608113
ANGLE_2 = 2016-10-13T18:48:00.000 48.33430374064526
RANGE = 2016-10-13T18:48:00.000 169691700.23675874

ANGLE_1 = 2016-10-13T18:49:00.000 88.96684479726095
ANGLE_2 = 2016-10-13T18:49:00.000 48.53734898162299
RANGE = 2016-10-13T18:49:00.000 169692443.23019794

ANGLE_1 = 2016-10-13T18:50:00.000 88.81630506522013
ANGLE_2 = 2016-10-13T18:50:00.000 48.73991204061757
RANGE = 2016-10-13T18:50:00.000 169693186.3208993

ANGLE_1 = 2016-10-13T18:51:00.000 88.66502452471647
ANGLE_2 = 2016-10-13T18:51:00.000 48.94286926804568
RANGE = 2016-10-13T18:51:00.000 169693929.46338385

ANGLE_1 = 2016-10-13T18:52:00.000 88.51259391944598
ANGLE_2 = 2016-10-13T18:52:00.000 49.14597168356406
RANGE = 2016-10-13T18:52:00.000 169694672.66832256

ANGLE_1 = 2016-10-13T18:53:00.000 88.35936257484242
ANGLE_2 = 2016-10-13T18:53:00.000 49.34825517758014
RANGE = 2016-10-13T18:53:00.000 169695415.94025227

ANGLE_1 = 2016-10-13T18:54:00.000 88.20679001697845
ANGLE_2 = 2016-10-13T18:54:00.000 49.55183673956924
RANGE = 2016-10-13T18:54:00.000 169696159.2644824

ANGLE_1 = 2016-10-13T18:55:00.000 88.05287907945338
ANGLE_2 = 2016-10-13T18:55:00.000 49.75463923173785
RANGE = 2016-10-13T18:55:00.000 169696902.6245262

ANGLE_1 = 2016-10-13T18:56:00.000 87.89772020122115
ANGLE_2 = 2016-10-13T18:56:00.000 49.95692372233095
RANGE = 2016-10-13T18:56:00.000 169697646.06775215

ANGLE_1 = 2016-10-13T18:57:00.000 87.7420426809187
ANGLE_2 = 2016-10-13T18:57:00.000 50.16001799539583
RANGE = 2016-10-13T18:57:00.000 169698389.54619783

ANGLE_1 = 2016-10-13T18:58:00.000 87.58574477455203
ANGLE_2 = 2016-10-13T18:58:00.000 50.363240034410865
RANGE = 2016-10-13T18:58:00.000 169699133.13217464

ANGLE_1 = 2016-10-13T18:59:00.000 87.42855316349772
ANGLE_2 = 2016-10-13T18:59:00.000 50.56608209314365
RANGE = 2016-10-13T18:59:00.000 169699876.74820742

ANGLE_1 = 2016-10-13T19:00:00.000 87.27073350355718
ANGLE_2 = 2016-10-13T19:00:00.000 50.767930797559295
RANGE = 2016-10-13T19:00:00.000 169700620.44618875

ANGLE_1 = 2016-10-13T19:01:00.000 87.11273165484607
ANGLE_2 = 2016-10-13T19:01:00.000 50.97140936609874
RANGE = 2016-10-13T19:01:00.000 169701364.1949508

ANGLE_1 = 2016-10-13T19:02:00.000 86.95237762256595
ANGLE_2 = 2016-10-13T19:02:00.000 51.17347813252882
RANGE = 2016-10-13T19:02:00.000 169702108.0108272

ANGLE_1 = 2016-10-13T19:03:00.000 86.79252896036223
ANGLE_2 = 2016-10-13T19:03:00.000 51.376190524074836
RANGE = 2016-10-13T19:03:00.000 169702851.8464619

ANGLE_1 = 2016-10-13T19:04:00.000 86.63124691786581
ANGLE_2 = 2016-10-13T19:04:00.000 51.57907974811691
RANGE = 2016-10-13T19:04:00.000 169703595.81983483

ANGLE_1 = 2016-10-13T19:05:00.000 86.46937327383307
ANGLE_2 = 2016-10-13T19:05:00.000 51.781791698107384
RANGE = 2016-10-13T19:05:00.000 169704339.81052908

ANGLE_1 = 2016-10-13T19:06:00.000 86.30695061107474
ANGLE_2 = 2016-10-13T19:06:00.000 51.985024825441116
RANGE = 2016-10-13T19:06:00.000 169705083.88002762

ANGLE_1 = 2016-10-13T19:07:00.000 86.14390038268463
ANGLE_2 = 2016-10-13T19:07:00.000 52.187248740265204
RANGE = 2016-10-13T19:07:00.000 169705828.02784616

ANGLE_1 = 2016-10-13T19:08:00.000 85.97842764556238
ANGLE_2 = 2016-10-13T19:08:00.000 52.38944800687284
RANGE = 2016-10-13T19:08:00.000 169706572.2167993

ANGLE_1 = 2016-10-13T19:09:00.000 85.81315188058696
ANGLE_2 = 2016-10-13T19:09:00.000 52.59183869180296
RANGE = 2016-10-13T19:09:00.000 169707316.50226736

ANGLE_1 = 2016-10-13T19:10:00.000 85.64772910164872
ANGLE_2 = 2016-10-13T19:10:00.000 52.79434914932927
RANGE = 2016-10-13T19:10:00.000 169708060.79540032

ANGLE_1 = 2016-10-13T19:11:00.000 85.48004527734335
ANGLE_2 = 2016-10-13T19:11:00.000 52.9968130835516
RANGE = 2016-10-13T19:11:00.000 169708805.1889641

ANGLE_1 = 2016-10-13T19:12:00.000 85.31220739598342
ANGLE_2 = 2016-10-13T19:12:00.000 53.19859266151618
RANGE = 2016-10-13T19:12:00.000 169709549.63336524

ANGLE_1 = 2016-10-13T19:13:00.000 85.14330642534253
ANGLE_2 = 2016-10-13T19:13:00.000 53.40118288398763
RANGE = 2016-10-13T19:13:00.000 169710294.15831006

ANGLE_1 = 2016-10-13T19:14:00.000 84.97375764264156
ANGLE_2 = 2016-10-13T19:14:00.000 53.60330294120691
RANGE = 2016-10-13T19:14:00.000 169711038.76127464

ANGLE_1 = 2016-10-13T19:15:00.000 84.8020380537913
ANGLE_2 = 2016-10-13T19:15:00.000 53.805756673342195
RANGE = 2016-10-13T19:15:00.000 169711783.37129962

ANGLE_1 = 2016-10-13T19:16:00.000 84.6301939263871
ANGLE_2 = 2016-10-13T19:16:00.000 54.0077511798327
RANGE = 2016-10-13T19:16:00.000 169712528.112064

ANGLE_1 = 2016-10-13T19:17:00.000 84.45599891146773
ANGLE_2 = 2016-10-13T19:17:00.000 54.20977908597904
RANGE = 2016-10-13T19:17:00.000 169713272.8972375

ANGLE_1 = 2016-10-13T19:18:00.000 84.28252908909217
ANGLE_2 = 2016-10-13T19:18:00.000 54.41163218965198
RANGE = 2016-10-13T19:18:00.000 169714017.76724857

ANGLE_1 = 2016-10-13T19:19:00.000 84.10751864488644
ANGLE_2 = 2016-10-13T19:19:00.000 54.61414672553728
RANGE = 2016-10-13T19:19:00.000 169714762.68033138

ANGLE_1 = 2016-10-13T19:20:00.000 83.93137299775002
ANGLE_2 = 2016-10-13T19:20:00.000 54.815098142427566
RANGE = 2016-10-13T19:20:00.000 169715507.65441594

ANGLE_1 = 2016-10-13T19:21:00.000 83.75364726075507
ANGLE_2 = 2016-10-13T19:21:00.000 55.01737722290008
RANGE = 2016-10-13T19:21:00.000 169716252.72496426

ANGLE_1 = 2016-10-13T19:22:00.000 83.5751155577409
ANGLE_2 = 2016-10-13T19:22:00.000 55.21923202321384
RANGE = 2016-10-13T19:22:00.000 169716997.8278405

ANGLE_1 = 2016-10-13T19:23:00.000 83.39560600758554
ANGLE_2 = 2016-10-13T19:23:00.000 55.420951209821006
RANGE = 2016-10-13T19:23:00.000 169717743.00434157

ANGLE_1 = 2016-10-13T19:24:00.000 83.21468377109993
ANGLE_2 = 2016-10-13T19:24:00.000 55.62249569042533
RANGE = 2016-10-13T19:24:00.000 169718488.2703461

ANGLE_1 = 2016-10-13T19:25:00.000 83.0323725071257
ANGLE_2 = 2016-10-13T19:25:00.000 55.823914202906394
RANGE = 2016-10-13T19:25:00.000 169719233.61832294

ANGLE_1 = 2016-10-13T19:26:00.000 82.84933321177047
ANGLE_2 = 2016-10-13T19:26:00.000 56.02526906350289
RANGE = 2016-10-13T19:26:00.000 169719978.9797912

ANGLE_1 = 2016-10-13T19:27:00.000 82.6649257986367
ANGLE_2 = 2016-10-13T19:27:00.000 56.226835995561835
RANGE = 2016-10-13T19:27:00.000 169720724.4493544

ANGLE_1 = 2016-10-13T19:28:00.000 82.47979885896065
ANGLE_2 = 2016-10-13T19:28:00.000 56.427794273534644
RANGE = 2016-10-13T19:28:00.000 169721469.9303842

ANGLE_1 = 2016-10-13T19:29:00.000 82.2922601919259
ANGLE_2 = 2016-10-13T19:29:00.000 56.62863032198938
RANGE = 2016-10-13T19:29:00.000 169722215.5947266

ANGLE_1 = 2016-10-13T19:30:00.000 82.10322387918501
ANGLE_2 = 2016-10-13T19:30:00.000 56.82995029271865
RANGE = 2016-10-13T19:30:00.000 169722961.27762675

ANGLE_1 = 2016-10-13T19:31:00.000 81.91395922928353
ANGLE_2 = 2016-10-13T19:31:00.000 57.03178701089053
RANGE = 2016-10-13T19:31:00.000 169723706.9808651

ANGLE_1 = 2016-10-13T19:32:00.000 81.72321002045564
ANGLE_2 = 2016-10-13T19:32:00.000 57.23191673253341
RANGE = 2016-10-13T19:32:00.000 169724452.81592715

ANGLE_1 = 2016-10-13T19:33:00.000 81.53080482835755
ANGLE_2 = 2016-10-13T19:33:00.000 57.43285920703103
RANGE = 2016-10-13T19:33:00.000 169725198.72863188

ANGLE_1 = 2016-10-13T19:34:00.000 81.3371344569899
ANGLE_2 = 2016-10-13T19:34:00.000 57.63338607297675
RANGE = 2016-10-13T19:34:00.000 169725944.6516

ANGLE_1 = 2016-10-13T19:35:00.000 81.1405625980683
ANGLE_2 = 2016-10-13T19:35:00.000 57.833954837996345
RANGE = 2016-10-13T19:35:00.000 169726690.6633019

ANGLE_1 = 2016-10-13T19:36:00.000 80.94423251383166
ANGLE_2 = 2016-10-13T19:36:00.000 58.034586189551355
RANGE = 2016-10-13T19:36:00.000 169727436.77764124

ANGLE_1 = 2016-10-13T19:37:00.000 80.74592816842375
ANGLE_2 = 2016-10-13T19:37:00.000 58.23515249150534
RANGE = 2016-10-13T19:37:00.000 169728182.9385868

ANGLE_1 = 2016-10-13T19:38:00.000 80.5461367743411
ANGLE_2 = 2016-10-13T19:38:00.000 58.434634257242266
RANGE = 2016-10-13T19:38:00.000 169728929.16885018

ANGLE_1 = 2016-10-13T19:39:00.000 80.3447342817648
ANGLE_2 = 2016-10-13T19:39:00.000 58.634845454042946
RANGE = 2016-10-13T19:39:00.000 169729675.4827458

ANGLE_1 = 2016-10-13T19:40:00.000 80.14096938781675
ANGLE_2 = 2016-10-13T19:40:00.000 58.835423265237964
RANGE = 2016-10-13T19:40:00.000 169730421.88731635

ANGLE_1 = 2016-10-13T19:41:00.000 79.93666676619158
ANGLE_2 = 2016-10-13T19:41:00.000 59.03550152156795
RANGE = 2016-10-13T19:41:00.000 169731168.32037014

ANGLE_1 = 2016-10-13T19:42:00.000 79.73040834979244
ANGLE_2 = 2016-10-13T19:42:00.000 59.23495958382962
RANGE = 2016-10-13T19:42:00.000 169731914.81567168

ANGLE_1 = 2016-10-13T19:43:00.000 79.5222908745768
ANGLE_2 = 2016-10-13T19:43:00.000 59.435202348380194
RANGE = 2016-10-13T19:43:00.000 169732661.39745238

ANGLE_1 = 2016-10-13T19:44:00.000 79.31269463039169
ANGLE_2 = 2016-10-13T19:44:00.000 59.634609248235634
RANGE = 2016-10-13T19:44:00.000 169733408.11718962

ANGLE_1 = 2016-10-13T19:45:00.000 79.10056107119915
ANGLE_2 = 2016-10-13T19:45:00.000 59.83327899320787
RANGE = 2016-10-13T19:45:00.000 169734154.85830042

ANGLE_1 = 2016-10-13T19:46:00.000 78.88744760541057
ANGLE_2 = 2016-10-13T19:46:00.000 60.03295859787706
RANGE = 2016-10-13T19:46:00.000 169734901.63573462

ANGLE_1 = 2016-10-13T19:47:00.000 78.67255560774719
ANGLE_2 = 2016-10-13T19:47:00.000 60.231543960500304
RANGE = 2016-10-13T19:47:00.000 169735648.55719814

ANGLE_1 = 2016-10-13T19:48:00.000 78.45540461497845
ANGLE_2 = 2016-10-13T19:48:00.000 60.4315293862198
RANGE = 2016-10-13T19:48:00.000 169736395.53521127

ANGLE_1 = 2016-10-13T19:49:00.000 78.23642701275195
ANGLE_2 = 2016-10-13T19:49:00.000 60.629444223699146
RANGE = 2016-10-13T19:49:00.000 169737142.5555631

ANGLE_1 = 2016-10-13T19:50:00.000 78.01515611796847
ANGLE_2 = 2016-10-13T19:50:00.000 60.82838576133323
RANGE = 2016-10-13T19:50:00.000 169737889.70358637

ANGLE_1 = 2016-10-13T19:51:00.000 77.79241158763625
ANGLE_2 = 2016-10-13T19:51:00.000 61.02647281654239
RANGE = 2016-10-13T19:51:00.000 169738636.86531332

ANGLE_1 = 2016-10-13T19:52:00.000 77.5680109746478
ANGLE_2 = 2016-10-13T19:52:00.000 61.22526868301383
RANGE = 2016-10-13T19:52:00.000 169739384.13225776

ANGLE_1 = 2016-10-13T19:53:00.000 77.34015898467999
ANGLE_2 = 2016-10-13T19:53:00.000 61.42329518406425
RANGE = 2016-10-13T19:53:00.000 169740131.4838264

ANGLE_1 = 2016-10-13T19:54:00.000 77.11110258165981
ANGLE_2 = 2016-10-13T19:54:00.000 61.62136092081361
RANGE = 2016-10-13T19:54:00.000 169740878.87734884

ANGLE_1 = 2016-10-13T19:55:00.000 76.88015992317473
ANGLE_2 = 2016-10-13T19:55:00.000 61.81896406683103
RANGE = 2016-10-13T19:55:00.000 169741626.3829031

ANGLE_1 = 2016-10-13T19:56:00.000 76.6467542557696
ANGLE_2 = 2016-10-13T19:56:00.000 62.01692309426559
RANGE = 2016-10-13T19:56:00.000 169742373.93880817

ANGLE_1 = 2016-10-13T19:57:00.000 76.41073417158526
ANGLE_2 = 2016-10-13T19:57:00.000 62.213698056356755
RANGE = 2016-10-13T19:57:00.000 169743121.5919542

ANGLE_1 = 2016-10-13T19:58:00.000 76.17220339130598
ANGLE_2 = 2016-10-13T19:58:00.000 62.410540010966784
RANGE = 2016-10-13T19:58:00.000 169743869.3125239

ANGLE_1 = 2016-10-13T19:59:00.000 75.93215957023267
ANGLE_2 = 2016-10-13T19:59:00.000 62.60794682589434
RANGE = 2016-10-13T19:59:00.000 169744617.0535727

ANGLE_1 = 2016-10-13T20:00:00.000 75.68914348572235
ANGLE_2 = 2016-10-13T20:00:00.000 62.80466698461355
RANGE = 2016-10-13T20:00:00.000 169745364.92859998

ANGLE_1 = 2016-10-13T20:01:00.000 75.44391673083365
ANGLE_2 = 2016-10-13T20:01:00.000 63.00155138864509
RANGE = 2016-10-13T20:01:00.000 169746112.8643349

ANGLE_1 = 2016-10-13T20:02:00.000 75.19610653305912
ANGLE_2 = 2016-10-13T20:02:00.000 63.197737892180285
RANGE = 2016-10-13T20:02:00.000 169746860.90866193

ANGLE_1 = 2016-10-13T20:03:00.000 74.94597764637346
ANGLE_2 = 2016-10-13T20:03:00.000 63.39353472908134
RANGE = 2016-10-13T20:03:00.000 169747608.9790182

ANGLE_1 = 2016-10-13T20:04:00.000 74.69254891110965
ANGLE_2 = 2016-10-13T20:04:00.000 63.58980920219064
RANGE = 2016-10-13T20:04:00.000 169748357.15312755

ANGLE_1 = 2016-10-13T20:05:00.000 74.43710592495049
ANGLE_2 = 2016-10-13T20:05:00.000 63.78556480936927
RANGE = 2016-10-13T20:05:00.000 169749105.42778358

ANGLE_1 = 2016-10-13T20:06:00.000 74.17915218947607
ANGLE_2 = 2016-10-13T20:06:00.000 63.98031214540326
RANGE = 2016-10-13T20:06:00.000 169749853.73563486

ANGLE_1 = 2016-10-13T20:07:00.000 73.91771953370197
ANGLE_2 = 2016-10-13T20:07:00.000 64.17603266169569
RANGE = 2016-10-13T20:07:00.000 169750602.17667785

ANGLE_1 = 2016-10-13T20:08:00.000 73.65341999833458
ANGLE_2 = 2016-10-13T20:08:00.000 64.37126844510026
RANGE = 2016-10-13T20:08:00.000 169751350.60715225

ANGLE_1 = 2016-10-13T20:09:00.000 73.38661006834965
ANGLE_2 = 2016-10-13T20:09:00.000 64.5653753956098
RANGE = 2016-10-13T20:09:00.000 169752099.16411918

ANGLE_1 = 2016-10-13T20:10:00.000 73.11595897097851
ANGLE_2 = 2016-10-13T20:10:00.000 64.75948363727078
RANGE = 2016-10-13T20:10:00.000 169752847.84710333

ANGLE_1 = 2016-10-13T20:11:00.000 72.84346667721366
ANGLE_2 = 2016-10-13T20:11:00.000 64.95374156140036
RANGE = 2016-10-13T20:11:00.000 169753596.51994088

ANGLE_1 = 2016-10-13T20:12:00.000 72.56757650515667
ANGLE_2 = 2016-10-13T20:12:00.000 65.14772849168213
RANGE = 2016-10-13T20:12:00.000 169754345.323397

ANGLE_1 = 2016-10-13T20:13:00.000 72.28794187350621
ANGLE_2 = 2016-10-13T20:13:00.000 65.34081101217024
RANGE = 2016-10-13T20:13:00.000 169755094.19678247

ANGLE_1 = 2016-10-13T20:14:00.000 72.00540181723511
ANGLE_2 = 2016-10-13T20:14:00.000 65.53389907478454
RANGE = 2016-10-13T20:14:00.000 169755843.13643232

ANGLE_1 = 2016-10-13T20:15:00.000 71.71916412017997
ANGLE_2 = 2016-10-13T20:15:00.000 65.72650544386066
RANGE = 2016-10-13T20:15:00.000 169756592.18265513

ANGLE_1 = 2016-10-13T20:16:00.000 71.42999858421672
ANGLE_2 = 2016-10-13T20:16:00.000 65.92048760375559
RANGE = 2016-10-13T20:16:00.000 169757341.26761982

ANGLE_1 = 2016-10-13T20:17:00.000 71.13674613003055
ANGLE_2 = 2016-10-13T20:17:00.000 66.11235415573154
RANGE = 2016-10-13T20:17:00.000 169758090.46752727

ANGLE_1 = 2016-10-13T20:18:00.000 70.84115222858563
ANGLE_2 = 2016-10-13T20:18:00.000 66.30411255139292
RANGE = 2016-10-13T20:18:00.000 169758839.75243485

ANGLE_1 = 2016-10-13T20:19:00.000 70.5397923416236
ANGLE_2 = 2016-10-13T20:19:00.000 66.49558414892242
RANGE = 2016-10-13T20:19:00.000 169759589.1135513

ANGLE_1 = 2016-10-13T20:20:00.000 70.23648656743302
ANGLE_2 = 2016-10-13T20:20:00.000 66.68633166006455
RANGE = 2016-10-13T20:20:00.000 169760338.5219717

ANGLE_1 = 2016-10-13T20:21:00.000 69.928641863068
ANGLE_2 = 2016-10-13T20:21:00.000 66.87734268204842
RANGE = 2016-10-13T20:21:00.000 169761088.02660003

ANGLE_1 = 2016-10-13T20:22:00.000 69.61702929486225
ANGLE_2 = 2016-10-13T20:22:00.000 67.0676527509993
RANGE = 2016-10-13T20:22:00.000 169761837.62989697

ANGLE_1 = 2016-10-13T20:23:00.000 69.30180364525764
ANGLE_2 = 2016-10-13T20:23:00.000 67.25739397073542
RANGE = 2016-10-13T20:23:00.000 169762587.28899997

ANGLE_1 = 2016-10-13T20:24:00.000 68.98214437577133
ANGLE_2 = 2016-10-13T20:24:00.000 67.44703393050122
RANGE = 2016-10-13T20:24:00.000 169763337.01402047

ANGLE_1 = 2016-10-13T20:25:00.000 68.65886004806714
ANGLE_2 = 2016-10-13T20:25:00.000 67.63696906352067
RANGE = 2016-10-13T20:25:00.000 169764086.87571722

ANGLE_1 = 2016-10-13T20:26:00.000 68.33090204960871
ANGLE_2 = 2016-10-13T20:26:00.000 67.82565666545226
RANGE = 2016-10-13T20:26:00.000 169764836.76341823

ANGLE_1 = 2016-10-13T20:27:00.000 67.99763465344184
ANGLE_2 = 2016-10-13T20:27:00.000 68.01398721706434
RANGE = 2016-10-13T20:27:00.000 169765586.7435317

ANGLE_1 = 2016-10-13T20:28:00.000 67.66039249842392
ANGLE_2 = 2016-10-13T20:28:00.000 68.20184872209735
RANGE = 2016-10-13T20:28:00.000 169766336.82001436

ANGLE_1 = 2016-10-13T20:29:00.000 67.31839609269701
ANGLE_2 = 2016-10-13T20:29:00.000 68.38916574796282
RANGE = 2016-10-13T20:29:00.000 169767086.96640846

ANGLE_1 = 2016-10-13T20:30:00.000 66.9727775778822
ANGLE_2 = 2016-10-13T20:30:00.000 68.57651141873217
RANGE = 2016-10-13T20:30:00.000 169767837.20752707

ANGLE_1 = 2016-10-13T20:31:00.000 66.62128242578845
ANGLE_2 = 2016-10-13T20:31:00.000 68.7628247331168
RANGE = 2016-10-13T20:31:00.000 169768587.5100923

ANGLE_1 = 2016-10-13T20:32:00.000 66.26479830273117
ANGLE_2 = 2016-10-13T20:32:00.000 68.94873496741866
RANGE = 2016-10-13T20:32:00.000 169769337.91308978

ANGLE_1 = 2016-10-13T20:33:00.000 65.90348875599588
ANGLE_2 = 2016-10-13T20:33:00.000 69.13459751846754
RANGE = 2016-10-13T20:33:00.000 169770088.4026534

ANGLE_1 = 2016-10-13T20:34:00.000 65.5371290239739
ANGLE_2 = 2016-10-13T20:34:00.000 69.31949328823904
RANGE = 2016-10-13T20:34:00.000 169770838.94318286

ANGLE_1 = 2016-10-13T20:35:00.000 65.1655290179158
ANGLE_2 = 2016-10-13T20:35:00.000 69.50379530761788
RANGE = 2016-10-13T20:35:00.000 169771589.56079075

ANGLE_1 = 2016-10-13T20:36:00.000 64.78755774224723
ANGLE_2 = 2016-10-13T20:36:00.000 69.68808550275106
RANGE = 2016-10-13T20:36:00.000 169772340.31744137

ANGLE_1 = 2016-10-13T20:37:00.000 64.4049007274774
ANGLE_2 = 2016-10-13T20:37:00.000 69.87131571592552
RANGE = 2016-10-13T20:37:00.000 169773091.1133241

ANGLE_1 = 2016-10-13T20:38:00.000 64.01621828779619
ANGLE_2 = 2016-10-13T20:38:00.000 70.05409162582137
RANGE = 2016-10-13T20:38:00.000 169773842.03436157

ANGLE_1 = 2016-10-13T20:39:00.000 63.621937058235076
ANGLE_2 = 2016-10-13T20:39:00.000 70.23672151665542
RANGE = 2016-10-13T20:39:00.000 169774592.9678922

ANGLE_1 = 2016-10-13T20:40:00.000 63.22157024737896
ANGLE_2 = 2016-10-13T20:40:00.000 70.41811595160213
RANGE = 2016-10-13T20:40:00.000 169775344.04701358

ANGLE_1 = 2016-10-13T20:41:00.000 62.81491882953531
ANGLE_2 = 2016-10-13T20:41:00.000 70.5985889540088
RANGE = 2016-10-13T20:41:00.000 169776095.15586993

ANGLE_1 = 2016-10-13T20:42:00.000 62.4015963885674
ANGLE_2 = 2016-10-13T20:42:00.000 70.77897418743181
RANGE = 2016-10-13T20:42:00.000 169776846.3817716

ANGLE_1 = 2016-10-13T20:43:00.000 61.98259834800026
ANGLE_2 = 2016-10-13T20:43:00.000 70.95822159162392
RANGE = 2016-10-13T20:43:00.000 169777597.6650127

ANGLE_1 = 2016-10-13T20:44:00.000 61.55589893592123
ANGLE_2 = 2016-10-13T20:44:00.000 71.13728550267548
RANGE = 2016-10-13T20:44:00.000 169778349.05237505

ANGLE_1 = 2016-10-13T20:45:00.000 61.123435329815834
ANGLE_2 = 2016-10-13T20:45:00.000 71.31567062108633
RANGE = 2016-10-13T20:45:00.000 169779100.5361978

ANGLE_1 = 2016-10-13T20:46:00.000 60.68375013380956
ANGLE_2 = 2016-10-13T20:46:00.000 71.49272652620697
RANGE = 2016-10-13T20:46:00.000 169779852.0992814

ANGLE_1 = 2016-10-13T20:47:00.000 60.23643618672321
ANGLE_2 = 2016-10-13T20:47:00.000 71.66890626249668
RANGE = 2016-10-13T20:47:00.000 169780603.7537605

ANGLE_1 = 2016-10-13T20:48:00.000 59.78209856971718
ANGLE_2 = 2016-10-13T20:48:00.000 71.84481991400294
RANGE = 2016-10-13T20:48:00.000 169781355.4391429

ANGLE_1 = 2016-10-13T20:49:00.000 59.32101900291677
ANGLE_2 = 2016-10-13T20:49:00.000 72.01962921393681
RANGE = 2016-10-13T20:49:00.000 169782107.25777566

ANGLE_1 = 2016-10-13T20:50:00.000 58.85109898728043
ANGLE_2 = 2016-10-13T20:50:00.000 72.1945608617645
RANGE = 2016-10-13T20:50:00.000 169782859.1326147

ANGLE_1 = 2016-10-13T20:51:00.000 58.374083515417915
ANGLE_2 = 2016-10-13T20:51:00.000 72.36709856343133
RANGE = 2016-10-13T20:51:00.000 169783611.10904768

ANGLE_1 = 2016-10-13T20:52:00.000 57.88814581299244
ANGLE_2 = 2016-10-13T20:52:00.000 72.53975009636403
RANGE = 2016-10-13T20:52:00.000 169784363.1580921

ANGLE_1 = 2016-10-13T20:53:00.000 57.39438181659039
ANGLE_2 = 2016-10-13T20:53:00.000 72.71070956550976
RANGE = 2016-10-13T20:53:00.000 169785115.3119019

ANGLE_1 = 2016-10-13T20:54:00.000 56.89251474629043
ANGLE_2 = 2016-10-13T20:54:00.000 72.88135094877477
RANGE = 2016-10-13T20:54:00.000 169785867.4930237

ANGLE_1 = 2016-10-13T20:55:00.000 56.38150884298344
ANGLE_2 = 2016-10-13T20:55:00.000 73.051106456617
RANGE = 2016-10-13T20:55:00.000 169786619.79415166

ANGLE_1 = 2016-10-13T20:56:00.000 55.8616722675366
ANGLE_2 = 2016-10-13T20:56:00.000 73.21954866501349
RANGE = 2016-10-13T20:56:00.000 169787372.2318179

ANGLE_1 = 2016-10-13T20:57:00.000 55.33212878852295
ANGLE_2 = 2016-10-13T20:57:00.000 73.38642794175989
RANGE = 2016-10-13T20:57:00.000 169788124.67304572

ANGLE_1 = 2016-10-13T20:58:00.000 54.794714652341895
ANGLE_2 = 2016-10-13T20:58:00.000 73.55263088061845
RANGE = 2016-10-13T20:58:00.000 169788877.25075132

ANGLE_1 = 2016-10-13T20:59:00.000 54.24656330762093
ANGLE_2 = 2016-10-13T20:59:00.000 73.7185625667128
RANGE = 2016-10-13T20:59:00.000 169789629.9089654

ANGLE_1 = 2016-10-13T21:00:00.000 53.6898102108991
ANGLE_2 = 2016-10-13T21:00:00.000 73.88254185953654
RANGE = 2016-10-13T21:00:00.000 169790382.58645898

ANGLE_1 = 2016-10-13T21:01:00.000 53.121576175000875
ANGLE_2 = 2016-10-13T21:01:00.000 74.04576825166535
RANGE = 2016-10-13T21:01:00.000 169791135.42479137

ANGLE_1 = 2016-10-13T21:02:00.000 52.54405453379068
ANGLE_2 = 2016-10-13T21:02:00.000 74.20710481379568
RANGE = 2016-10-13T21:02:00.000 169791888.3504661

ANGLE_1 = 2016-10-13T21:03:00.000 51.95658078870847
ANGLE_2 = 2016-10-13T21:03:00.000 74.36815091997427
RANGE = 2016-10-13T21:03:00.000 169792641.30801368

ANGLE_1 = 2016-10-13T21:04:00.000 51.35670603313689
ANGLE_2 = 2016-10-13T21:04:00.000 74.5263413748404
RANGE = 2016-10-13T21:04:00.000 169793394.411149

ANGLE_1 = 2016-10-13T21:05:00.000 50.74704053326251
ANGLE_2 = 2016-10-13T21:05:00.000 74.68482840049981
RANGE = 2016-10-13T21:05:00.000 169794147.54907125

ANGLE_1 = 2016-10-13T21:06:00.000 50.12576284653174
ANGLE_2 = 2016-10-13T21:06:00.000 74.84101547812693
RANGE = 2016-10-13T21:06:00.000 169794900.78436172

ANGLE_1 = 2016-10-13T21:07:00.000 49.49367945308647
ANGLE_2 = 2016-10-13T21:07:00.000 74.99624138534612
RANGE = 2016-10-13T21:07:00.000 169795654.10220748

ANGLE_1 = 2016-10-13T21:08:00.000 48.848928591892516
ANGLE_2 = 2016-10-13T21:08:00.000 75.14971317833556
RANGE = 2016-10-13T21:08:00.000 169796407.54255104

ANGLE_1 = 2016-10-13T21:09:00.000 48.19241781345698
ANGLE_2 = 2016-10-13T21:09:00.000 75.30194539230632
RANGE = 2016-10-13T21:09:00.000 169797161.00399035

ANGLE_1 = 2016-10-13T21:10:00.000 47.52404477002474
ANGLE_2 = 2016-10-13T21:10:00.000 75.4521142578242
RANGE = 2016-10-13T21:10:00.000 169797914.61190125

ANGLE_1 = 2016-10-13T21:11:00.000 46.8431332852329
ANGLE_2 = 2016-10-13T21:11:00.000 75.60133468715149
RANGE = 2016-10-13T21:11:00.000 169798668.26113

ANGLE_1 = 2016-10-13T21:12:00.000 46.14947894265695
ANGLE_2 = 2016-10-13T21:12:00.000 75.74751458456896
RANGE = 2016-10-13T21:12:00.000 169799422.04655308

ANGLE_1 = 2016-10-13T21:13:00.000 45.44216449979208
ANGLE_2 = 2016-10-13T21:13:00.000 75.89352977106905
RANGE = 2016-10-13T21:13:00.000 169800175.8668358

ANGLE_1 = 2016-10-13T21:14:00.000 44.722895718630035
ANGLE_2 = 2016-10-13T21:14:00.000 76.03775521377992
RANGE = 2016-10-13T21:14:00.000 169800929.82079577

ANGLE_1 = 2016-10-13T21:15:00.000 43.98899036443594
ANGLE_2 = 2016-10-13T21:15:00.000 76.17929530962253
RANGE = 2016-10-13T21:15:00.000 169801683.7994899

ANGLE_1 = 2016-10-13T21:16:00.000 43.24190190343177
ANGLE_2 = 2016-10-13T21:16:00.000 76.31909564992141
RANGE = 2016-10-13T21:16:00.000 169802437.91307068

ANGLE_1 = 2016-10-13T21:17:00.000 42.48097687594127
ANGLE_2 = 2016-10-13T21:17:00.000 76.45709547054473
RANGE = 2016-10-13T21:17:00.000 169803192.10245088

ANGLE_1 = 2016-10-13T21:18:00.000 41.70627892477288
ANGLE_2 = 2016-10-13T21:18:00.000 76.59376525485695
RANGE = 2016-10-13T21:18:00.000 169803946.40673348

ANGLE_1 = 2016-10-13T21:19:00.000 40.91675324655953
ANGLE_2 = 2016-10-13T21:19:00.000 76.72733138918389
RANGE = 2016-10-13T21:19:00.000 169804700.7311519

ANGLE_1 = 2016-10-13T21:20:00.000 40.11239445097071
ANGLE_2 = 2016-10-13T21:20:00.000 76.85897828468653
RANGE = 2016-10-13T21:20:00.000 169805455.19523516

ANGLE_1 = 2016-10-13T21:21:00.000 39.293938619893844
ANGLE_2 = 2016-10-13T21:21:00.000 76.98903168250959
RANGE = 2016-10-13T21:21:00.000 169806209.71982726

ANGLE_1 = 2016-10-13T21:22:00.000 38.459877278589204
ANGLE_2 = 2016-10-13T21:22:00.000 77.11569134867865
RANGE = 2016-10-13T21:22:00.000 169806964.3283355

ANGLE_1 = 2016-10-13T21:23:00.000 37.6108928256379
ANGLE_2 = 2016-10-13T21:23:00.000 77.24176787430308
RANGE = 2016-10-13T21:23:00.000 169807719.0853928

ANGLE_1 = 2016-10-13T21:24:00.000 36.74651244301836
ANGLE_2 = 2016-10-13T21:24:00.000 77.36381935334968
RANGE = 2016-10-13T21:24:00.000 169808473.8610815

ANGLE_1 = 2016-10-13T21:25:00.000 35.86637575295681
ANGLE_2 = 2016-10-13T21:25:00.000 77.48344383961995
RANGE = 2016-10-13T21:25:00.000 169809228.7303217

ANGLE_1 = 2016-10-13T21:26:00.000 34.971946698806406
ANGLE_2 = 2016-10-13T21:26:00.000 77.60125027860738
RANGE = 2016-10-13T21:26:00.000 169809983.68555686

ANGLE_1 = 2016-10-13T21:27:00.000 34.060558990708664
ANGLE_2 = 2016-10-13T21:27:00.000 77.71681630613365
RANGE = 2016-10-13T21:27:00.000 169810738.77966383

ANGLE_1 = 2016-10-13T21:28:00.000 33.133419713316094
ANGLE_2 = 2016-10-13T21:28:00.000 77.82886256150213
RANGE = 2016-10-13T21:28:00.000 169811493.90219912

ANGLE_1 = 2016-10-13T21:29:00.000 32.19146978496892
ANGLE_2 = 2016-10-13T21:29:00.000 77.93805946460499
RANGE = 2016-10-13T21:29:00.000 169812249.14624438

ANGLE_1 = 2016-10-13T21:30:00.000 31.23202580158596
ANGLE_2 = 2016-10-13T21:30:00.000 78.04453499576756
RANGE = 2016-10-13T21:30:00.000 169813004.4553728

ANGLE_1 = 2016-10-13T21:31:00.000 30.258728502995105
ANGLE_2 = 2016-10-13T21:31:00.000 78.14835278661522
RANGE = 2016-10-13T21:31:00.000 169813759.8274724

ANGLE_1 = 2016-10-13T21:32:00.000 29.268258111446706
ANGLE_2 = 2016-10-13T21:32:00.000 78.24892013311708
RANGE = 2016-10-13T21:32:00.000 169814515.28762275

ANGLE_1 = 2016-10-13T21:33:00.000 28.263430701959056
ANGLE_2 = 2016-10-13T21:33:00.000 78.34681662710331
RANGE = 2016-10-13T21:33:00.000 169815270.92526528

ANGLE_1 = 2016-10-13T21:34:00.000 27.24173158195328
ANGLE_2 = 2016-10-13T21:34:00.000 78.44174036991019
RANGE = 2016-10-13T21:34:00.000 169816026.5486361

ANGLE_1 = 2016-10-13T21:35:00.000 26.204995300244697
ANGLE_2 = 2016-10-13T21:35:00.000 78.53238907154557
RANGE = 2016-10-13T21:35:00.000 169816782.33236858

ANGLE_1 = 2016-10-13T21:36:00.000 25.15330468142839
ANGLE_2 = 2016-10-13T21:36:00.000 78.62091904010697
RANGE = 2016-10-13T21:36:00.000 169817538.18448436

ANGLE_1 = 2016-10-13T21:37:00.000 24.086500019499255
ANGLE_2 = 2016-10-13T21:37:00.000 78.70479782122482
RANGE = 2016-10-13T21:37:00.000 169818294.12010664

ANGLE_1 = 2016-10-13T21:38:00.000 23.00518945310998
ANGLE_2 = 2016-10-13T21:38:00.000 78.7860198796798
RANGE = 2016-10-13T21:38:00.000 169819050.09446222

ANGLE_1 = 2016-10-13T21:39:00.000 21.90865769264659
ANGLE_2 = 2016-10-13T21:39:00.000 78.86367734912956
RANGE = 2016-10-13T21:39:00.000 169819806.21676564

ANGLE_1 = 2016-10-13T21:40:00.000 20.798800261288097
ANGLE_2 = 2016-10-13T21:40:00.000 78.93768046307171
RANGE = 2016-10-13T21:40:00.000 169820562.434646

ANGLE_1 = 2016-10-13T21:41:00.000 19.675157189406534
ANGLE_2 = 2016-10-13T21:41:00.000 79.00809385702757
RANGE = 2016-10-13T21:41:00.000 169821318.68091482

ANGLE_1 = 2016-10-13T21:42:00.000 18.537947226441236
ANGLE_2 = 2016-10-13T21:42:00.000 79.07388120846714
RANGE = 2016-10-13T21:42:00.000 169822075.0436371

ANGLE_1 = 2016-10-13T21:43:00.000 17.38752290189068
ANGLE_2 = 2016-10-13T21:43:00.000 79.13618437051133
RANGE = 2016-10-13T21:43:00.000 169822831.46999332

ANGLE_1 = 2016-10-13T21:44:00.000 16.2269937560984
ANGLE_2 = 2016-10-13T21:44:00.000 79.19445534245429
RANGE = 2016-10-13T21:44:00.000 169823588.0362778

ANGLE_1 = 2016-10-13T21:45:00.000 15.05318590890615
ANGLE_2 = 2016-10-13T21:45:00.000 79.24926342997271
RANGE = 2016-10-13T21:45:00.000 169824344.64662766

ANGLE_1 = 2016-10-13T21:46:00.000 13.86898761408838
ANGLE_2 = 2016-10-13T21:46:00.000 79.30061129968486
RANGE = 2016-10-13T21:46:00.000 169825101.39880076

ANGLE_1 = 2016-10-13T21:47:00.000 12.674156999860571
ANGLE_2 = 2016-10-13T21:47:00.000 79.346476164453
RANGE = 2016-10-13T21:47:00.000 169825858.162253

ANGLE_1 = 2016-10-13T21:48:00.000 11.470764687674691
ANGLE_2 = 2016-10-13T21:48:00.000 79.38914608649534
RANGE = 2016-10-13T21:48:00.000 169826615.05769265

ANGLE_1 = 2016-10-13T21:49:00.000 10.258091954941243
ANGLE_2 = 2016-10-13T21:49:00.000 79.42693059116033
RANGE = 2016-10-13T21:49:00.000 169827372.0479305

ANGLE_1 = 2016-10-13T21:50:00.000 9.037742435739734
ANGLE_2 = 2016-10-13T21:50:00.000 79.46101946728348
RANGE = 2016-10-13T21:50:00.000 169828129.10477787

ANGLE_1 = 2016-10-13T21:51:00.000 7.810481735101371
ANGLE_2 = 2016-10-13T21:51:00.000 79.4909535789906
RANGE = 2016-10-13T21:51:00.000 169828886.2439546

ANGLE_1 = 2016-10-13T21:52:00.000 6.577231010987244
ANGLE_2 = 2016-10-13T21:52:00.000 79.51634500395829
RANGE = 2016-10-13T21:52:00.000 169829643.50234526

ANGLE_1 = 2016-10-13T21:53:00.000 5.338381328172073
ANGLE_2 = 2016-10-13T21:53:00.000 79.53774993873324
RANGE = 2016-10-13T21:53:00.000 169830400.84225428

ANGLE_1 = 2016-10-13T21:54:00.000 4.095897286049753
ANGLE_2 = 2016-10-13T21:54:00.000 79.55389034557686
RANGE = 2016-10-13T21:54:00.000 169831158.2420943

ANGLE_1 = 2016-10-13T21:55:00.000 2.849643620388693
ANGLE_2 = 2016-10-13T21:55:00.000 79.56632273095651
RANGE = 2016-10-13T21:55:00.000 169831915.7794522

ANGLE_1 = 2016-10-13T21:56:00.000 1.6008600409154297
ANGLE_2 = 2016-10-13T21:56:00.000 79.57406389046716
RANGE = 2016-10-13T21:56:00.000 169832673.3317069

ANGLE_1 = 2016-10-13T21:57:00.000 0.3510225902796375
ANGLE_2 = 2016-10-13T21:57:00.000 79.57718988281025
RANGE = 2016-10-13T21:57:00.000 169833431.0454042

ANGLE_1 = 2016-10-13T21:58:00.000 359.10155183545095
ANGLE_2 = 2016-10-13T21:58:00.000 79.5758692541007
RANGE = 2016-10-13T21:58:00.000 169834188.84024444

ANGLE_1 = 2016-10-13T21:59:00.000 357.8522391309134
ANGLE_2 = 2016-10-13T21:59:00.000 79.57074924604993
RANGE = 2016-10-13T21:59:00.000 169834946.63827962

ANGLE_1 = 2016-10-13T22:00:00.000 356.60563881583346
ANGLE_2 = 2016-10-13T22:00:00.000 79.56083888963389
RANGE = 2016-10-13T22:00:00.000 169835704.59266758

ANGLE_1 = 2016-10-13T22:01:00.000 355.36114584449314
ANGLE_2 = 2016-10-13T22:01:00.000 79.5466460186438
RANGE = 2016-10-13T22:01:00.000 169836462.62070525

ANGLE_1 = 2016-10-13T22:02:00.000 354.1201897465066
ANGLE_2 = 2016-10-13T22:02:00.000 79.52812563565128
RANGE = 2016-10-13T22:02:00.000 169837220.75130144

ANGLE_1 = 2016-10-13T22:03:00.000 352.88358636515244
ANGLE_2 = 2016-10-13T22:03:00.000 79.50543943617657
RANGE = 2016-10-13T22:03:00.000 169837978.9437007

ANGLE_1 = 2016-10-13T22:04:00.000 351.6527454800824
ANGLE_2 = 2016-10-13T22:04:00.000 79.47762965501943
RANGE = 2016-10-13T22:04:00.000 169838737.2524525

ANGLE_1 = 2016-10-13T22:05:00.000 350.4293830317005
ANGLE_2 = 2016-10-13T22:05:00.000 79.44563362459424
RANGE = 2016-10-13T22:05:00.000 169839495.63613683

ANGLE_1 = 2016-10-13T22:06:00.000 349.21180921102683
ANGLE_2 = 2016-10-13T22:06:00.000 79.41002419305042
RANGE = 2016-10-13T22:06:00.000 169840254.09131655

ANGLE_1 = 2016-10-13T22:07:00.000 348.0038700210369
ANGLE_2 = 2016-10-13T22:07:00.000 79.36938586455724
RANGE = 2016-10-13T22:07:00.000 169841012.66269246

ANGLE_1 = 2016-10-13T22:08:00.000 346.80383568573353
ANGLE_2 = 2016-10-13T22:08:00.000 79.32478692798033
RANGE = 2016-10-13T22:08:00.000 169841771.28398174

ANGLE_1 = 2016-10-13T22:09:00.000 345.6139448307592
ANGLE_2 = 2016-10-13T22:09:00.000 79.27700904581098
RANGE = 2016-10-13T22:09:00.000 169842530.0552112

ANGLE_1 = 2016-10-13T22:10:00.000 344.4348583698988
ANGLE_2 = 2016-10-13T22:10:00.000 79.22407493966043
RANGE = 2016-10-13T22:10:00.000 169843288.88097766

ANGLE_1 = 2016-10-13T22:11:00.000 343.26739078881025
ANGLE_2 = 2016-10-13T22:11:00.000 79.16716352855019
RANGE = 2016-10-13T22:11:00.000 169844047.76089123

ANGLE_1 = 2016-10-13T22:12:00.000 342.11083760335725
ANGLE_2 = 2016-10-13T22:12:00.000 79.10767617309334
RANGE = 2016-10-13T22:12:00.000 169844806.756884

ANGLE_1 = 2016-10-13T22:13:00.000 340.96624997611707
ANGLE_2 = 2016-10-13T22:13:00.000 79.04304350982733
RANGE = 2016-10-13T22:13:00.000 169845565.84148708

ANGLE_1 = 2016-10-13T22:14:00.000 339.83568960807776
ANGLE_2 = 2016-10-13T22:14:00.000 78.97468417482501
RANGE = 2016-10-13T22:14:00.000 169846325.0122263

ANGLE_1 = 2016-10-13T22:15:00.000 338.7186475149737
ANGLE_2 = 2016-10-13T22:15:00.000 78.90298263787783
RANGE = 2016-10-13T22:15:00.000 169847084.28379416

ANGLE_1 = 2016-10-13T22:16:00.000 337.61558276407214
ANGLE_2 = 2016-10-13T22:16:00.000 78.82717205312537
RANGE = 2016-10-13T22:16:00.000 169847843.61304364

ANGLE_1 = 2016-10-13T22:17:00.000 336.5256770470671
ANGLE_2 = 2016-10-13T22:17:00.000 78.74832273937233
RANGE = 2016-10-13T22:17:00.000 169848603.0571938

ANGLE_1 = 2016-10-13T22:18:00.000 335.4509479861215
ANGLE_2 = 2016-10-13T22:18:00.000 78.66554921851365
RANGE = 2016-10-13T22:18:00.000 169849362.57196683

ANGLE_1 = 2016-10-13T22:19:00.000 334.3915605405042
ANGLE_2 = 2016-10-13T22:19:00.000 78.5792222655372
RANGE = 2016-10-13T22:19:00.000 169850122.17388925

ANGLE_1 = 2016-10-13T22:20:00.000 333.3467904828247
ANGLE_2 = 2016-10-13T22:20:00.000 78.49013958090997
RANGE = 2016-10-13T22:20:00.000 169850881.8945826

ANGLE_1 = 2016-10-13T22:21:00.000 332.3171340897857
ANGLE_2 = 2016-10-13T22:21:00.000 78.39744242301259
RANGE = 2016-10-13T22:21:00.000 169851641.65928572

ANGLE_1 = 2016-10-13T22:22:00.000 331.303537110892
ANGLE_2 = 2016-10-13T22:22:00.000 78.30095009637208
RANGE = 2016-10-13T22:22:00.000 169852401.54285344

ANGLE_1 = 2016-10-13T22:23:00.000 330.3056260219063
ANGLE_2 = 2016-10-13T22:23:00.000 78.20165510391126
RANGE = 2016-10-13T22:23:00.000 169853161.48624763

ANGLE_1 = 2016-10-13T22:24:00.000 329.3224680784499
ANGLE_2 = 2016-10-13T22:24:00.000 78.10033124805042
RANGE = 2016-10-13T22:24:00.000 169853921.53418216

ANGLE_1 = 2016-10-13T22:25:00.000 328.3559912638848
ANGLE_2 = 2016-10-13T22:25:00.000 77.99499264777333
RANGE = 2016-10-13T22:25:00.000 169854681.69845587

ANGLE_1 = 2016-10-13T22:26:00.000 327.4053070079872
ANGLE_2 = 2016-10-13T22:26:00.000 77.88679472159782
RANGE = 2016-10-13T22:26:00.000 169855441.90193093

ANGLE_1 = 2016-10-13T22:27:00.000 326.47000270902834
ANGLE_2 = 2016-10-13T22:27:00.000 77.77591222463322
RANGE = 2016-10-13T22:27:00.000 169856202.22123116

ANGLE_1 = 2016-10-13T22:28:00.000 325.54960552663755
ANGLE_2 = 2016-10-13T22:28:00.000 77.66197821079051
RANGE = 2016-10-13T22:28:00.000 169856962.63231283

ANGLE_1 = 2016-10-13T22:29:00.000 324.64679452612006
ANGLE_2 = 2016-10-13T22:29:00.000 77.54617421719985
RANGE = 2016-10-13T22:29:00.000 169857723.08880702

ANGLE_1 = 2016-10-13T22:30:00.000 323.758452819577
ANGLE_2 = 2016-10-13T22:30:00.000 77.42750019319074
RANGE = 2016-10-13T22:30:00.000 169858483.65161133

ANGLE_1 = 2016-10-13T22:31:00.000 322.885930300466
ANGLE_2 = 2016-10-13T22:31:00.000 77.30598568546425
RANGE = 2016-10-13T22:31:00.000 169859244.32494277

ANGLE_1 = 2016-10-13T22:32:00.000 322.0295064079799
ANGLE_2 = 2016-10-13T22:32:00.000 77.18243324564189
RANGE = 2016-10-13T22:32:00.000 169860005.05567196

ANGLE_1 = 2016-10-13T22:33:00.000 321.18734137746856
ANGLE_2 = 2016-10-13T22:33:00.000 77.05616022197829
RANGE = 2016-10-13T22:33:00.000 169860765.8709088

ANGLE_1 = 2016-10-13T22:34:00.000 320.3610620613077
ANGLE_2 = 2016-10-13T22:34:00.000 76.92749534191887
RANGE = 2016-10-13T22:34:00.000 169861526.84287214

ANGLE_1 = 2016-10-13T22:35:00.000 319.54895268815034
ANGLE_2 = 2016-10-13T22:35:00.000 76.79697883015966
RANGE = 2016-10-13T22:35:00.000 169862287.80343536

ANGLE_1 = 2016-10-13T22:36:00.000 318.75125763475677
ANGLE_2 = 2016-10-13T22:36:00.000 76.66388770395208
RANGE = 2016-10-13T22:36:00.000 169863048.8828303

ANGLE_1 = 2016-10-13T22:37:00.000 317.9686255103894
ANGLE_2 = 2016-10-13T22:37:00.000 76.52860927326785
RANGE = 2016-10-13T22:37:00.000 169863810.09776068

ANGLE_1 = 2016-10-13T22:38:00.000 317.200742246637
