2nd Assignment - Navigation/tdm/MALARGUE_EXM_20161015T162426_20161016T032513.tdm

CCSDS_TDM_VERS = 2.0

COMMENT This TDM contains synthetic data, not from real observations

CREATION_DATE = 2021-11-26T14:48:28.688033
ORIGINATOR = POLIMI-DAER

META_START
TIME_SYSTEM = UTC
START_TIME = 2016-10-15T16:24:26.026
STOP_TIME = 2016-10-16T03:25:13.094
PARTICIPANT_1 = MALARGUE
PARTICIPANT_2 = EXM
MODE = SEQUENTIAL
PATH = 1,2,1
RANGE_UNITS = km
ANGLE_TYPE = AZEL
META_STOP

DATA_START

ANGLE_1 = 2016-10-15T16:24:26.026 107.1783020642209
ANGLE_2 = 2016-10-15T16:24:26.026 19.99985397800896
RANGE = 2016-10-15T16:24:26.026 171762944.07434678

ANGLE_1 = 2016-10-15T16:25:00.000 107.10780571811952
ANGLE_2 = 2016-10-15T16:25:00.000 20.10984276284638
RANGE = 2016-10-15T16:25:00.000 171763359.4661467

ANGLE_1 = 2016-10-15T16:26:00.000 106.98402358172793
ANGLE_2 = 2016-10-15T16:26:00.000 20.304005190870264
RANGE = 2016-10-15T16:26:00.000 171764093.0454284

ANGLE_1 = 2016-10-15T16:27:00.000 106.85880062740974
ANGLE_2 = 2016-10-15T16:27:00.000 20.498329349654256
RANGE = 2016-10-15T16:27:00.000 171764826.62910005

ANGLE_1 = 2016-10-15T16:28:00.000 106.73399462877072
ANGLE_2 = 2016-10-15T16:28:00.000 20.692092541776837
RANGE = 2016-10-15T16:28:00.000 171765560.24563268

ANGLE_1 = 2016-10-15T16:29:00.000 106.61011793246566
ANGLE_2 = 2016-10-15T16:29:00.000 20.886723493883103
RANGE = 2016-10-15T16:29:00.000 171766293.87800643

ANGLE_1 = 2016-10-15T16:30:00.000 106.48610753888434
ANGLE_2 = 2016-10-15T16:30:00.000 21.081409016744406
RANGE = 2016-10-15T16:30:00.000 171767027.51166713

ANGLE_1 = 2016-10-15T16:31:00.000 106.36170721155794
ANGLE_2 = 2016-10-15T16:31:00.000 21.27615648842177
RANGE = 2016-10-15T16:31:00.000 171767761.13790855

ANGLE_1 = 2016-10-15T16:32:00.000 106.23799315007018
ANGLE_2 = 2016-10-15T16:32:00.000 21.471253260523167
RANGE = 2016-10-15T16:32:00.000 171768494.80038172

ANGLE_1 = 2016-10-15T16:33:00.000 106.11406348622722
ANGLE_2 = 2016-10-15T16:33:00.000 21.66554211632901
RANGE = 2016-10-15T16:33:00.000 171769228.4530058

ANGLE_1 = 2016-10-15T16:34:00.000 105.98969374243083
ANGLE_2 = 2016-10-15T16:34:00.000 21.860696413145497
RANGE = 2016-10-15T16:34:00.000 171769962.15731236

ANGLE_1 = 2016-10-15T16:35:00.000 105.8665335558167
ANGLE_2 = 2016-10-15T16:35:00.000 22.055642564919587
RANGE = 2016-10-15T16:35:00.000 171770695.82454935

ANGLE_1 = 2016-10-15T16:36:00.000 105.7415892973542
ANGLE_2 = 2016-10-15T16:36:00.000 22.251264030359064
RANGE = 2016-10-15T16:36:00.000 171771429.54570553

ANGLE_1 = 2016-10-15T16:37:00.000 105.61878997805962
ANGLE_2 = 2016-10-15T16:37:00.000 22.446098758375513
RANGE = 2016-10-15T16:37:00.000 171772163.2854752

ANGLE_1 = 2016-10-15T16:38:00.000 105.49452725482462
ANGLE_2 = 2016-10-15T16:38:00.000 22.642667513123637
RANGE = 2016-10-15T16:38:00.000 171772897.0019443

ANGLE_1 = 2016-10-15T16:39:00.000 105.37108923578835
ANGLE_2 = 2016-10-15T16:39:00.000 22.837592055485352
RANGE = 2016-10-15T16:39:00.000 171773630.78849432

ANGLE_1 = 2016-10-15T16:40:00.000 105.24731849217838
ANGLE_2 = 2016-10-15T16:40:00.000 23.03348264793787
RANGE = 2016-10-15T16:40:00.000 171774364.52332094

ANGLE_1 = 2016-10-15T16:41:00.000 105.12463849338869
ANGLE_2 = 2016-10-15T16:41:00.000 23.229801262666466
RANGE = 2016-10-15T16:41:00.000 171775098.33328244

ANGLE_1 = 2016-10-15T16:42:00.000 104.99984604183534
ANGLE_2 = 2016-10-15T16:42:00.000 23.42523988811747
RANGE = 2016-10-15T16:42:00.000 171775832.1332267

ANGLE_1 = 2016-10-15T16:43:00.000 104.87622032942647
ANGLE_2 = 2016-10-15T16:43:00.000 23.6215513127319
RANGE = 2016-10-15T16:43:00.000 171776565.94484207

ANGLE_1 = 2016-10-15T16:44:00.000 104.75254485779448
ANGLE_2 = 2016-10-15T16:44:00.000 23.817351398845336
RANGE = 2016-10-15T16:44:00.000 171777299.78369775

ANGLE_1 = 2016-10-15T16:45:00.000 104.62965782903494
ANGLE_2 = 2016-10-15T16:45:00.000 24.013771266429902
RANGE = 2016-10-15T16:45:00.000 171778033.6257936

ANGLE_1 = 2016-10-15T16:46:00.000 104.50573699595544
ANGLE_2 = 2016-10-15T16:46:00.000 24.210503201980895
RANGE = 2016-10-15T16:46:00.000 171778767.5140222

ANGLE_1 = 2016-10-15T16:47:00.000 104.38256567420329
ANGLE_2 = 2016-10-15T16:47:00.000 24.407086129629562
RANGE = 2016-10-15T16:47:00.000 171779501.4211655

ANGLE_1 = 2016-10-15T16:48:00.000 104.25899280391974
ANGLE_2 = 2016-10-15T16:48:00.000 24.603554303891006
RANGE = 2016-10-15T16:48:00.000 171780235.33104622

ANGLE_1 = 2016-10-15T16:49:00.000 104.1356890855748
ANGLE_2 = 2016-10-15T16:49:00.000 24.800351086299262
RANGE = 2016-10-15T16:49:00.000 171780969.2242583

ANGLE_1 = 2016-10-15T16:50:00.000 104.01242275836033
ANGLE_2 = 2016-10-15T16:50:00.000 24.99752497112732
RANGE = 2016-10-15T16:50:00.000 171781703.18987006

ANGLE_1 = 2016-10-15T16:51:00.000 103.88851227071707
ANGLE_2 = 2016-10-15T16:51:00.000 25.19431712350133
RANGE = 2016-10-15T16:51:00.000 171782437.14373457

ANGLE_1 = 2016-10-15T16:52:00.000 103.76570675433285
ANGLE_2 = 2016-10-15T16:52:00.000 25.391306301786997
RANGE = 2016-10-15T16:52:00.000 171783171.11825654

ANGLE_1 = 2016-10-15T16:53:00.000 103.64240085624351
ANGLE_2 = 2016-10-15T16:53:00.000 25.588239787611535
RANGE = 2016-10-15T16:53:00.000 171783905.09450877

ANGLE_1 = 2016-10-15T16:54:00.000 103.51823180834415
ANGLE_2 = 2016-10-15T16:54:00.000 25.785875703374575
RANGE = 2016-10-15T16:54:00.000 171784639.15043116

ANGLE_1 = 2016-10-15T16:55:00.000 103.39522664363666
ANGLE_2 = 2016-10-15T16:55:00.000 25.983219184481033
RANGE = 2016-10-15T16:55:00.000 171785373.22483492

ANGLE_1 = 2016-10-15T16:56:00.000 103.27200977379283
ANGLE_2 = 2016-10-15T16:56:00.000 26.180797679192274
RANGE = 2016-10-15T16:56:00.000 171786107.24475676

ANGLE_1 = 2016-10-15T16:57:00.000 103.14828084554145
ANGLE_2 = 2016-10-15T16:57:00.000 26.378388732124005
RANGE = 2016-10-15T16:57:00.000 171786841.35790774

ANGLE_1 = 2016-10-15T16:58:00.000 103.0252440996446
ANGLE_2 = 2016-10-15T16:58:00.000 26.576032516985457
RANGE = 2016-10-15T16:58:00.000 171787575.4855837

ANGLE_1 = 2016-10-15T16:59:00.000 102.90135383200248
ANGLE_2 = 2016-10-15T16:59:00.000 26.77395691154817
RANGE = 2016-10-15T16:59:00.000 171788309.58072534

ANGLE_1 = 2016-10-15T17:00:00.000 102.77792119511216
ANGLE_2 = 2016-10-15T17:00:00.000 26.971688116236223
RANGE = 2016-10-15T17:00:00.000 171789043.77739054

ANGLE_1 = 2016-10-15T17:01:00.000 102.65402629364947
ANGLE_2 = 2016-10-15T17:01:00.000 27.169355431757296
RANGE = 2016-10-15T17:01:00.000 171789777.96345717

ANGLE_1 = 2016-10-15T17:02:00.000 102.53069488478741
ANGLE_2 = 2016-10-15T17:02:00.000 27.367873087607673
RANGE = 2016-10-15T17:02:00.000 171790512.17880592

ANGLE_1 = 2016-10-15T17:03:00.000 102.40681284167931
ANGLE_2 = 2016-10-15T17:03:00.000 27.565894969394705
RANGE = 2016-10-15T17:03:00.000 171791246.4209371

ANGLE_1 = 2016-10-15T17:04:00.000 102.28383769809288
ANGLE_2 = 2016-10-15T17:04:00.000 27.764452431122386
RANGE = 2016-10-15T17:04:00.000 171791980.66749287

ANGLE_1 = 2016-10-15T17:05:00.000 102.15999463798397
ANGLE_2 = 2016-10-15T17:05:00.000 27.96199297958704
RANGE = 2016-10-15T17:05:00.000 171792714.9043559

ANGLE_1 = 2016-10-15T17:06:00.000 102.03575193062596
ANGLE_2 = 2016-10-15T17:06:00.000 28.161076383215626
RANGE = 2016-10-15T17:06:00.000 171793449.23407876

ANGLE_1 = 2016-10-15T17:07:00.000 101.91299513944928
ANGLE_2 = 2016-10-15T17:07:00.000 28.35957849867334
RANGE = 2016-10-15T17:07:00.000 171794183.5620257

ANGLE_1 = 2016-10-15T17:08:00.000 101.78847932676119
ANGLE_2 = 2016-10-15T17:08:00.000 28.557880843323545
RANGE = 2016-10-15T17:08:00.000 171794917.9290513

ANGLE_1 = 2016-10-15T17:09:00.000 101.66559161278055
ANGLE_2 = 2016-10-15T17:09:00.000 28.756696166471976
RANGE = 2016-10-15T17:09:00.000 171795652.3130142

ANGLE_1 = 2016-10-15T17:10:00.000 101.54165975797552
ANGLE_2 = 2016-10-15T17:10:00.000 28.955757841671947
RANGE = 2016-10-15T17:10:00.000 171796386.74233487

ANGLE_1 = 2016-10-15T17:11:00.000 101.41747594191017
ANGLE_2 = 2016-10-15T17:11:00.000 29.155045505501235
RANGE = 2016-10-15T17:11:00.000 171797121.15903622

ANGLE_1 = 2016-10-15T17:12:00.000 101.29344134016814
ANGLE_2 = 2016-10-15T17:12:00.000 29.35378399569342
RANGE = 2016-10-15T17:12:00.000 171797855.5889029

ANGLE_1 = 2016-10-15T17:13:00.000 101.16928516977084
ANGLE_2 = 2016-10-15T17:13:00.000 29.552235653951275
RANGE = 2016-10-15T17:13:00.000 171798590.10332635

ANGLE_1 = 2016-10-15T17:14:00.000 101.04512450803486
ANGLE_2 = 2016-10-15T17:14:00.000 29.75175553320371
RANGE = 2016-10-15T17:14:00.000 171799324.6368268

ANGLE_1 = 2016-10-15T17:15:00.000 100.92088983230241
ANGLE_2 = 2016-10-15T17:15:00.000 29.950950288014663
RANGE = 2016-10-15T17:15:00.000 171800059.19981655

ANGLE_1 = 2016-10-15T17:16:00.000 100.79642142840653
ANGLE_2 = 2016-10-15T17:16:00.000 30.15004772011945
RANGE = 2016-10-15T17:16:00.000 171800793.74232987

ANGLE_1 = 2016-10-15T17:17:00.000 100.67254626736629
ANGLE_2 = 2016-10-15T17:17:00.000 30.350002854137934
RANGE = 2016-10-15T17:17:00.000 171801528.36663356

ANGLE_1 = 2016-10-15T17:18:00.000 100.54790350962504
ANGLE_2 = 2016-10-15T17:18:00.000 30.54853266627696
RANGE = 2016-10-15T17:18:00.000 171802263.0078296

ANGLE_1 = 2016-10-15T17:19:00.000 100.42357346056659
ANGLE_2 = 2016-10-15T17:19:00.000 30.74870367798179
RANGE = 2016-10-15T17:19:00.000 171802997.6639055

ANGLE_1 = 2016-10-15T17:20:00.000 100.29887486110428
ANGLE_2 = 2016-10-15T17:20:00.000 30.948075174275967
RANGE = 2016-10-15T17:20:00.000 171803732.36148992

ANGLE_1 = 2016-10-15T17:21:00.000 100.17432709495748
ANGLE_2 = 2016-10-15T17:21:00.000 31.14832930984268
RANGE = 2016-10-15T17:21:00.000 171804467.08755776

ANGLE_1 = 2016-10-15T17:22:00.000 100.04981972748287
ANGLE_2 = 2016-10-15T17:22:00.000 31.348098204095326
RANGE = 2016-10-15T17:22:00.000 171805201.84804878

ANGLE_1 = 2016-10-15T17:23:00.000 99.92499114604823
ANGLE_2 = 2016-10-15T17:23:00.000 31.547899885640163
RANGE = 2016-10-15T17:23:00.000 171805936.6504541

ANGLE_1 = 2016-10-15T17:24:00.000 99.79998885927253
ANGLE_2 = 2016-10-15T17:24:00.000 31.747478287930228
RANGE = 2016-10-15T17:24:00.000 171806671.43655884

ANGLE_1 = 2016-10-15T17:25:00.000 99.67486868418695
ANGLE_2 = 2016-10-15T17:25:00.000 31.94721966992875
RANGE = 2016-10-15T17:25:00.000 171807406.3302854

ANGLE_1 = 2016-10-15T17:26:00.000 99.54936039641909
ANGLE_2 = 2016-10-15T17:26:00.000 32.14769495392675
RANGE = 2016-10-15T17:26:00.000 171808141.1922806

ANGLE_1 = 2016-10-15T17:27:00.000 99.42462239445979
ANGLE_2 = 2016-10-15T17:27:00.000 32.348209427467665
RANGE = 2016-10-15T17:27:00.000 171808876.10460448

ANGLE_1 = 2016-10-15T17:28:00.000 99.29923438709028
ANGLE_2 = 2016-10-15T17:28:00.000 32.54859046170422
RANGE = 2016-10-15T17:28:00.000 171809611.07776296

ANGLE_1 = 2016-10-15T17:29:00.000 99.1733529393167
ANGLE_2 = 2016-10-15T17:29:00.000 32.74882876657362
RANGE = 2016-10-15T17:29:00.000 171810346.1043875

ANGLE_1 = 2016-10-15T17:30:00.000 99.04814212254816
ANGLE_2 = 2016-10-15T17:30:00.000 32.94933735012913
RANGE = 2016-10-15T17:30:00.000 171811081.09476915

ANGLE_1 = 2016-10-15T17:31:00.000 98.92232045534203
ANGLE_2 = 2016-10-15T17:31:00.000 33.14946031732003
RANGE = 2016-10-15T17:31:00.000 171811816.1480638

ANGLE_1 = 2016-10-15T17:32:00.000 98.79646326876932
ANGLE_2 = 2016-10-15T17:32:00.000 33.350073104116646
RANGE = 2016-10-15T17:32:00.000 171812551.22814444

ANGLE_1 = 2016-10-15T17:33:00.000 98.6702724716575
ANGLE_2 = 2016-10-15T17:33:00.000 33.55090480777042
RANGE = 2016-10-15T17:33:00.000 171813286.36123157

ANGLE_1 = 2016-10-15T17:34:00.000 98.5445926874632
ANGLE_2 = 2016-10-15T17:34:00.000 33.75155563002759
RANGE = 2016-10-15T17:34:00.000 171814021.54638913

ANGLE_1 = 2016-10-15T17:35:00.000 98.41845686529872
ANGLE_2 = 2016-10-15T17:35:00.000 33.95240222771312
RANGE = 2016-10-15T17:35:00.000 171814756.7158761

ANGLE_1 = 2016-10-15T17:36:00.000 98.2920188362018
ANGLE_2 = 2016-10-15T17:36:00.000 34.153424150807176
RANGE = 2016-10-15T17:36:00.000 171815491.96326664

ANGLE_1 = 2016-10-15T17:37:00.000 98.16513614312022
ANGLE_2 = 2016-10-15T17:37:00.000 34.3539071167747
RANGE = 2016-10-15T17:37:00.000 171816227.24019682

ANGLE_1 = 2016-10-15T17:38:00.000 98.03777134101603
ANGLE_2 = 2016-10-15T17:38:00.000 34.55532917995045
RANGE = 2016-10-15T17:38:00.000 171816962.55220738

ANGLE_1 = 2016-10-15T17:39:00.000 97.9116627151548
ANGLE_2 = 2016-10-15T17:39:00.000 34.75608766398335
RANGE = 2016-10-15T17:39:00.000 171817697.915569

ANGLE_1 = 2016-10-15T17:40:00.000 97.78474600855198
ANGLE_2 = 2016-10-15T17:40:00.000 34.95699627778209
RANGE = 2016-10-15T17:40:00.000 171818433.26397073

ANGLE_1 = 2016-10-15T17:41:00.000 97.65721756376647
ANGLE_2 = 2016-10-15T17:41:00.000 35.158251196835224
RANGE = 2016-10-15T17:41:00.000 171819168.6797881

ANGLE_1 = 2016-10-15T17:42:00.000 97.52965521604027
ANGLE_2 = 2016-10-15T17:42:00.000 35.36002370404764
RANGE = 2016-10-15T17:42:00.000 171819904.13538927

ANGLE_1 = 2016-10-15T17:43:00.000 97.40148007440938
ANGLE_2 = 2016-10-15T17:43:00.000 35.56011555495124
RANGE = 2016-10-15T17:43:00.000 171820639.65914714

ANGLE_1 = 2016-10-15T17:44:00.000 97.27487098509371
ANGLE_2 = 2016-10-15T17:44:00.000 35.76160029586337
RANGE = 2016-10-15T17:44:00.000 171821375.1744265

ANGLE_1 = 2016-10-15T17:45:00.000 97.14638853337537
ANGLE_2 = 2016-10-15T17:45:00.000 35.963249444115064
RANGE = 2016-10-15T17:45:00.000 171822110.82491425

ANGLE_1 = 2016-10-15T17:46:00.000 97.01858003537527
ANGLE_2 = 2016-10-15T17:46:00.000 36.16428225918433
RANGE = 2016-10-15T17:46:00.000 171822846.37830293

ANGLE_1 = 2016-10-15T17:47:00.000 96.89042162443099
ANGLE_2 = 2016-10-15T17:47:00.000 36.36626629324103
RANGE = 2016-10-15T17:47:00.000 171823582.01289186

ANGLE_1 = 2016-10-15T17:48:00.000 96.76190168570457
ANGLE_2 = 2016-10-15T17:48:00.000 36.567583003562284
RANGE = 2016-10-15T17:48:00.000 171824317.77993447

ANGLE_1 = 2016-10-15T17:49:00.000 96.6326147787687
ANGLE_2 = 2016-10-15T17:49:00.000 36.76894065445485
RANGE = 2016-10-15T17:49:00.000 171825053.45841163

ANGLE_1 = 2016-10-15T17:50:00.000 96.50425210291037
ANGLE_2 = 2016-10-15T17:50:00.000 36.970632301561
RANGE = 2016-10-15T17:50:00.000 171825789.2435482

ANGLE_1 = 2016-10-15T17:51:00.000 96.37524776727567
ANGLE_2 = 2016-10-15T17:51:00.000 37.172554369766665
RANGE = 2016-10-15T17:51:00.000 171826525.07444295

ANGLE_1 = 2016-10-15T17:52:00.000 96.2450877494699
ANGLE_2 = 2016-10-15T17:52:00.000 37.373778715608
RANGE = 2016-10-15T17:52:00.000 171827260.94306907

ANGLE_1 = 2016-10-15T17:53:00.000 96.1151705431817
ANGLE_2 = 2016-10-15T17:53:00.000 37.576156765658624
RANGE = 2016-10-15T17:53:00.000 171827996.83688438

ANGLE_1 = 2016-10-15T17:54:00.000 95.98580184791281
ANGLE_2 = 2016-10-15T17:54:00.000 37.77802057236392
RANGE = 2016-10-15T17:54:00.000 171828732.77410442

ANGLE_1 = 2016-10-15T17:55:00.000 95.85606905717599
ANGLE_2 = 2016-10-15T17:55:00.000 37.979640626622896
RANGE = 2016-10-15T17:55:00.000 171829468.76656967

ANGLE_1 = 2016-10-15T17:56:00.000 95.7254728631723
ANGLE_2 = 2016-10-15T17:56:00.000 38.18136264076934
RANGE = 2016-10-15T17:56:00.000 171830204.78608164

ANGLE_1 = 2016-10-15T17:57:00.000 95.59500288409717
ANGLE_2 = 2016-10-15T17:57:00.000 38.383393041724936
RANGE = 2016-10-15T17:57:00.000 171830940.89688367

ANGLE_1 = 2016-10-15T17:58:00.000 95.46457056957037
ANGLE_2 = 2016-10-15T17:58:00.000 38.58580045651023
RANGE = 2016-10-15T17:58:00.000 171831676.96948645

ANGLE_1 = 2016-10-15T17:59:00.000 95.33336499583818
ANGLE_2 = 2016-10-15T17:59:00.000 38.78787556226899
RANGE = 2016-10-15T17:59:00.000 171832413.16493434

ANGLE_1 = 2016-10-15T18:00:00.000 95.20208067870725
ANGLE_2 = 2016-10-15T18:00:00.000 38.990290095072375
RANGE = 2016-10-15T18:00:00.000 171833149.37748817

ANGLE_1 = 2016-10-15T18:01:00.000 95.07054155841783
ANGLE_2 = 2016-10-15T18:01:00.000 39.19179450662177
RANGE = 2016-10-15T18:01:00.000 171833885.6028644

ANGLE_1 = 2016-10-15T18:02:00.000 94.9386926810694
ANGLE_2 = 2016-10-15T18:02:00.000 39.39405982063726
RANGE = 2016-10-15T18:02:00.000 171834621.91324317

ANGLE_1 = 2016-10-15T18:03:00.000 94.80568815438394
ANGLE_2 = 2016-10-15T18:03:00.000 39.5961952775001
RANGE = 2016-10-15T18:03:00.000 171835358.2432167

ANGLE_1 = 2016-10-15T18:04:00.000 94.67299965662646
ANGLE_2 = 2016-10-15T18:04:00.000 39.798465135365824
RANGE = 2016-10-15T18:04:00.000 171836094.6251281

ANGLE_1 = 2016-10-15T18:05:00.000 94.54089959645748
ANGLE_2 = 2016-10-15T18:05:00.000 40.00092837999404
RANGE = 2016-10-15T18:05:00.000 171836831.0879028

ANGLE_1 = 2016-10-15T18:06:00.000 94.40760791771098
ANGLE_2 = 2016-10-15T18:06:00.000 40.2032340839037
RANGE = 2016-10-15T18:06:00.000 171837567.52713013

ANGLE_1 = 2016-10-15T18:07:00.000 94.27459474564543
ANGLE_2 = 2016-10-15T18:07:00.000 40.40464093899522
RANGE = 2016-10-15T18:07:00.000 171838304.0650677

ANGLE_1 = 2016-10-15T18:08:00.000 94.14057719313831
ANGLE_2 = 2016-10-15T18:08:00.000 40.60785208082395
RANGE = 2016-10-15T18:08:00.000 171839040.6476002

ANGLE_1 = 2016-10-15T18:09:00.000 94.00728564545425
ANGLE_2 = 2016-10-15T18:09:00.000 40.81071604670241
RANGE = 2016-10-15T18:09:00.000 171839777.2689258

ANGLE_1 = 2016-10-15T18:10:00.000 93.87251112344026
ANGLE_2 = 2016-10-15T18:10:00.000 41.01299102692797
RANGE = 2016-10-15T18:10:00.000 171840513.9342723

ANGLE_1 = 2016-10-15T18:11:00.000 93.73800320597049
ANGLE_2 = 2016-10-15T18:11:00.000 41.21536291424463
RANGE = 2016-10-15T18:11:00.000 171841250.69426006

ANGLE_1 = 2016-10-15T18:12:00.000 93.6026972376134
ANGLE_2 = 2016-10-15T18:12:00.000 41.41756196025691
RANGE = 2016-10-15T18:12:00.000 171841987.42716327

ANGLE_1 = 2016-10-15T18:13:00.000 93.46802708873135
ANGLE_2 = 2016-10-15T18:13:00.000 41.620825856410534
RANGE = 2016-10-15T18:13:00.000 171842724.291511

ANGLE_1 = 2016-10-15T18:14:00.000 93.33228779054507
ANGLE_2 = 2016-10-15T18:14:00.000 41.82347615383454
RANGE = 2016-10-15T18:14:00.000 171843461.15706787

ANGLE_1 = 2016-10-15T18:15:00.000 93.1962680012885
ANGLE_2 = 2016-10-15T18:15:00.000 42.025915004575246
RANGE = 2016-10-15T18:15:00.000 171844198.04365084

ANGLE_1 = 2016-10-15T18:16:00.000 93.05997780455895
ANGLE_2 = 2016-10-15T18:16:00.000 42.22866767323846
RANGE = 2016-10-15T18:16:00.000 171844934.99455005

ANGLE_1 = 2016-10-15T18:17:00.000 92.92215128012677
ANGLE_2 = 2016-10-15T18:17:00.000 42.43136341094001
RANGE = 2016-10-15T18:17:00.000 171845672.00828847

ANGLE_1 = 2016-10-15T18:18:00.000 92.78601382271519
ANGLE_2 = 2016-10-15T18:18:00.000 42.63354346320063
RANGE = 2016-10-15T18:18:00.000 171846409.09130338

ANGLE_1 = 2016-10-15T18:19:00.000 92.64849891231539
ANGLE_2 = 2016-10-15T18:19:00.000 42.83626911562397
RANGE = 2016-10-15T18:19:00.000 171847146.2022248

ANGLE_1 = 2016-10-15T18:20:00.000 92.51098934540695
ANGLE_2 = 2016-10-15T18:20:00.000 43.039871662645645
RANGE = 2016-10-15T18:20:00.000 171847883.3628435

ANGLE_1 = 2016-10-15T18:21:00.000 92.37172224589506
ANGLE_2 = 2016-10-15T18:21:00.000 43.24186994262077
RANGE = 2016-10-15T18:21:00.000 171848620.56265172

ANGLE_1 = 2016-10-15T18:22:00.000 92.23375237002922
ANGLE_2 = 2016-10-15T18:22:00.000 43.44510351688597
RANGE = 2016-10-15T18:22:00.000 171849357.8525151

ANGLE_1 = 2016-10-15T18:23:00.000 92.09439071712545
ANGLE_2 = 2016-10-15T18:23:00.000 43.64810653439447
RANGE = 2016-10-15T18:23:00.000 171850095.2046415

ANGLE_1 = 2016-10-15T18:24:00.000 91.95522736195925
ANGLE_2 = 2016-10-15T18:24:00.000 43.85034637690491
RANGE = 2016-10-15T18:24:00.000 171850832.5504827

ANGLE_1 = 2016-10-15T18:25:00.000 91.81484057795957
ANGLE_2 = 2016-10-15T18:25:00.000 44.05367444216978
RANGE = 2016-10-15T18:25:00.000 171851569.98707715

ANGLE_1 = 2016-10-15T18:26:00.000 91.67514544842184
ANGLE_2 = 2016-10-15T18:26:00.000 44.25659298487775
RANGE = 2016-10-15T18:26:00.000 171852307.4498242

ANGLE_1 = 2016-10-15T18:27:00.000 91.53356718996274
ANGLE_2 = 2016-10-15T18:27:00.000 44.45929710327283
RANGE = 2016-10-15T18:27:00.000 171853044.97563615

ANGLE_1 = 2016-10-15T18:28:00.000 91.39327250664925
ANGLE_2 = 2016-10-15T18:28:00.000 44.662039475285944
RANGE = 2016-10-15T18:28:00.000 171853782.58740798

ANGLE_1 = 2016-10-15T18:29:00.000 91.25078189427857
ANGLE_2 = 2016-10-15T18:29:00.000 44.86526222216164
RANGE = 2016-10-15T18:29:00.000 171854520.197335

ANGLE_1 = 2016-10-15T18:30:00.000 91.10898401468714
ANGLE_2 = 2016-10-15T18:30:00.000 45.06815283396084
RANGE = 2016-10-15T18:30:00.000 171855257.89052525

ANGLE_1 = 2016-10-15T18:31:00.000 90.96619694817535
ANGLE_2 = 2016-10-15T18:31:00.000 45.27080083959618
RANGE = 2016-10-15T18:31:00.000 171855995.64316186

ANGLE_1 = 2016-10-15T18:32:00.000 90.822827865801
ANGLE_2 = 2016-10-15T18:32:00.000 45.473856128919884
RANGE = 2016-10-15T18:32:00.000 171856733.44737795

ANGLE_1 = 2016-10-15T18:33:00.000 90.6795611892958
ANGLE_2 = 2016-10-15T18:33:00.000 45.67714424256451
RANGE = 2016-10-15T18:33:00.000 171857471.31579977

ANGLE_1 = 2016-10-15T18:34:00.000 90.53512779888077
ANGLE_2 = 2016-10-15T18:34:00.000 45.8792227188207
RANGE = 2016-10-15T18:34:00.000 171858209.22964168

ANGLE_1 = 2016-10-15T18:35:00.000 90.39017734139591
ANGLE_2 = 2016-10-15T18:35:00.000 46.08278684517656
RANGE = 2016-10-15T18:35:00.000 171858947.21352494

ANGLE_1 = 2016-10-15T18:36:00.000 90.24543443614571
ANGLE_2 = 2016-10-15T18:36:00.000 46.2857315720327
RANGE = 2016-10-15T18:36:00.000 171859685.1956525

ANGLE_1 = 2016-10-15T18:37:00.000 90.10017045485982
ANGLE_2 = 2016-10-15T18:37:00.000 46.488914858310096
RANGE = 2016-10-15T18:37:00.000 171860423.27797073

ANGLE_1 = 2016-10-15T18:38:00.000 89.95335215439266
ANGLE_2 = 2016-10-15T18:38:00.000 46.69200113038848
RANGE = 2016-10-15T18:38:00.000 171861161.44650784

ANGLE_1 = 2016-10-15T18:39:00.000 89.80615749106869
ANGLE_2 = 2016-10-15T18:39:00.000 46.894716494414155
RANGE = 2016-10-15T18:39:00.000 171861899.61252287

ANGLE_1 = 2016-10-15T18:40:00.000 89.6597382633191
ANGLE_2 = 2016-10-15T18:40:00.000 47.09762326182902
RANGE = 2016-10-15T18:40:00.000 171862637.87556797

ANGLE_1 = 2016-10-15T18:41:00.000 89.51089193994844
ANGLE_2 = 2016-10-15T18:41:00.000 47.30041186905484
RANGE = 2016-10-15T18:41:00.000 171863376.16498998

ANGLE_1 = 2016-10-15T18:42:00.000 89.36224125389651
ANGLE_2 = 2016-10-15T18:42:00.000 47.50302472049277
RANGE = 2016-10-15T18:42:00.000 171864114.5473133

ANGLE_1 = 2016-10-15T18:43:00.000 89.21341282158947
ANGLE_2 = 2016-10-15T18:43:00.000 47.70672755354654
RANGE = 2016-10-15T18:43:00.000 171864852.96200448

ANGLE_1 = 2016-10-15T18:44:00.000 89.06349806202523
ANGLE_2 = 2016-10-15T18:44:00.000 47.909651224238615
RANGE = 2016-10-15T18:44:00.000 171865591.46937343

ANGLE_1 = 2016-10-15T18:45:00.000 88.91346542753617
ANGLE_2 = 2016-10-15T18:45:00.000 48.11257666686745
RANGE = 2016-10-15T18:45:00.000 171866329.99824443

ANGLE_1 = 2016-10-15T18:46:00.000 88.7619795842881
ANGLE_2 = 2016-10-15T18:46:00.000 48.31490307309848
RANGE = 2016-10-15T18:46:00.000 171867068.60685292

ANGLE_1 = 2016-10-15T18:47:00.000 88.61169003590668
ANGLE_2 = 2016-10-15T18:47:00.000 48.51804996199679
RANGE = 2016-10-15T18:47:00.000 171867807.27312586

ANGLE_1 = 2016-10-15T18:48:00.000 88.45886429775267
ANGLE_2 = 2016-10-15T18:48:00.000 48.72120543099032
RANGE = 2016-10-15T18:48:00.000 171868545.9877281

ANGLE_1 = 2016-10-15T18:49:00.000 88.30518136963043
ANGLE_2 = 2016-10-15T18:49:00.000 48.92426468744395
RANGE = 2016-10-15T18:49:00.000 171869284.7760069

ANGLE_1 = 2016-10-15T18:50:00.000 88.15214020026136
ANGLE_2 = 2016-10-15T18:50:00.000 49.12695143185114
RANGE = 2016-10-15T18:50:00.000 171870023.5940622

ANGLE_1 = 2016-10-15T18:51:00.000 87.99807923809125
ANGLE_2 = 2016-10-15T18:51:00.000 49.32987903606422
RANGE = 2016-10-15T18:51:00.000 171870762.50073093

ANGLE_1 = 2016-10-15T18:52:00.000 87.84258265632391
ANGLE_2 = 2016-10-15T18:52:00.000 49.53218593036378
RANGE = 2016-10-15T18:52:00.000 171871501.47861627

ANGLE_1 = 2016-10-15T18:53:00.000 87.687162411617
ANGLE_2 = 2016-10-15T18:53:00.000 49.73546368476783
RANGE = 2016-10-15T18:53:00.000 171872240.47653595

ANGLE_1 = 2016-10-15T18:54:00.000 87.53046282540127
ANGLE_2 = 2016-10-15T18:54:00.000 49.93841819215011
RANGE = 2016-10-15T18:54:00.000 171872979.56695297

ANGLE_1 = 2016-10-15T18:55:00.000 87.3726502673895
ANGLE_2 = 2016-10-15T18:55:00.000 50.1409171111828
RANGE = 2016-10-15T18:55:00.000 171873718.69263056

ANGLE_1 = 2016-10-15T18:56:00.000 87.2157216979894
ANGLE_2 = 2016-10-15T18:56:00.000 50.343367155882355
RANGE = 2016-10-15T18:56:00.000 171874457.92048052

ANGLE_1 = 2016-10-15T18:57:00.000 87.0571104492752
ANGLE_2 = 2016-10-15T18:57:00.000 50.54604408529043
RANGE = 2016-10-15T18:57:00.000 171875197.19874337

ANGLE_1 = 2016-10-15T18:58:00.000 86.89795642821075
ANGLE_2 = 2016-10-15T18:58:00.000 50.74920082227154
RANGE = 2016-10-15T18:58:00.000 171875936.49047744

ANGLE_1 = 2016-10-15T18:59:00.000 86.73743193289602
ANGLE_2 = 2016-10-15T18:59:00.000 50.95175300823556
RANGE = 2016-10-15T18:59:00.000 171876675.91011435

ANGLE_1 = 2016-10-15T19:00:00.000 86.57620965689247
ANGLE_2 = 2016-10-15T19:00:00.000 51.154143001880726
RANGE = 2016-10-15T19:00:00.000 171877415.39498556

ANGLE_1 = 2016-10-15T19:01:00.000 86.41379985596227
ANGLE_2 = 2016-10-15T19:01:00.000 51.357206368756884
RANGE = 2016-10-15T19:01:00.000 171878154.86981153

ANGLE_1 = 2016-10-15T19:02:00.000 86.25187005824593
ANGLE_2 = 2016-10-15T19:02:00.000 51.558854164262634
RANGE = 2016-10-15T19:02:00.000 171878894.47547573

ANGLE_1 = 2016-10-15T19:03:00.000 86.08835299896816
ANGLE_2 = 2016-10-15T19:03:00.000 51.761208023620185
RANGE = 2016-10-15T19:03:00.000 171879634.07128322

ANGLE_1 = 2016-10-15T19:04:00.000 85.92425008659907
ANGLE_2 = 2016-10-15T19:04:00.000 51.96384470582765
RANGE = 2016-10-15T19:04:00.000 171880373.82237366

ANGLE_1 = 2016-10-15T19:05:00.000 85.75830571468464
ANGLE_2 = 2016-10-15T19:05:00.000 52.16669152727449
RANGE = 2016-10-15T19:05:00.000 171881113.54341778

ANGLE_1 = 2016-10-15T19:06:00.000 85.5921283977506
ANGLE_2 = 2016-10-15T19:06:00.000 52.369152837697115
RANGE = 2016-10-15T19:06:00.000 171881853.40583766

ANGLE_1 = 2016-10-15T19:07:00.000 85.42523877599884
ANGLE_2 = 2016-10-15T19:07:00.000 52.57170031223896
RANGE = 2016-10-15T19:07:00.000 171882593.28794894

ANGLE_1 = 2016-10-15T19:08:00.000 85.25718063187752
ANGLE_2 = 2016-10-15T19:08:00.000 52.77403129827315
RANGE = 2016-10-15T19:08:00.000 171883333.2442536

ANGLE_1 = 2016-10-15T19:09:00.000 85.0882578345591
ANGLE_2 = 2016-10-15T19:09:00.000 52.976076624308156
RANGE = 2016-10-15T19:09:00.000 171884073.3212169

ANGLE_1 = 2016-10-15T19:10:00.000 84.91868860072594
ANGLE_2 = 2016-10-15T19:10:00.000 53.178316591055285
RANGE = 2016-10-15T19:10:00.000 171884813.36132893

ANGLE_1 = 2016-10-15T19:11:00.000 84.74790624416151
ANGLE_2 = 2016-10-15T19:11:00.000 53.38065692525726
RANGE = 2016-10-15T19:11:00.000 171885553.55407262

ANGLE_1 = 2016-10-15T19:12:00.000 84.57517181477513
ANGLE_2 = 2016-10-15T19:12:00.000 53.58250209038431
RANGE = 2016-10-15T19:12:00.000 171886293.8120035

ANGLE_1 = 2016-10-15T19:13:00.000 84.40283049748552
ANGLE_2 = 2016-10-15T19:13:00.000 53.784530277172934
RANGE = 2016-10-15T19:13:00.000 171887034.06474125

ANGLE_1 = 2016-10-15T19:14:00.000 84.22802635000868
ANGLE_2 = 2016-10-15T19:14:00.000 53.986810269111324
RANGE = 2016-10-15T19:14:00.000 171887774.44068012

ANGLE_1 = 2016-10-15T19:15:00.000 84.05368972651586
ANGLE_2 = 2016-10-15T19:15:00.000 54.188563866815485
RANGE = 2016-10-15T19:15:00.000 171888514.84024218

ANGLE_1 = 2016-10-15T19:16:00.000 83.87749480913475
ANGLE_2 = 2016-10-15T19:16:00.000 54.3893133656481
RANGE = 2016-10-15T19:16:00.000 171889255.34764755

ANGLE_1 = 2016-10-15T19:17:00.000 83.70074362104894
ANGLE_2 = 2016-10-15T19:17:00.000 54.59232641596277
RANGE = 2016-10-15T19:17:00.000 171889995.92699355

ANGLE_1 = 2016-10-15T19:18:00.000 83.5215950492374
ANGLE_2 = 2016-10-15T19:18:00.000 54.79363310715288
RANGE = 2016-10-15T19:18:00.000 171890736.57296816

ANGLE_1 = 2016-10-15T19:19:00.000 83.3421062005399
ANGLE_2 = 2016-10-15T19:19:00.000 54.99530338396366
RANGE = 2016-10-15T19:19:00.000 171891477.2699348

ANGLE_1 = 2016-10-15T19:20:00.000 83.16205817380134
ANGLE_2 = 2016-10-15T19:20:00.000 55.197014292003594
RANGE = 2016-10-15T19:20:00.000 171892217.99430835

ANGLE_1 = 2016-10-15T19:21:00.000 82.98019748397336
ANGLE_2 = 2016-10-15T19:21:00.000 55.39859178115489
RANGE = 2016-10-15T19:21:00.000 171892958.8573508

ANGLE_1 = 2016-10-15T19:22:00.000 82.79675425487432
ANGLE_2 = 2016-10-15T19:22:00.000 55.59914250987303
RANGE = 2016-10-15T19:22:00.000 171893699.77073556

ANGLE_1 = 2016-10-15T19:23:00.000 82.61302909702319
ANGLE_2 = 2016-10-15T19:23:00.000 55.801101194661555
RANGE = 2016-10-15T19:23:00.000 171894440.72750878

ANGLE_1 = 2016-10-15T19:24:00.000 82.42760138341453
ANGLE_2 = 2016-10-15T19:24:00.000 56.00234206403001
RANGE = 2016-10-15T19:24:00.000 171895181.7564488

ANGLE_1 = 2016-10-15T19:25:00.000 82.24027712821503
ANGLE_2 = 2016-10-15T19:25:00.000 56.20342472964563
RANGE = 2016-10-15T19:25:00.000 171895922.89019778

ANGLE_1 = 2016-10-15T19:26:00.000 82.05274808549675
ANGLE_2 = 2016-10-15T19:26:00.000 56.40510086235742
RANGE = 2016-10-15T19:26:00.000 171896664.06124896

ANGLE_1 = 2016-10-15T19:27:00.000 81.86238896187821
ANGLE_2 = 2016-10-15T19:27:00.000 56.606146028634846
RANGE = 2016-10-15T19:27:00.000 171897405.3013641

ANGLE_1 = 2016-10-15T19:28:00.000 81.67303904159851
ANGLE_2 = 2016-10-15T19:28:00.000 56.806554722451914
RANGE = 2016-10-15T19:28:00.000 171898146.60778746

ANGLE_1 = 2016-10-15T19:29:00.000 81.47989886932645
ANGLE_2 = 2016-10-15T19:29:00.000 57.00692925772229
RANGE = 2016-10-15T19:29:00.000 171898888.00624013

ANGLE_1 = 2016-10-15T19:30:00.000 81.28700401736712
ANGLE_2 = 2016-10-15T19:30:00.000 57.20771571777878
RANGE = 2016-10-15T19:30:00.000 171899629.44521716

ANGLE_1 = 2016-10-15T19:31:00.000 81.09320577070476
ANGLE_2 = 2016-10-15T19:31:00.000 57.40786707483524
RANGE = 2016-10-15T19:31:00.000 171900370.9734247

ANGLE_1 = 2016-10-15T19:32:00.000 80.89624865033186
ANGLE_2 = 2016-10-15T19:32:00.000 57.60892608546496
RANGE = 2016-10-15T19:32:00.000 171901112.5855407

ANGLE_1 = 2016-10-15T19:33:00.000 80.6988271696039
ANGLE_2 = 2016-10-15T19:33:00.000 57.80951645291719
RANGE = 2016-10-15T19:33:00.000 171901854.24665806

ANGLE_1 = 2016-10-15T19:34:00.000 80.49907205476663
ANGLE_2 = 2016-10-15T19:34:00.000 58.009206273108084
RANGE = 2016-10-15T19:34:00.000 171902596.00842324

ANGLE_1 = 2016-10-15T19:35:00.000 80.29787963409889
ANGLE_2 = 2016-10-15T19:35:00.000 58.21009820044554
RANGE = 2016-10-15T19:35:00.000 171903337.80673352

ANGLE_1 = 2016-10-15T19:36:00.000 80.0957125586948
ANGLE_2 = 2016-10-15T19:36:00.000 58.40991841750155
RANGE = 2016-10-15T19:36:00.000 171904079.67823

ANGLE_1 = 2016-10-15T19:37:00.000 79.8925685058958
ANGLE_2 = 2016-10-15T19:37:00.000 58.60980152293814
RANGE = 2016-10-15T19:37:00.000 171904821.611685

ANGLE_1 = 2016-10-15T19:38:00.000 79.68617452447057
ANGLE_2 = 2016-10-15T19:38:00.000 58.80907683141644
RANGE = 2016-10-15T19:38:00.000 171905563.688752

ANGLE_1 = 2016-10-15T19:39:00.000 79.47853228446142
ANGLE_2 = 2016-10-15T19:39:00.000 59.0089389558945
RANGE = 2016-10-15T19:39:00.000 171906305.80835736

ANGLE_1 = 2016-10-15T19:40:00.000 79.27009203949841
ANGLE_2 = 2016-10-15T19:40:00.000 59.20814513841663
RANGE = 2016-10-15T19:40:00.000 171907047.95150018

ANGLE_1 = 2016-10-15T19:41:00.000 79.05936624476408
ANGLE_2 = 2016-10-15T19:41:00.000 59.40804529818055
RANGE = 2016-10-15T19:41:00.000 171907790.23861626

ANGLE_1 = 2016-10-15T19:42:00.000 78.84719595362725
ANGLE_2 = 2016-10-15T19:42:00.000 59.60698198590308
RANGE = 2016-10-15T19:42:00.000 171908532.50297943

ANGLE_1 = 2016-10-15T19:43:00.000 78.63293311712171
ANGLE_2 = 2016-10-15T19:43:00.000 59.80686648156906
RANGE = 2016-10-15T19:43:00.000 171909274.93126044

ANGLE_1 = 2016-10-15T19:44:00.000 78.41632678902613
ANGLE_2 = 2016-10-15T19:44:00.000 60.005012973478046
RANGE = 2016-10-15T19:44:00.000 171910017.39298806

ANGLE_1 = 2016-10-15T19:45:00.000 78.19889917865149
ANGLE_2 = 2016-10-15T19:45:00.000 60.20379830539963
RANGE = 2016-10-15T19:45:00.000 171910759.87838435

ANGLE_1 = 2016-10-15T19:46:00.000 77.97920081054045
ANGLE_2 = 2016-10-15T19:46:00.000 60.40254020560005
RANGE = 2016-10-15T19:46:00.000 171911502.52723336

ANGLE_1 = 2016-10-15T19:47:00.000 77.75693950159842
ANGLE_2 = 2016-10-15T19:47:00.000 60.6007826690964
RANGE = 2016-10-15T19:47:00.000 171912245.20534614

ANGLE_1 = 2016-10-15T19:48:00.000 77.53292552103554
ANGLE_2 = 2016-10-15T19:48:00.000 60.79895213441801
RANGE = 2016-10-15T19:48:00.000 171912987.9970231

ANGLE_1 = 2016-10-15T19:49:00.000 77.3068209451588
ANGLE_2 = 2016-10-15T19:49:00.000 60.997257226965736
RANGE = 2016-10-15T19:49:00.000 171913730.83172727

ANGLE_1 = 2016-10-15T19:50:00.000 77.07939324135964
ANGLE_2 = 2016-10-15T19:50:00.000 61.19473928121185
RANGE = 2016-10-15T19:50:00.000 171914473.72908625

ANGLE_1 = 2016-10-15T19:51:00.000 76.84880990121223
ANGLE_2 = 2016-10-15T19:51:00.000 61.39304381274063
RANGE = 2016-10-15T19:51:00.000 171915216.7299322

ANGLE_1 = 2016-10-15T19:52:00.000 76.61696421379142
ANGLE_2 = 2016-10-15T19:52:00.000 61.59038181379354
RANGE = 2016-10-15T19:52:00.000 171915959.79666343

ANGLE_1 = 2016-10-15T19:53:00.000 76.38206575736736
ANGLE_2 = 2016-10-15T19:53:00.000 61.78731102549237
RANGE = 2016-10-15T19:53:00.000 171916702.9193123

ANGLE_1 = 2016-10-15T19:54:00.000 76.14584903000528
ANGLE_2 = 2016-10-15T19:54:00.000 61.98507338471927
RANGE = 2016-10-15T19:54:00.000 171917446.1140799

ANGLE_1 = 2016-10-15T19:55:00.000 75.90714656624608
ANGLE_2 = 2016-10-15T19:55:00.000 62.1817246462784
RANGE = 2016-10-15T19:55:00.000 171918189.4305836

ANGLE_1 = 2016-10-15T19:56:00.000 75.66535193623072
ANGLE_2 = 2016-10-15T19:56:00.000 62.378472180387625
RANGE = 2016-10-15T19:56:00.000 171918932.82878262

ANGLE_1 = 2016-10-15T19:57:00.000 75.42167265836805
ANGLE_2 = 2016-10-15T19:57:00.000 62.57474802140631
RANGE = 2016-10-15T19:57:00.000 171919676.2309278

ANGLE_1 = 2016-10-15T19:58:00.000 75.17540626504314
ANGLE_2 = 2016-10-15T19:58:00.000 62.77068209536603
RANGE = 2016-10-15T19:58:00.000 171920419.74170762

ANGLE_1 = 2016-10-15T19:59:00.000 74.92772926908299
ANGLE_2 = 2016-10-15T19:59:00.000 62.967522198180426
RANGE = 2016-10-15T19:59:00.000 171921163.3440579

ANGLE_1 = 2016-10-15T20:00:00.000 74.67663893554446
ANGLE_2 = 2016-10-15T20:00:00.000 63.16340469998818
RANGE = 2016-10-15T20:00:00.000 171921907.00216976

ANGLE_1 = 2016-10-15T20:01:00.000 74.42216962046513
ANGLE_2 = 2016-10-15T20:01:00.000 63.359032001149444
RANGE = 2016-10-15T20:01:00.000 171922650.7613578

ANGLE_1 = 2016-10-15T20:02:00.000 74.16609418594716
ANGLE_2 = 2016-10-15T20:02:00.000 63.554045489143526
RANGE = 2016-10-15T20:02:00.000 171923394.55785903

ANGLE_1 = 2016-10-15T20:03:00.000 73.90661213485905
ANGLE_2 = 2016-10-15T20:03:00.000 63.74913261066945
RANGE = 2016-10-15T20:03:00.000 171924138.49528953

ANGLE_1 = 2016-10-15T20:04:00.000 73.64480442310612
ANGLE_2 = 2016-10-15T20:04:00.000 63.94401952728297
RANGE = 2016-10-15T20:04:00.000 171924882.45687553

ANGLE_1 = 2016-10-15T20:05:00.000 73.37975749658881
ANGLE_2 = 2016-10-15T20:05:00.000 64.13873569867282
RANGE = 2016-10-15T20:05:00.000 171925626.49569878

ANGLE_1 = 2016-10-15T20:06:00.000 73.11205594921576
ANGLE_2 = 2016-10-15T20:06:00.000 64.33315035128517
RANGE = 2016-10-15T20:06:00.000 171926370.65817875

ANGLE_1 = 2016-10-15T20:07:00.000 72.84217324626664
ANGLE_2 = 2016-10-15T20:07:00.000 64.527279721848
RANGE = 2016-10-15T20:07:00.000 171927114.85167986

ANGLE_1 = 2016-10-15T20:08:00.000 72.56859439972982
ANGLE_2 = 2016-10-15T20:08:00.000 64.72097302404306
RANGE = 2016-10-15T20:08:00.000 171927859.14575195

ANGLE_1 = 2016-10-15T20:09:00.000 72.2914986915946
ANGLE_2 = 2016-10-15T20:09:00.000 64.91453847284072
RANGE = 2016-10-15T20:09:00.000 171928603.51434842

ANGLE_1 = 2016-10-15T20:10:00.000 72.01119667385959
ANGLE_2 = 2016-10-15T20:10:00.000 65.10771875351405
RANGE = 2016-10-15T20:10:00.000 171929347.9443202

ANGLE_1 = 2016-10-15T20:11:00.000 71.72829608872551
ANGLE_2 = 2016-10-15T20:11:00.000 65.30086431251823
RANGE = 2016-10-15T20:11:00.000 171930092.46254852

ANGLE_1 = 2016-10-15T20:12:00.000 71.44170026167686
ANGLE_2 = 2016-10-15T20:12:00.000 65.49315648184711
RANGE = 2016-10-15T20:12:00.000 171930837.08468962

ANGLE_1 = 2016-10-15T20:13:00.000 71.15217847122597
ANGLE_2 = 2016-10-15T20:13:00.000 65.68537223541959
RANGE = 2016-10-15T20:13:00.000 171931581.76373076

ANGLE_1 = 2016-10-15T20:14:00.000 70.85876346789807
ANGLE_2 = 2016-10-15T20:14:00.000 65.87771831611259
RANGE = 2016-10-15T20:14:00.000 171932326.54805982

ANGLE_1 = 2016-10-15T20:15:00.000 70.5616971844023
ANGLE_2 = 2016-10-15T20:15:00.000 66.06892687954944
RANGE = 2016-10-15T20:15:00.000 171933071.37680972

ANGLE_1 = 2016-10-15T20:16:00.000 70.26100133695623
ANGLE_2 = 2016-10-15T20:16:00.000 66.26007029259893
RANGE = 2016-10-15T20:16:00.000 171933816.28576365

ANGLE_1 = 2016-10-15T20:17:00.000 69.95721148781243
ANGLE_2 = 2016-10-15T20:17:00.000 66.45117304007931
RANGE = 2016-10-15T20:17:00.000 171934561.29571676

ANGLE_1 = 2016-10-15T20:18:00.000 69.64930402520764
ANGLE_2 = 2016-10-15T20:18:00.000 66.64147250393349
RANGE = 2016-10-15T20:18:00.000 171935306.37390524

ANGLE_1 = 2016-10-15T20:19:00.000 69.33676228208667
ANGLE_2 = 2016-10-15T20:19:00.000 66.8309732505317
RANGE = 2016-10-15T20:19:00.000 171936051.5376926

ANGLE_1 = 2016-10-15T20:20:00.000 69.0208459413882
ANGLE_2 = 2016-10-15T20:20:00.000 67.02172433606329
RANGE = 2016-10-15T20:20:00.000 171936796.79240087

ANGLE_1 = 2016-10-15T20:21:00.000 68.70167602359217
ANGLE_2 = 2016-10-15T20:21:00.000 67.21055617538667
RANGE = 2016-10-15T20:21:00.000 171937542.09259075

ANGLE_1 = 2016-10-15T20:22:00.000 68.3774419412702
ANGLE_2 = 2016-10-15T20:22:00.000 67.39965943508093
RANGE = 2016-10-15T20:22:00.000 171938287.53569686

ANGLE_1 = 2016-10-15T20:23:00.000 68.04894227356907
ANGLE_2 = 2016-10-15T20:23:00.000 67.58795394182354
RANGE = 2016-10-15T20:23:00.000 171939033.00896397

ANGLE_1 = 2016-10-15T20:24:00.000 67.71606308699478
ANGLE_2 = 2016-10-15T20:24:00.000 67.7762025682598
RANGE = 2016-10-15T20:24:00.000 171939778.56953564

ANGLE_1 = 2016-10-15T20:25:00.000 67.37910865540013
ANGLE_2 = 2016-10-15T20:25:00.000 67.96381382368641
RANGE = 2016-10-15T20:25:00.000 171940524.1918342

ANGLE_1 = 2016-10-15T20:26:00.000 67.03732151103881
ANGLE_2 = 2016-10-15T20:26:00.000 68.15081960217395
RANGE = 2016-10-15T20:26:00.000 171941269.93595713

ANGLE_1 = 2016-10-15T20:27:00.000 66.69155326386564
ANGLE_2 = 2016-10-15T20:27:00.000 68.33672216338994
RANGE = 2016-10-15T20:27:00.000 171942015.7079692

ANGLE_1 = 2016-10-15T20:28:00.000 66.34034012864133
ANGLE_2 = 2016-10-15T20:28:00.000 68.52328392798245
RANGE = 2016-10-15T20:28:00.000 171942761.64508328

ANGLE_1 = 2016-10-15T20:29:00.000 65.9834368261274
ANGLE_2 = 2016-10-15T20:29:00.000 68.70893601834433
RANGE = 2016-10-15T20:29:00.000 171943507.6027514

ANGLE_1 = 2016-10-15T20:30:00.000 65.6233214563373
ANGLE_2 = 2016-10-15T20:30:00.000 68.8941742034996
RANGE = 2016-10-15T20:30:00.000 171944253.62687835

ANGLE_1 = 2016-10-15T20:31:00.000 65.25737606618655
ANGLE_2 = 2016-10-15T20:31:00.000 69.0788192009555
RANGE = 2016-10-15T20:31:00.000 171944999.78845617

ANGLE_1 = 2016-10-15T20:32:00.000 64.88562689558714
ANGLE_2 = 2016-10-15T20:32:00.000 69.26293701696285
RANGE = 2016-10-15T20:32:00.000 171945746.01776335

ANGLE_1 = 2016-10-15T20:33:00.000 64.50930449101838
ANGLE_2 = 2016-10-15T20:33:00.000 69.44636120571991
RANGE = 2016-10-15T20:33:00.000 171946492.32131356

ANGLE_1 = 2016-10-15T20:34:00.000 64.12698473480457
ANGLE_2 = 2016-10-15T20:34:00.000 69.62966634649771
RANGE = 2016-10-15T20:34:00.000 171947238.68084666

ANGLE_1 = 2016-10-15T20:35:00.000 63.73892808083961
ANGLE_2 = 2016-10-15T20:35:00.000 69.81173203451543
RANGE = 2016-10-15T20:35:00.000 171947985.14814985

ANGLE_1 = 2016-10-15T20:36:00.000 63.34546910409499
ANGLE_2 = 2016-10-15T20:36:00.000 69.99271141399197
RANGE = 2016-10-15T20:36:00.000 171948731.66859034

ANGLE_1 = 2016-10-15T20:37:00.000 62.94556003961602
ANGLE_2 = 2016-10-15T20:37:00.000 70.17449990054953
RANGE = 2016-10-15T20:37:00.000 171949478.32697824

ANGLE_1 = 2016-10-15T20:38:00.000 62.54041850024766
ANGLE_2 = 2016-10-15T20:38:00.000 70.35467008384406
RANGE = 2016-10-15T20:38:00.000 171950225.02693525

ANGLE_1 = 2016-10-15T20:39:00.000 62.128299157194164
ANGLE_2 = 2016-10-15T20:39:00.000 70.53495661241377
RANGE = 2016-10-15T20:39:00.000 171950971.826608

ANGLE_1 = 2016-10-15T20:40:00.000 61.71035106922508
ANGLE_2 = 2016-10-15T20:40:00.000 70.71392516100866
RANGE = 2016-10-15T20:40:00.000 171951718.696415

ANGLE_1 = 2016-10-15T20:41:00.000 61.28566538363964
ANGLE_2 = 2016-10-15T20:41:00.000 70.89214252992412
RANGE = 2016-10-15T20:41:00.000 171952465.64667904

ANGLE_1 = 2016-10-15T20:42:00.000 60.854011160174785
ANGLE_2 = 2016-10-15T20:42:00.000 71.06920858711484
RANGE = 2016-10-15T20:42:00.000 171953212.69207978

ANGLE_1 = 2016-10-15T20:43:00.000 60.416471149609386
ANGLE_2 = 2016-10-15T20:43:00.000 71.24616317473057
RANGE = 2016-10-15T20:43:00.000 171953959.80565044

ANGLE_1 = 2016-10-15T20:44:00.000 59.97103294619636
ANGLE_2 = 2016-10-15T20:44:00.000 71.42205414845581
RANGE = 2016-10-15T20:44:00.000 171954707.06233644

ANGLE_1 = 2016-10-15T20:45:00.000 59.51902158655842
ANGLE_2 = 2016-10-15T20:45:00.000 71.59802100118598
RANGE = 2016-10-15T20:45:00.000 171955454.32197648

ANGLE_1 = 2016-10-15T20:46:00.000 59.059348012709044
ANGLE_2 = 2016-10-15T20:46:00.000 71.77253831545642
RANGE = 2016-10-15T20:46:00.000 171956201.7250553

ANGLE_1 = 2016-10-15T20:47:00.000 58.591369725478245
ANGLE_2 = 2016-10-15T20:47:00.000 71.94521270151652
RANGE = 2016-10-15T20:47:00.000 171956949.1387448

ANGLE_1 = 2016-10-15T20:48:00.000 58.11666111229983
ANGLE_2 = 2016-10-15T20:48:00.000 72.11908100171132
RANGE = 2016-10-15T20:48:00.000 171957696.7118062

ANGLE_1 = 2016-10-15T20:49:00.000 57.63392505511617
ANGLE_2 = 2016-10-15T20:49:00.000 72.29056558200953
RANGE = 2016-10-15T20:49:00.000 171958444.33543357

ANGLE_1 = 2016-10-15T20:50:00.000 57.142827650434576
ANGLE_2 = 2016-10-15T20:50:00.000 72.46200230907664
RANGE = 2016-10-15T20:50:00.000 171959192.07367018

ANGLE_1 = 2016-10-15T20:51:00.000 56.64392300649297
ANGLE_2 = 2016-10-15T20:51:00.000 72.63081100719315
RANGE = 2016-10-15T20:51:00.000 171959939.82159525

ANGLE_1 = 2016-10-15T20:52:00.000 56.13610257284854
ANGLE_2 = 2016-10-15T20:52:00.000 72.80064463711317
RANGE = 2016-10-15T20:52:00.000 171960687.74091804

ANGLE_1 = 2016-10-15T20:53:00.000 55.620133814644895
ANGLE_2 = 2016-10-15T20:53:00.000 72.9682158250066
RANGE = 2016-10-15T20:53:00.000 171961435.72676143

ANGLE_1 = 2016-10-15T20:54:00.000 55.094455723528135
ANGLE_2 = 2016-10-15T20:54:00.000 73.1350149713788
RANGE = 2016-10-15T20:54:00.000 171962183.7506913

ANGLE_1 = 2016-10-15T20:55:00.000 54.560685894118926
ANGLE_2 = 2016-10-15T20:55:00.000 73.30142312159207
RANGE = 2016-10-15T20:55:00.000 171962931.86871037

ANGLE_1 = 2016-10-15T20:56:00.000 54.01745587845009
ANGLE_2 = 2016-10-15T20:56:00.000 73.46611158765413
RANGE = 2016-10-15T20:56:00.000 171963680.08735317

ANGLE_1 = 2016-10-15T20:57:00.000 53.46451190020956
ANGLE_2 = 2016-10-15T20:57:00.000 73.62942110257815
RANGE = 2016-10-15T20:57:00.000 171964428.41695634

ANGLE_1 = 2016-10-15T20:58:00.000 52.901185164256596
ANGLE_2 = 2016-10-15T20:58:00.000 73.79232343066072
RANGE = 2016-10-15T20:58:00.000 171965176.77184734

ANGLE_1 = 2016-10-15T20:59:00.000 52.32834593844252
ANGLE_2 = 2016-10-15T20:59:00.000 73.95323645500899
RANGE = 2016-10-15T20:59:00.000 171965925.25628752

ANGLE_1 = 2016-10-15T21:00:00.000 51.745173388177456
ANGLE_2 = 2016-10-15T21:00:00.000 74.11297634296467
RANGE = 2016-10-15T21:00:00.000 171966673.85570592

ANGLE_1 = 2016-10-15T21:01:00.000 51.152493251755565
ANGLE_2 = 2016-10-15T21:01:00.000 74.27197331353192
RANGE = 2016-10-15T21:01:00.000 171967422.50888705

ANGLE_1 = 2016-10-15T21:02:00.000 50.54824356974576
ANGLE_2 = 2016-10-15T21:02:00.000 74.4297068127952
RANGE = 2016-10-15T21:02:00.000 171968171.19976115

ANGLE_1 = 2016-10-15T21:03:00.000 49.93287276785178
ANGLE_2 = 2016-10-15T21:03:00.000 74.58536321222653
RANGE = 2016-10-15T21:03:00.000 171968920.0208121

ANGLE_1 = 2016-10-15T21:04:00.000 49.307375982857
ANGLE_2 = 2016-10-15T21:04:00.000 74.74020467877183
RANGE = 2016-10-15T21:04:00.000 171969668.966555

ANGLE_1 = 2016-10-15T21:05:00.000 48.6703071994218
ANGLE_2 = 2016-10-15T21:05:00.000 74.89341767891725
RANGE = 2016-10-15T21:05:00.000 171970417.9204403

ANGLE_1 = 2016-10-15T21:06:00.000 48.02046690264703
ANGLE_2 = 2016-10-15T21:06:00.000 75.04484812813378
RANGE = 2016-10-15T21:06:00.000 171971167.0264523

ANGLE_1 = 2016-10-15T21:07:00.000 47.36038881997595
ANGLE_2 = 2016-10-15T21:07:00.000 75.19475781237902
RANGE = 2016-10-15T21:07:00.000 171971916.17304015

ANGLE_1 = 2016-10-15T21:08:00.000 46.68742568446338
ANGLE_2 = 2016-10-15T21:08:00.000 75.34341746798844
RANGE = 2016-10-15T21:08:00.000 171972665.44932806

ANGLE_1 = 2016-10-15T21:09:00.000 46.0028633852711
ANGLE_2 = 2016-10-15T21:09:00.000 75.49103447644154
RANGE = 2016-10-15T21:09:00.000 171973414.738093

ANGLE_1 = 2016-10-15T21:10:00.000 45.30551747504237
ANGLE_2 = 2016-10-15T21:10:00.000 75.63588822812409
RANGE = 2016-10-15T21:10:00.000 171974164.1610841

ANGLE_1 = 2016-10-15T21:11:00.000 44.59425684787057
ANGLE_2 = 2016-10-15T21:11:00.000 75.77872152992174
RANGE = 2016-10-15T21:11:00.000 171974913.6725598

ANGLE_1 = 2016-10-15T21:12:00.000 43.87055100469159
ANGLE_2 = 2016-10-15T21:12:00.000 75.91950563377692
RANGE = 2016-10-15T21:12:00.000 171975663.26391327

ANGLE_1 = 2016-10-15T21:13:00.000 43.13436962441862
ANGLE_2 = 2016-10-15T21:13:00.000 76.05981090105304
RANGE = 2016-10-15T21:13:00.000 171976412.92621335

ANGLE_1 = 2016-10-15T21:14:00.000 42.38393460465377
ANGLE_2 = 2016-10-15T21:14:00.000 76.19776718593461
RANGE = 2016-10-15T21:14:00.000 171977162.72479624

ANGLE_1 = 2016-10-15T21:15:00.000 41.62064193796469
ANGLE_2 = 2016-10-15T21:15:00.000 76.3335502918691
RANGE = 2016-10-15T21:15:00.000 171977912.5595523

ANGLE_1 = 2016-10-15T21:16:00.000 40.8425257396418
ANGLE_2 = 2016-10-15T21:16:00.000 76.46664559701333
RANGE = 2016-10-15T21:16:00.000 171978662.47609153

ANGLE_1 = 2016-10-15T21:17:00.000 40.05113742667024
ANGLE_2 = 2016-10-15T21:17:00.000 76.59821847925237
RANGE = 2016-10-15T21:17:00.000 171979412.5094302

ANGLE_1 = 2016-10-15T21:18:00.000 39.24533417619341
ANGLE_2 = 2016-10-15T21:18:00.000 76.72870121821256
RANGE = 2016-10-15T21:18:00.000 171980162.65048462

ANGLE_1 = 2016-10-15T21:19:00.000 38.42456139937645
ANGLE_2 = 2016-10-15T21:19:00.000 76.85577011662329
RANGE = 2016-10-15T21:19:00.000 171980912.82764617

ANGLE_1 = 2016-10-15T21:20:00.000 37.590193623001724
ANGLE_2 = 2016-10-15T21:20:00.000 76.98033801361768
RANGE = 2016-10-15T21:20:00.000 171981663.10849017

ANGLE_1 = 2016-10-15T21:21:00.000 36.7416708967205
ANGLE_2 = 2016-10-15T21:21:00.000 77.10346883476481
RANGE = 2016-10-15T21:21:00.000 171982413.48749518

ANGLE_1 = 2016-10-15T21:22:00.000 35.87627479128699
ANGLE_2 = 2016-10-15T21:22:00.000 77.22364534355067
RANGE = 2016-10-15T21:22:00.000 171983163.93174127

ANGLE_1 = 2016-10-15T21:23:00.000 34.99725939995015
ANGLE_2 = 2016-10-15T21:23:00.000 77.34102238541206
RANGE = 2016-10-15T21:23:00.000 171983914.49482042

ANGLE_1 = 2016-10-15T21:24:00.000 34.10307466049813
ANGLE_2 = 2016-10-15T21:24:00.000 77.4560746817338
RANGE = 2016-10-15T21:24:00.000 171984665.09785417

ANGLE_1 = 2016-10-15T21:25:00.000 33.19373967668477
ANGLE_2 = 2016-10-15T21:25:00.000 77.56839753867669
RANGE = 2016-10-15T21:25:00.000 171985415.8297976

ANGLE_1 = 2016-10-15T21:26:00.000 32.26857039159453
ANGLE_2 = 2016-10-15T21:26:00.000 77.67798074232903
RANGE = 2016-10-15T21:26:00.000 171986166.6518559

ANGLE_1 = 2016-10-15T21:27:00.000 31.329367579139113
ANGLE_2 = 2016-10-15T21:27:00.000 77.78465205228082
RANGE = 2016-10-15T21:27:00.000 171986917.5542508

ANGLE_1 = 2016-10-15T21:28:00.000 30.373742143830327
ANGLE_2 = 2016-10-15T21:28:00.000 77.88891532438417
RANGE = 2016-10-15T21:28:00.000 171987668.51570085

ANGLE_1 = 2016-10-15T21:29:00.000 29.403681925151528
ANGLE_2 = 2016-10-15T21:29:00.000 77.98997169887926
RANGE = 2016-10-15T21:29:00.000 171988419.59852356

ANGLE_1 = 2016-10-15T21:30:00.000 28.41850631713484
ANGLE_2 = 2016-10-15T21:30:00.000 78.08820591158556
RANGE = 2016-10-15T21:30:00.000 171989170.75462636

ANGLE_1 = 2016-10-15T21:31:00.000 27.41821010772766
ANGLE_2 = 2016-10-15T21:31:00.000 78.18292658409165
RANGE = 2016-10-15T21:31:00.000 171989922.01018354

ANGLE_1 = 2016-10-15T21:32:00.000 26.403371883238957
ANGLE_2 = 2016-10-15T21:32:00.000 78.27494545928039
RANGE = 2016-10-15T21:32:00.000 171990673.31134787

ANGLE_1 = 2016-10-15T21:33:00.000 25.3732323543708
ANGLE_2 = 2016-10-15T21:33:00.000 78.36305085640804
RANGE = 2016-10-15T21:33:00.000 171991424.72393793

ANGLE_1 = 2016-10-15T21:34:00.000 24.328552254988985
ANGLE_2 = 2016-10-15T21:34:00.000 78.44847954011671
RANGE = 2016-10-15T21:34:00.000 171992176.2238728

ANGLE_1 = 2016-10-15T21:35:00.000 23.270432617917557
ANGLE_2 = 2016-10-15T21:35:00.000 78.5305661270022
RANGE = 2016-10-15T21:35:00.000 171992927.8516093

ANGLE_1 = 2016-10-15T21:36:00.000 22.19760148302035
ANGLE_2 = 2016-10-15T21:36:00.000 78.608493756827
RANGE = 2016-10-15T21:36:00.000 171993679.5191421

ANGLE_1 = 2016-10-15T21:37:00.000 21.1112782700858
ANGLE_2 = 2016-10-15T21:37:00.000 78.68400870813407
RANGE = 2016-10-15T21:37:00.000 171994431.29974648

ANGLE_1 = 2016-10-15T21:38:00.000 20.013182413245623
ANGLE_2 = 2016-10-15T21:38:00.000 78.75511095135464
RANGE = 2016-10-15T21:38:00.000 171995183.11947417

ANGLE_1 = 2016-10-15T21:39:00.000 18.90029833406704
ANGLE_2 = 2016-10-15T21:39:00.000 78.82244725110063
RANGE = 2016-10-15T21:39:00.000 171995935.09764966

ANGLE_1 = 2016-10-15T21:40:00.000 17.77598148113932
ANGLE_2 = 2016-10-15T21:40:00.000 78.88607664555421
RANGE = 2016-10-15T21:40:00.000 171996687.13760927

ANGLE_1 = 2016-10-15T21:41:00.000 16.639543175907754
ANGLE_2 = 2016-10-15T21:41:00.000 78.94593784561043
RANGE = 2016-10-15T21:41:00.000 171997439.23565334

ANGLE_1 = 2016-10-15T21:42:00.000 15.491767921680864
ANGLE_2 = 2016-10-15T21:42:00.000 79.00236217981535
RANGE = 2016-10-15T21:42:00.000 171998191.45984983

ANGLE_1 = 2016-10-15T21:43:00.000 14.333845023440613
ANGLE_2 = 2016-10-15T21:43:00.000 79.0544949460652
RANGE = 2016-10-15T21:43:00.000 171998943.75948915

ANGLE_1 = 2016-10-15T21:44:00.000 13.16505340546781
ANGLE_2 = 2016-10-15T21:44:00.000 79.10252219205292
RANGE = 2016-10-15T21:44:00.000 171999696.0995428

ANGLE_1 = 2016-10-15T21:45:00.000 11.988153942163857
ANGLE_2 = 2016-10-15T21:45:00.000 79.14675385054939
RANGE = 2016-10-15T21:45:00.000 172000448.59665608

ANGLE_1 = 2016-10-15T21:46:00.000 10.801258676275765
ANGLE_2 = 2016-10-15T21:46:00.000 79.18722398447548
RANGE = 2016-10-15T21:46:00.000 172001201.14696047

ANGLE_1 = 2016-10-15T21:47:00.000 9.607834787110042
ANGLE_2 = 2016-10-15T21:47:00.000 79.22271841253472
RANGE = 2016-10-15T21:47:00.000 172001953.82855785

ANGLE_1 = 2016-10-15T21:48:00.000 8.405909950998447
ANGLE_2 = 2016-10-15T21:48:00.000 79.25422593330363
RANGE = 2016-10-15T21:48:00.000 172002706.54386002

ANGLE_1 = 2016-10-15T21:49:00.000 7.198816537520204
ANGLE_2 = 2016-10-15T21:49:00.000 79.28163659451197
RANGE = 2016-10-15T21:49:00.000 172003459.34905317

ANGLE_1 = 2016-10-15T21:50:00.000 5.985774198221957
ANGLE_2 = 2016-10-15T21:50:00.000 79.3051541864093
RANGE = 2016-10-15T21:50:00.000 172004212.27062285

ANGLE_1 = 2016-10-15T21:51:00.000 4.768497052756473
ANGLE_2 = 2016-10-15T21:51:00.000 79.32342114714831
RANGE = 2016-10-15T21:51:00.000 172004965.27562243

ANGLE_1 = 2016-10-15T21:52:00.000 3.547301343464372
ANGLE_2 = 2016-10-15T21:52:00.000 79.33888381193066
RANGE = 2016-10-15T21:52:00.000 172005718.32200503

ANGLE_1 = 2016-10-15T21:53:00.000 2.3231861568541694
ANGLE_2 = 2016-10-15T21:53:00.000 79.34925844256381
RANGE = 2016-10-15T21:53:00.000 172006471.56080902

ANGLE_1 = 2016-10-15T21:54:00.000 1.097615281431484
ANGLE_2 = 2016-10-15T21:54:00.000 79.35553897476723
RANGE = 2016-10-15T21:54:00.000 172007224.77248275

ANGLE_1 = 2016-10-15T21:55:00.000 359.8707675743159
ANGLE_2 = 2016-10-15T21:55:00.000 79.35643204298044
RANGE = 2016-10-15T21:55:00.000 172007978.12098694

ANGLE_1 = 2016-10-15T21:56:00.000 358.6449771935196
ANGLE_2 = 2016-10-15T21:56:00.000 79.35462516269685
RANGE = 2016-10-15T21:56:00.000 172008731.56764755

ANGLE_1 = 2016-10-15T21:57:00.000 357.4208076539453
ANGLE_2 = 2016-10-15T21:57:00.000 79.3469256712298
RANGE = 2016-10-15T21:57:00.000 172009485.11673945

ANGLE_1 = 2016-10-15T21:58:00.000 356.19655967936234
ANGLE_2 = 2016-10-15T21:58:00.000 79.3350439669386
RANGE = 2016-10-15T21:58:00.000 172010238.71913895

ANGLE_1 = 2016-10-15T21:59:00.000 354.97638864388864
ANGLE_2 = 2016-10-15T21:59:00.000 79.31992503849676
RANGE = 2016-10-15T21:59:00.000 172010992.42183563

ANGLE_1 = 2016-10-15T22:00:00.000 353.7598030863169
ANGLE_2 = 2016-10-15T22:00:00.000 79.29959674450085
RANGE = 2016-10-15T22:00:00.000 172011746.20610547

ANGLE_1 = 2016-10-15T22:01:00.000 352.5480079118483
ANGLE_2 = 2016-10-15T22:01:00.000 79.27569455262997
RANGE = 2016-10-15T22:01:00.000 172012500.08489412

ANGLE_1 = 2016-10-15T22:02:00.000 351.34203814614017
ANGLE_2 = 2016-10-15T22:02:00.000 79.2470997052533
RANGE = 2016-10-15T22:02:00.000 172013254.0516416

ANGLE_1 = 2016-10-15T22:03:00.000 350.14212106888476
ANGLE_2 = 2016-10-15T22:03:00.000 79.2148617564876
RANGE = 2016-10-15T22:03:00.000 172014008.07927004

ANGLE_1 = 2016-10-15T22:04:00.000 348.94958059888006
ANGLE_2 = 2016-10-15T22:04:00.000 79.1773450768109
RANGE = 2016-10-15T22:04:00.000 172014762.2427992

ANGLE_1 = 2016-10-15T22:05:00.000 347.7658637649429
ANGLE_2 = 2016-10-15T22:05:00.000 79.13613409145444
RANGE = 2016-10-15T22:05:00.000 172015516.46371362

ANGLE_1 = 2016-10-15T22:06:00.000 346.5899891197863
ANGLE_2 = 2016-10-15T22:06:00.000 79.09134366225629
RANGE = 2016-10-15T22:06:00.000 172016270.78254092

ANGLE_1 = 2016-10-15T22:07:00.000 345.42465357028584
ANGLE_2 = 2016-10-15T22:07:00.000 79.04178108472087
RANGE = 2016-10-15T22:07:00.000 172017025.16639557

ANGLE_1 = 2016-10-15T22:08:00.000 344.2684094119669
ANGLE_2 = 2016-10-15T22:08:00.000 78.9891064966776
RANGE = 2016-10-15T22:08:00.000 172017779.6598049

ANGLE_1 = 2016-10-15T22:09:00.000 343.12379370769514
ANGLE_2 = 2016-10-15T22:09:00.000 78.9321266872969
RANGE = 2016-10-15T22:09:00.000 172018534.2981004

ANGLE_1 = 2016-10-15T22:10:00.000 341.9905903120797
ANGLE_2 = 2016-10-15T22:10:00.000 78.8710818052824
RANGE = 2016-10-15T22:10:00.000 172019288.92574528

ANGLE_1 = 2016-10-15T22:11:00.000 340.86925427341134
ANGLE_2 = 2016-10-15T22:11:00.000 78.80599006244958
RANGE = 2016-10-15T22:11:00.000 172020043.6631627

ANGLE_1 = 2016-10-15T22:12:00.000 339.75969780963857
ANGLE_2 = 2016-10-15T22:12:00.000 78.7381940481561
RANGE = 2016-10-15T22:12:00.000 172020798.52065817

ANGLE_1 = 2016-10-15T22:13:00.000 338.66366074984035
ANGLE_2 = 2016-10-15T22:13:00.000 78.66566785340206
RANGE = 2016-10-15T22:13:00.000 172021553.46460113

ANGLE_1 = 2016-10-15T22:14:00.000 337.5810264248328
ANGLE_2 = 2016-10-15T22:14:00.000 78.58969845894877
RANGE = 2016-10-15T22:14:00.000 172022308.48129067

ANGLE_1 = 2016-10-15T22:15:00.000 336.512215999886
ANGLE_2 = 2016-10-15T22:15:00.000 78.51086293664287
RANGE = 2016-10-15T22:15:00.000 172023063.5851763

ANGLE_1 = 2016-10-15T22:16:00.000 335.45637478343997
ANGLE_2 = 2016-10-15T22:16:00.000 78.42783141306903
RANGE = 2016-10-15T22:16:00.000 172023818.74222112

ANGLE_1 = 2016-10-15T22:17:00.000 334.41616019652787
ANGLE_2 = 2016-10-15T22:17:00.000 78.3416345359982
RANGE = 2016-10-15T22:17:00.000 172024574.08632725

ANGLE_1 = 2016-10-15T22:18:00.000 333.39012050183504
ANGLE_2 = 2016-10-15T22:18:00.000 78.2527690875661
RANGE = 2016-10-15T22:18:00.000 172025329.44245481

ANGLE_1 = 2016-10-15T22:19:00.000 332.3784382832211
ANGLE_2 = 2016-10-15T22:19:00.000 78.15982437840889
RANGE = 2016-10-15T22:19:00.000 172026084.88112578

ANGLE_1 = 2016-10-15T22:20:00.000 331.3815640308798
ANGLE_2 = 2016-10-15T22:20:00.000 78.06439457393907
RANGE = 2016-10-15T22:20:00.000 172026840.4414272

ANGLE_1 = 2016-10-15T22:21:00.000 330.40035399209796
ANGLE_2 = 2016-10-15T22:21:00.000 77.96559435529542
RANGE = 2016-10-15T22:21:00.000 172027596.06357664

ANGLE_1 = 2016-10-15T22:22:00.000 329.43431257772585
ANGLE_2 = 2016-10-15T22:22:00.000 77.86358238407402
RANGE = 2016-10-15T22:22:00.000 172028351.76055837

ANGLE_1 = 2016-10-15T22:23:00.000 328.4817143015367
ANGLE_2 = 2016-10-15T22:23:00.000 77.75944819353292
RANGE = 2016-10-15T22:23:00.000 172029107.618969

ANGLE_1 = 2016-10-15T22:24:00.000 327.545940102909
ANGLE_2 = 2016-10-15T22:24:00.000 77.65105042016228
RANGE = 2016-10-15T22:24:00.000 172029863.46266612

ANGLE_1 = 2016-10-15T22:25:00.000 326.6254968313671
ANGLE_2 = 2016-10-15T22:25:00.000 77.54057760946094
RANGE = 2016-10-15T22:25:00.000 172030619.48477322

ANGLE_1 = 2016-10-15T22:26:00.000 325.7197695745859
ANGLE_2 = 2016-10-15T22:26:00.000 77.42704152597382
RANGE = 2016-10-15T22:26:00.000 172031375.51508933

ANGLE_1 = 2016-10-15T22:27:00.000 324.8279570113671
ANGLE_2 = 2016-10-15T22:27:00.000 77.31192922922595
RANGE = 2016-10-15T22:27:00.000 172032131.67479515

ANGLE_1 = 2016-10-15T22:28:00.000 323.95337681093315
ANGLE_2 = 2016-10-15T22:28:00.000 77.19351336452625
RANGE = 2016-10-15T22:28:00.000 172032887.91848516

ANGLE_1 = 2016-10-15T22:29:00.000 323.09226441663225
ANGLE_2 = 2016-10-15T22:29:00.000 77.07281860297942
RANGE = 2016-10-15T22:29:00.000 172033644.2347526

ANGLE_1 = 2016-10-15T22:30:00.000 322.2467323331022
ANGLE_2 = 2016-10-15T22:30:00.000 76.94985765652827
RANGE = 2016-10-15T22:30:00.000 172034400.67920813

ANGLE_1 = 2016-10-15T22:31:00.000 321.41528246612324
ANGLE_2 = 2016-10-15T22:31:00.000 76.82469040297352
RANGE = 2016-10-15T22:31:00.000 172035157.1626212

ANGLE_1 = 2016-10-15T22:32:00.000 320.5991191058858
ANGLE_2 = 2016-10-15T22:32:00.000 76.69594808567754
RANGE = 2016-10-15T22:32:00.000 172035913.73574573

ANGLE_1 = 2016-10-15T22:33:00.000 319.796283300071
ANGLE_2 = 2016-10-15T22:33:00.000 76.56625022992336
RANGE = 2016-10-15T22:33:00.000 172036670.47079974

ANGLE_1 = 2016-10-15T22:34:00.000 319.00849269965727
ANGLE_2 = 2016-10-15T22:34:00.000 76.43465502052199
RANGE = 2016-10-15T22:34:00.000 172037427.21557343

ANGLE_1 = 2016-10-15T22:35:00.000 318.23378947636456
ANGLE_2 = 2016-10-15T22:35:00.000 76.29972283769467
RANGE = 2016-10-15T22:35:00.000 172038184.0198046

ANGLE_1 = 2016-10-15T22:36:00.000 317.47339400678527
