2nd Assignment - Navigation/tdm/MALARGUE_EXM_20161014T162519_20161015T032642.tdm

CCSDS_TDM_VERS = 2.0

COMMENT This TDM contains synthetic data, not from real observations

CREATION_DATE = 2021-11-26T14:48:28.661033
ORIGINATOR = POLIMI-DAER

META_START
TIME_SYSTEM = UTC
START_TIME = 2016-10-14T16:25:19.865
STOP_TIME = 2016-10-15T03:26:42.604
PARTICIPANT_1 = MALARGUE
PARTICIPANT_2 = EXM
MODE = SEQUENTIAL
PATH = 1,2,1
RANGE_UNITS = km
ANGLE_TYPE = AZEL
META_STOP

DATA_START

ANGLE_1 = 2016-10-14T16:25:19.865 107.31644913029336
ANGLE_2 = 2016-10-14T16:25:19.865 20.00046957273287
RANGE = 2016-10-14T16:25:19.865 170676440.84157243

ANGLE_1 = 2016-10-14T16:26:00.000 107.23368938281301
ANGLE_2 = 2016-10-14T16:26:00.000 20.12932075923001
RANGE = 2016-10-14T16:26:00.000 170676932.9926572

ANGLE_1 = 2016-10-14T16:27:00.000 107.10773109651986
ANGLE_2 = 2016-10-14T16:27:00.000 20.32333502232407
RANGE = 2016-10-14T16:27:00.000 170677668.80794346

ANGLE_1 = 2016-10-14T16:28:00.000 106.98477292423138
ANGLE_2 = 2016-10-14T16:28:00.000 20.51743456165762
RANGE = 2016-10-14T16:28:00.000 170678404.55036733

ANGLE_1 = 2016-10-14T16:29:00.000 106.86035507456441
ANGLE_2 = 2016-10-14T16:29:00.000 20.712076607794586
RANGE = 2016-10-14T16:29:00.000 170679140.39652535

ANGLE_1 = 2016-10-14T16:30:00.000 106.7364056892402
ANGLE_2 = 2016-10-14T16:30:00.000 20.906024476265987
RANGE = 2016-10-14T16:30:00.000 170679876.2720846

ANGLE_1 = 2016-10-14T16:31:00.000 106.612205655071
ANGLE_2 = 2016-10-14T16:31:00.000 21.10055655481519
RANGE = 2016-10-14T16:31:00.000 170680612.06037438

ANGLE_1 = 2016-10-14T16:32:00.000 106.48874665562546
ANGLE_2 = 2016-10-14T16:32:00.000 21.295070029312797
RANGE = 2016-10-14T16:32:00.000 170681347.92377487

ANGLE_1 = 2016-10-14T16:33:00.000 106.36495608646096
ANGLE_2 = 2016-10-14T16:33:00.000 21.489258697907378
RANGE = 2016-10-14T16:33:00.000 170682083.79927182

ANGLE_1 = 2016-10-14T16:34:00.000 106.24058019767537
ANGLE_2 = 2016-10-14T16:34:00.000 21.68398122216458
RANGE = 2016-10-14T16:34:00.000 170682819.65225005

ANGLE_1 = 2016-10-14T16:35:00.000 106.11734426357077
ANGLE_2 = 2016-10-14T16:35:00.000 21.879167705842626
RANGE = 2016-10-14T16:35:00.000 170683555.563245

ANGLE_1 = 2016-10-14T16:36:00.000 105.99334599283026
ANGLE_2 = 2016-10-14T16:36:00.000 22.074402332141883
RANGE = 2016-10-14T16:36:00.000 170684291.50486773

ANGLE_1 = 2016-10-14T16:37:00.000 105.8696856937158
ANGLE_2 = 2016-10-14T16:37:00.000 22.269599933165264
RANGE = 2016-10-14T16:37:00.000 170685027.35127187

ANGLE_1 = 2016-10-14T16:38:00.000 105.7462410547991
ANGLE_2 = 2016-10-14T16:38:00.000 22.465174848232056
RANGE = 2016-10-14T16:38:00.000 170685763.27946794

ANGLE_1 = 2016-10-14T16:39:00.000 105.62268150478373
ANGLE_2 = 2016-10-14T16:39:00.000 22.660550961310886
RANGE = 2016-10-14T16:39:00.000 170686499.23017982

ANGLE_1 = 2016-10-14T16:40:00.000 105.49931923837389
ANGLE_2 = 2016-10-14T16:40:00.000 22.85625201786
RANGE = 2016-10-14T16:40:00.000 170687235.20812193

ANGLE_1 = 2016-10-14T16:41:00.000 105.37617220829304
ANGLE_2 = 2016-10-14T16:41:00.000 23.05141432171299
RANGE = 2016-10-14T16:41:00.000 170687971.18810356

ANGLE_1 = 2016-10-14T16:42:00.000 105.25213688815278
ANGLE_2 = 2016-10-14T16:42:00.000 23.247226485696153
RANGE = 2016-10-14T16:42:00.000 170688707.17085093

ANGLE_1 = 2016-10-14T16:43:00.000 105.12892396445137
ANGLE_2 = 2016-10-14T16:43:00.000 23.442985402049054
RANGE = 2016-10-14T16:43:00.000 170689443.20227766

ANGLE_1 = 2016-10-14T16:44:00.000 105.00554599420569
ANGLE_2 = 2016-10-14T16:44:00.000 23.639299845527848
RANGE = 2016-10-14T16:44:00.000 170690179.21662304

ANGLE_1 = 2016-10-14T16:45:00.000 104.88208682131015
ANGLE_2 = 2016-10-14T16:45:00.000 23.83537658073468
RANGE = 2016-10-14T16:45:00.000 170690915.22759157

ANGLE_1 = 2016-10-14T16:46:00.000 104.75859813788566
ANGLE_2 = 2016-10-14T16:46:00.000 24.030920924923272
RANGE = 2016-10-14T16:46:00.000 170691651.30853066

ANGLE_1 = 2016-10-14T16:47:00.000 104.63571602012902
ANGLE_2 = 2016-10-14T16:47:00.000 24.228089693461698
RANGE = 2016-10-14T16:47:00.000 170692387.3779471

ANGLE_1 = 2016-10-14T16:48:00.000 104.51249039487384
ANGLE_2 = 2016-10-14T16:48:00.000 24.423540251813964
RANGE = 2016-10-14T16:48:00.000 170693123.43073103

ANGLE_1 = 2016-10-14T16:49:00.000 104.38915048146467
ANGLE_2 = 2016-10-14T16:49:00.000 24.62097203483708
RANGE = 2016-10-14T16:49:00.000 170693859.6001988

ANGLE_1 = 2016-10-14T16:50:00.000 104.26607770232951
ANGLE_2 = 2016-10-14T16:50:00.000 24.817078421289292
RANGE = 2016-10-14T16:50:00.000 170694595.71333686

ANGLE_1 = 2016-10-14T16:51:00.000 104.14224959121833
ANGLE_2 = 2016-10-14T16:51:00.000 25.01403089041128
RANGE = 2016-10-14T16:51:00.000 170695331.86524847

ANGLE_1 = 2016-10-14T16:52:00.000 104.01886366132152
ANGLE_2 = 2016-10-14T16:52:00.000 25.21131444934266
RANGE = 2016-10-14T16:52:00.000 170696068.00746223

ANGLE_1 = 2016-10-14T16:53:00.000 103.89592083639229
ANGLE_2 = 2016-10-14T16:53:00.000 25.40770480273261
RANGE = 2016-10-14T16:53:00.000 170696804.1939446

ANGLE_1 = 2016-10-14T16:54:00.000 103.77335492123385
ANGLE_2 = 2016-10-14T16:54:00.000 25.60515001237415
RANGE = 2016-10-14T16:54:00.000 170697540.4388832

ANGLE_1 = 2016-10-14T16:55:00.000 103.6502574767868
ANGLE_2 = 2016-10-14T16:55:00.000 25.80194587478127
RANGE = 2016-10-14T16:55:00.000 170698276.66432947

ANGLE_1 = 2016-10-14T16:56:00.000 103.5272860094101
ANGLE_2 = 2016-10-14T16:56:00.000 25.99962950310698
RANGE = 2016-10-14T16:56:00.000 170699012.91421232

ANGLE_1 = 2016-10-14T16:57:00.000 103.40345101450946
ANGLE_2 = 2016-10-14T16:57:00.000 26.19670838733194
RANGE = 2016-10-14T16:57:00.000 170699749.1761325

ANGLE_1 = 2016-10-14T16:58:00.000 103.2807464348805
ANGLE_2 = 2016-10-14T16:58:00.000 26.39466750808459
RANGE = 2016-10-14T16:58:00.000 170700485.48823518

ANGLE_1 = 2016-10-14T16:59:00.000 103.15646993933802
ANGLE_2 = 2016-10-14T16:59:00.000 26.591655957742855
RANGE = 2016-10-14T16:59:00.000 170701221.815817

ANGLE_1 = 2016-10-14T17:00:00.000 103.03419295359048
ANGLE_2 = 2016-10-14T17:00:00.000 26.78980160528356
RANGE = 2016-10-14T17:00:00.000 170701958.1306096

ANGLE_1 = 2016-10-14T17:01:00.000 102.91054506823532
ANGLE_2 = 2016-10-14T17:01:00.000 26.98774646470321
RANGE = 2016-10-14T17:01:00.000 170702694.47849277

ANGLE_1 = 2016-10-14T17:02:00.000 102.7869734145105
ANGLE_2 = 2016-10-14T17:02:00.000 27.185114946725406
RANGE = 2016-10-14T17:02:00.000 170703430.90971655

ANGLE_1 = 2016-10-14T17:03:00.000 102.66410235207084
ANGLE_2 = 2016-10-14T17:03:00.000 27.38341189047869
RANGE = 2016-10-14T17:03:00.000 170704167.31637636

ANGLE_1 = 2016-10-14T17:04:00.000 102.540849824234
ANGLE_2 = 2016-10-14T17:04:00.000 27.580937290963934
RANGE = 2016-10-14T17:04:00.000 170704903.74435112

ANGLE_1 = 2016-10-14T17:05:00.000 102.4174170934557
ANGLE_2 = 2016-10-14T17:05:00.000 27.779407027242364
RANGE = 2016-10-14T17:05:00.000 170705640.18371338

ANGLE_1 = 2016-10-14T17:06:00.000 102.29417670940212
ANGLE_2 = 2016-10-14T17:06:00.000 27.977796730367515
RANGE = 2016-10-14T17:06:00.000 170706376.69032964

ANGLE_1 = 2016-10-14T17:07:00.000 102.17053058431613
ANGLE_2 = 2016-10-14T17:07:00.000 28.176446240264095
RANGE = 2016-10-14T17:07:00.000 170707113.1978474

ANGLE_1 = 2016-10-14T17:08:00.000 102.04684992788032
ANGLE_2 = 2016-10-14T17:08:00.000 28.374314473359775
RANGE = 2016-10-14T17:08:00.000 170707849.7154239

ANGLE_1 = 2016-10-14T17:09:00.000 101.92398893031853
ANGLE_2 = 2016-10-14T17:09:00.000 28.57340513682623
RANGE = 2016-10-14T17:09:00.000 170708586.28481168

ANGLE_1 = 2016-10-14T17:10:00.000 101.80006371088277
ANGLE_2 = 2016-10-14T17:10:00.000 28.771522368532608
RANGE = 2016-10-14T17:10:00.000 170709322.86902028

ANGLE_1 = 2016-10-14T17:11:00.000 101.67643438239223
ANGLE_2 = 2016-10-14T17:11:00.000 28.970425287514043
RANGE = 2016-10-14T17:11:00.000 170710059.47785965

ANGLE_1 = 2016-10-14T17:12:00.000 101.55259902708502
ANGLE_2 = 2016-10-14T17:12:00.000 29.16907112395429
RANGE = 2016-10-14T17:12:00.000 170710796.14078856

ANGLE_1 = 2016-10-14T17:13:00.000 101.42963489118095
ANGLE_2 = 2016-10-14T17:13:00.000 29.367942895608742
RANGE = 2016-10-14T17:13:00.000 170711532.78718868

ANGLE_1 = 2016-10-14T17:14:00.000 101.3056875494672
ANGLE_2 = 2016-10-14T17:14:00.000 29.56667069711438
RANGE = 2016-10-14T17:14:00.000 170712269.46489486

ANGLE_1 = 2016-10-14T17:15:00.000 101.18232014330712
ANGLE_2 = 2016-10-14T17:15:00.000 29.766123637879524
RANGE = 2016-10-14T17:15:00.000 170713006.20921052

ANGLE_1 = 2016-10-14T17:16:00.000 101.05763693408869
ANGLE_2 = 2016-10-14T17:16:00.000 29.964782433078287
RANGE = 2016-10-14T17:16:00.000 170713742.9602553

ANGLE_1 = 2016-10-14T17:17:00.000 100.93400931406259
ANGLE_2 = 2016-10-14T17:17:00.000 30.16486992299242
RANGE = 2016-10-14T17:17:00.000 170714479.73561448

ANGLE_1 = 2016-10-14T17:18:00.000 100.81008282776114
ANGLE_2 = 2016-10-14T17:18:00.000 30.363919691589295
RANGE = 2016-10-14T17:18:00.000 170715216.527234

ANGLE_1 = 2016-10-14T17:19:00.000 100.6855918153024
ANGLE_2 = 2016-10-14T17:19:00.000 30.56324253360923
RANGE = 2016-10-14T17:19:00.000 170715953.44691885

ANGLE_1 = 2016-10-14T17:20:00.000 100.56211358847676
ANGLE_2 = 2016-10-14T17:20:00.000 30.762636310026306
RANGE = 2016-10-14T17:20:00.000 170716690.25511107

ANGLE_1 = 2016-10-14T17:21:00.000 100.4378266936623
ANGLE_2 = 2016-10-14T17:21:00.000 30.96251592656071
RANGE = 2016-10-14T17:21:00.000 170717427.14125404

ANGLE_1 = 2016-10-14T17:22:00.000 100.31279869850762
ANGLE_2 = 2016-10-14T17:22:00.000 31.162403317864147
RANGE = 2016-10-14T17:22:00.000 170718164.07414874

ANGLE_1 = 2016-10-14T17:23:00.000 100.18855213591887
ANGLE_2 = 2016-10-14T17:23:00.000 31.360923535269777
RANGE = 2016-10-14T17:23:00.000 170718901.05953488

ANGLE_1 = 2016-10-14T17:24:00.000 100.06429429926266
ANGLE_2 = 2016-10-14T17:24:00.000 31.561773505989287
RANGE = 2016-10-14T17:24:00.000 170719638.0676015

ANGLE_1 = 2016-10-14T17:25:00.000 99.9400183259217
ANGLE_2 = 2016-10-14T17:25:00.000 31.761460301317673
RANGE = 2016-10-14T17:25:00.000 170720375.0750325

ANGLE_1 = 2016-10-14T17:26:00.000 99.81516468989082
ANGLE_2 = 2016-10-14T17:26:00.000 31.96144234919193
RANGE = 2016-10-14T17:26:00.000 170721112.12625915

ANGLE_1 = 2016-10-14T17:27:00.000 99.68972614884197
ANGLE_2 = 2016-10-14T17:27:00.000 32.16133866013382
RANGE = 2016-10-14T17:27:00.000 170721849.2059624

ANGLE_1 = 2016-10-14T17:28:00.000 99.56511241110573
ANGLE_2 = 2016-10-14T17:28:00.000 32.36168090620344
RANGE = 2016-10-14T17:28:00.000 170722586.3681545

ANGLE_1 = 2016-10-14T17:29:00.000 99.4405066299073
ANGLE_2 = 2016-10-14T17:29:00.000 32.56153743781309
RANGE = 2016-10-14T17:29:00.000 170723323.48165536

ANGLE_1 = 2016-10-14T17:30:00.000 99.31457773038746
ANGLE_2 = 2016-10-14T17:30:00.000 32.76158704876346
RANGE = 2016-10-14T17:30:00.000 170724060.6636518

ANGLE_1 = 2016-10-14T17:31:00.000 99.18896333158062
ANGLE_2 = 2016-10-14T17:31:00.000 32.96221051400064
RANGE = 2016-10-14T17:31:00.000 170724797.89931542

ANGLE_1 = 2016-10-14T17:32:00.000 99.06388546267097
ANGLE_2 = 2016-10-14T17:32:00.000 33.16250184175796
RANGE = 2016-10-14T17:32:00.000 170725535.1683288

ANGLE_1 = 2016-10-14T17:33:00.000 98.93878117921736
ANGLE_2 = 2016-10-14T17:33:00.000 33.36365369864601
RANGE = 2016-10-14T17:33:00.000 170726272.43629497

ANGLE_1 = 2016-10-14T17:34:00.000 98.8131269427418
ANGLE_2 = 2016-10-14T17:34:00.000 33.56351844034649
RANGE = 2016-10-14T17:34:00.000 170727009.78518742

ANGLE_1 = 2016-10-14T17:35:00.000 98.68710139512545
ANGLE_2 = 2016-10-14T17:35:00.000 33.76403326128734
RANGE = 2016-10-14T17:35:00.000 170727747.12322563

ANGLE_1 = 2016-10-14T17:36:00.000 98.56147701309641
ANGLE_2 = 2016-10-14T17:36:00.000 33.964946733611505
RANGE = 2016-10-14T17:36:00.000 170728484.55107525

ANGLE_1 = 2016-10-14T17:37:00.000 98.43617607470817
ANGLE_2 = 2016-10-14T17:37:00.000 34.16552960559534
RANGE = 2016-10-14T17:37:00.000 170729221.997453

ANGLE_1 = 2016-10-14T17:38:00.000 98.30929799913427
ANGLE_2 = 2016-10-14T17:38:00.000 34.36634062131463
RANGE = 2016-10-14T17:38:00.000 170729959.44627813

ANGLE_1 = 2016-10-14T17:39:00.000 98.18261736369408
ANGLE_2 = 2016-10-14T17:39:00.000 34.56698329324084
RANGE = 2016-10-14T17:39:00.000 170730696.98696086

ANGLE_1 = 2016-10-14T17:40:00.000 98.05569219243199
ANGLE_2 = 2016-10-14T17:40:00.000 34.76839585040104
RANGE = 2016-10-14T17:40:00.000 170731434.52304068

ANGLE_1 = 2016-10-14T17:41:00.000 97.92939534208323
ANGLE_2 = 2016-10-14T17:41:00.000 34.96903349510521
RANGE = 2016-10-14T17:41:00.000 170732172.1305071

ANGLE_1 = 2016-10-14T17:42:00.000 97.80246836928242
ANGLE_2 = 2016-10-14T17:42:00.000 35.17007398142769
RANGE = 2016-10-14T17:42:00.000 170732909.7417138

ANGLE_1 = 2016-10-14T17:43:00.000 97.67586898221657
ANGLE_2 = 2016-10-14T17:43:00.000 35.371203735893374
RANGE = 2016-10-14T17:43:00.000 170733647.37528837

ANGLE_1 = 2016-10-14T17:44:00.000 97.54878273331104
ANGLE_2 = 2016-10-14T17:44:00.000 35.57299090630822
RANGE = 2016-10-14T17:44:00.000 170734385.0780291

ANGLE_1 = 2016-10-14T17:45:00.000 97.42091430514677
ANGLE_2 = 2016-10-14T17:45:00.000 35.7737215430726
RANGE = 2016-10-14T17:45:00.000 170735122.83851215

ANGLE_1 = 2016-10-14T17:46:00.000 97.29352704631489
ANGLE_2 = 2016-10-14T17:46:00.000 35.97461345583135
RANGE = 2016-10-14T17:46:00.000 170735860.61278957

ANGLE_1 = 2016-10-14T17:47:00.000 97.16527080308512
ANGLE_2 = 2016-10-14T17:47:00.000 36.17676531880602
RANGE = 2016-10-14T17:47:00.000 170736598.4209598

ANGLE_1 = 2016-10-14T17:48:00.000 97.03844397291566
ANGLE_2 = 2016-10-14T17:48:00.000 36.37793395658883
RANGE = 2016-10-14T17:48:00.000 170737336.2841701

ANGLE_1 = 2016-10-14T17:49:00.000 96.90993245256305
ANGLE_2 = 2016-10-14T17:49:00.000 36.57930060103193
RANGE = 2016-10-14T17:49:00.000 170738074.19076657

ANGLE_1 = 2016-10-14T17:50:00.000 96.7818446452689
ANGLE_2 = 2016-10-14T17:50:00.000 36.78091512513828
RANGE = 2016-10-14T17:50:00.000 170738812.11182526

ANGLE_1 = 2016-10-14T17:51:00.000 96.65275196675388
ANGLE_2 = 2016-10-14T17:51:00.000 36.98199147547448
RANGE = 2016-10-14T17:51:00.000 170739550.09864178

ANGLE_1 = 2016-10-14T17:52:00.000 96.52399139616011
ANGLE_2 = 2016-10-14T17:52:00.000 37.184558021360246
RANGE = 2016-10-14T17:52:00.000 170740288.08798823

ANGLE_1 = 2016-10-14T17:53:00.000 96.39509332513718
ANGLE_2 = 2016-10-14T17:53:00.000 37.38583041679781
RANGE = 2016-10-14T17:53:00.000 170741026.17805508

ANGLE_1 = 2016-10-14T17:54:00.000 96.26672344893232
ANGLE_2 = 2016-10-14T17:54:00.000 37.587535417593124
RANGE = 2016-10-14T17:54:00.000 170741764.2534617

ANGLE_1 = 2016-10-14T17:55:00.000 96.13577047730128
ANGLE_2 = 2016-10-14T17:55:00.000 37.78859272233998
RANGE = 2016-10-14T17:55:00.000 170742502.40626267

ANGLE_1 = 2016-10-14T17:56:00.000 96.00689090685034
ANGLE_2 = 2016-10-14T17:56:00.000 37.99117380462433
RANGE = 2016-10-14T17:56:00.000 170743240.61041942

ANGLE_1 = 2016-10-14T17:57:00.000 95.87647655253754
ANGLE_2 = 2016-10-14T17:57:00.000 38.193044420498346
RANGE = 2016-10-14T17:57:00.000 170743978.81699488

ANGLE_1 = 2016-10-14T17:58:00.000 95.7469445325872
ANGLE_2 = 2016-10-14T17:58:00.000 38.39465572005704
RANGE = 2016-10-14T17:58:00.000 170744717.08332136

ANGLE_1 = 2016-10-14T17:59:00.000 95.61618603354552
ANGLE_2 = 2016-10-14T17:59:00.000 38.59687447197505
RANGE = 2016-10-14T17:59:00.000 170745455.3801563

ANGLE_1 = 2016-10-14T18:00:00.000 95.48565298657591
ANGLE_2 = 2016-10-14T18:00:00.000 38.798788390308395
RANGE = 2016-10-14T18:00:00.000 170746193.77611586

ANGLE_1 = 2016-10-14T18:01:00.000 95.3548980583975
ANGLE_2 = 2016-10-14T18:01:00.000 39.000854566452894
RANGE = 2016-10-14T18:01:00.000 170746932.1676361

ANGLE_1 = 2016-10-14T18:02:00.000 95.22372275712921
ANGLE_2 = 2016-10-14T18:02:00.000 39.20264549130269
RANGE = 2016-10-14T18:02:00.000 170747670.62870765

ANGLE_1 = 2016-10-14T18:03:00.000 95.09210891128374
ANGLE_2 = 2016-10-14T18:03:00.000 39.40533127575372
RANGE = 2016-10-14T18:03:00.000 170748409.14170173

ANGLE_1 = 2016-10-14T18:04:00.000 94.96055508017103
ANGLE_2 = 2016-10-14T18:04:00.000 39.607110658998145
RANGE = 2016-10-14T18:04:00.000 170749147.68725303

ANGLE_1 = 2016-10-14T18:05:00.000 94.82884308751656
ANGLE_2 = 2016-10-14T18:05:00.000 39.8091955637991
RANGE = 2016-10-14T18:05:00.000 170749886.23692504

ANGLE_1 = 2016-10-14T18:06:00.000 94.69665180842266
ANGLE_2 = 2016-10-14T18:06:00.000 40.011881301194705
RANGE = 2016-10-14T18:06:00.000 170750624.8898229

ANGLE_1 = 2016-10-14T18:07:00.000 94.5642918237045
ANGLE_2 = 2016-10-14T18:07:00.000 40.21399327412899
RANGE = 2016-10-14T18:07:00.000 170751363.5883611

ANGLE_1 = 2016-10-14T18:08:00.000 94.43071813898632
ANGLE_2 = 2016-10-14T18:08:00.000 40.41619156102993
RANGE = 2016-10-14T18:08:00.000 170752102.28557628

ANGLE_1 = 2016-10-14T18:09:00.000 94.29727396888309
ANGLE_2 = 2016-10-14T18:09:00.000 40.618967727691214
RANGE = 2016-10-14T18:09:00.000 170752841.079033

ANGLE_1 = 2016-10-14T18:10:00.000 94.16387448000131
ANGLE_2 = 2016-10-14T18:10:00.000 40.82142062676841
RANGE = 2016-10-14T18:10:00.000 170753579.8902721

ANGLE_1 = 2016-10-14T18:11:00.000 94.0304276933615
ANGLE_2 = 2016-10-14T18:11:00.000 41.023015975801265
RANGE = 2016-10-14T18:11:00.000 170754318.78719556

ANGLE_1 = 2016-10-14T18:12:00.000 93.89644024316752
ANGLE_2 = 2016-10-14T18:12:00.000 41.226877616633914
RANGE = 2016-10-14T18:12:00.000 170755057.6762894

ANGLE_1 = 2016-10-14T18:13:00.000 93.7615679088539
ANGLE_2 = 2016-10-14T18:13:00.000 41.42811493756931
RANGE = 2016-10-14T18:13:00.000 170755796.62539515

ANGLE_1 = 2016-10-14T18:14:00.000 93.62679282989899
ANGLE_2 = 2016-10-14T18:14:00.000 41.630794079888815
RANGE = 2016-10-14T18:14:00.000 170756535.68332395

ANGLE_1 = 2016-10-14T18:15:00.000 93.49228516272376
ANGLE_2 = 2016-10-14T18:15:00.000 41.833546635144366
RANGE = 2016-10-14T18:15:00.000 170757274.74678963

ANGLE_1 = 2016-10-14T18:16:00.000 93.3563217763558
ANGLE_2 = 2016-10-14T18:16:00.000 42.036419681483146
RANGE = 2016-10-14T18:16:00.000 170758013.87787828

ANGLE_1 = 2016-10-14T18:17:00.000 93.22048934280677
ANGLE_2 = 2016-10-14T18:17:00.000 42.23900654897851
RANGE = 2016-10-14T18:17:00.000 170758752.99796942

ANGLE_1 = 2016-10-14T18:18:00.000 93.08434633796652
ANGLE_2 = 2016-10-14T18:18:00.000 42.44136517071723
RANGE = 2016-10-14T18:18:00.000 170759492.2169705

ANGLE_1 = 2016-10-14T18:19:00.000 92.94839328344058
ANGLE_2 = 2016-10-14T18:19:00.000 42.64487879655436
RANGE = 2016-10-14T18:19:00.000 170760231.46647722

ANGLE_1 = 2016-10-14T18:20:00.000 92.81116643987207
ANGLE_2 = 2016-10-14T18:20:00.000 42.847249873257205
RANGE = 2016-10-14T18:20:00.000 170760970.8002889

ANGLE_1 = 2016-10-14T18:21:00.000 92.6733883688812
ANGLE_2 = 2016-10-14T18:21:00.000 43.049683847425726
RANGE = 2016-10-14T18:21:00.000 170761710.15308788

ANGLE_1 = 2016-10-14T18:22:00.000 92.53641611858393
ANGLE_2 = 2016-10-14T18:22:00.000 43.25227261886636
RANGE = 2016-10-14T18:22:00.000 170762449.53299713

ANGLE_1 = 2016-10-14T18:23:00.000 92.39850399384869
ANGLE_2 = 2016-10-14T18:23:00.000 43.455343696824855
RANGE = 2016-10-14T18:23:00.000 170763189.03622997

ANGLE_1 = 2016-10-14T18:24:00.000 92.25936241605483
ANGLE_2 = 2016-10-14T18:24:00.000 43.6581330097691
RANGE = 2016-10-14T18:24:00.000 170763928.59020945

ANGLE_1 = 2016-10-14T18:25:00.000 92.12086377819448
ANGLE_2 = 2016-10-14T18:25:00.000 43.86072077842756
RANGE = 2016-10-14T18:25:00.000 170764668.10083055

ANGLE_1 = 2016-10-14T18:26:00.000 91.98118286516318
ANGLE_2 = 2016-10-14T18:26:00.000 44.06387363077565
RANGE = 2016-10-14T18:26:00.000 170765407.76542962

ANGLE_1 = 2016-10-14T18:27:00.000 91.84133449892309
ANGLE_2 = 2016-10-14T18:27:00.000 44.266547368868096
RANGE = 2016-10-14T18:27:00.000 170766147.39227682

ANGLE_1 = 2016-10-14T18:28:00.000 91.70055875708782
ANGLE_2 = 2016-10-14T18:28:00.000 44.46910901073929
RANGE = 2016-10-14T18:28:00.000 170766887.13718188

ANGLE_1 = 2016-10-14T18:29:00.000 91.56018216927536
ANGLE_2 = 2016-10-14T18:29:00.000 44.6721478584343
RANGE = 2016-10-14T18:29:00.000 170767626.94303662

ANGLE_1 = 2016-10-14T18:30:00.000 91.41943517454389
ANGLE_2 = 2016-10-14T18:30:00.000 44.87533989848021
RANGE = 2016-10-14T18:30:00.000 170768366.72164884

ANGLE_1 = 2016-10-14T18:31:00.000 91.27783125921746
ANGLE_2 = 2016-10-14T18:31:00.000 45.078123541079655
RANGE = 2016-10-14T18:31:00.000 170769106.66828254

ANGLE_1 = 2016-10-14T18:32:00.000 91.13516674808963
ANGLE_2 = 2016-10-14T18:32:00.000 45.28105403622039
RANGE = 2016-10-14T18:32:00.000 170769846.6022448

ANGLE_1 = 2016-10-14T18:33:00.000 90.99365120357042
ANGLE_2 = 2016-10-14T18:33:00.000 45.48384009449865
RANGE = 2016-10-14T18:33:00.000 170770586.6227709

ANGLE_1 = 2016-10-14T18:34:00.000 90.84978816454552
ANGLE_2 = 2016-10-14T18:34:00.000 45.68707535399169
RANGE = 2016-10-14T18:34:00.000 170771326.6601033

ANGLE_1 = 2016-10-14T18:35:00.000 90.70642851464633
ANGLE_2 = 2016-10-14T18:35:00.000 45.890005138178296
RANGE = 2016-10-14T18:35:00.000 170772066.77114633

ANGLE_1 = 2016-10-14T18:36:00.000 90.56271957527248
ANGLE_2 = 2016-10-14T18:36:00.000 46.09303865237559
RANGE = 2016-10-14T18:36:00.000 170772806.9224344

ANGLE_1 = 2016-10-14T18:37:00.000 90.41796578893704
ANGLE_2 = 2016-10-14T18:37:00.000 46.29541318147334
RANGE = 2016-10-14T18:37:00.000 170773547.15078768

ANGLE_1 = 2016-10-14T18:38:00.000 90.2733477887442
ANGLE_2 = 2016-10-14T18:38:00.000 46.49858469548551
RANGE = 2016-10-14T18:38:00.000 170774287.42901155

ANGLE_1 = 2016-10-14T18:39:00.000 90.1262715079594
ANGLE_2 = 2016-10-14T18:39:00.000 46.701139139190815
RANGE = 2016-10-14T18:39:00.000 170775027.7470255

ANGLE_1 = 2016-10-14T18:40:00.000 89.98080782215895
ANGLE_2 = 2016-10-14T18:40:00.000 46.90468000021215
RANGE = 2016-10-14T18:40:00.000 170775768.1569192

ANGLE_1 = 2016-10-14T18:41:00.000 89.83458352308708
ANGLE_2 = 2016-10-14T18:41:00.000 47.107341443620165
RANGE = 2016-10-14T18:41:00.000 170776508.60883656

ANGLE_1 = 2016-10-14T18:42:00.000 89.6866772142951
ANGLE_2 = 2016-10-14T18:42:00.000 47.310354639670074
RANGE = 2016-10-14T18:42:00.000 170777249.11469078

ANGLE_1 = 2016-10-14T18:43:00.000 89.53855395453468
ANGLE_2 = 2016-10-14T18:43:00.000 47.51334293395253
RANGE = 2016-10-14T18:43:00.000 170777989.6667398

ANGLE_1 = 2016-10-14T18:44:00.000 89.39040591473737
ANGLE_2 = 2016-10-14T18:44:00.000 47.716500465086824
RANGE = 2016-10-14T18:44:00.000 170778730.3021827

ANGLE_1 = 2016-10-14T18:45:00.000 89.24176745282757
ANGLE_2 = 2016-10-14T18:45:00.000 47.91916197629004
RANGE = 2016-10-14T18:45:00.000 170779470.96049762

ANGLE_1 = 2016-10-14T18:46:00.000 89.0916885872608
ANGLE_2 = 2016-10-14T18:46:00.000 48.12224990136505
RANGE = 2016-10-14T18:46:00.000 170780211.6983167

ANGLE_1 = 2016-10-14T18:47:00.000 88.94168449263783
ANGLE_2 = 2016-10-14T18:47:00.000 48.32544524664017
RANGE = 2016-10-14T18:47:00.000 170780952.47675088

ANGLE_1 = 2016-10-14T18:48:00.000 88.79052816067654
ANGLE_2 = 2016-10-14T18:48:00.000 48.52837699927552
RANGE = 2016-10-14T18:48:00.000 170781693.3563113

ANGLE_1 = 2016-10-14T18:49:00.000 88.63894054024819
ANGLE_2 = 2016-10-14T18:49:00.000 48.7309564183661
RANGE = 2016-10-14T18:49:00.000 170782434.29357812

ANGLE_1 = 2016-10-14T18:50:00.000 88.48725371411837
ANGLE_2 = 2016-10-14T18:50:00.000 48.933753998359755
RANGE = 2016-10-14T18:50:00.000 170783175.21148518

ANGLE_1 = 2016-10-14T18:51:00.000 88.33441156543913
ANGLE_2 = 2016-10-14T18:51:00.000 49.13700818977093
RANGE = 2016-10-14T18:51:00.000 170783916.2756454

ANGLE_1 = 2016-10-14T18:52:00.000 88.18035858929902
ANGLE_2 = 2016-10-14T18:52:00.000 49.339816420796346
RANGE = 2016-10-14T18:52:00.000 170784657.35195002

ANGLE_1 = 2016-10-14T18:53:00.000 88.02672443001333
ANGLE_2 = 2016-10-14T18:53:00.000 49.54301063433368
RANGE = 2016-10-14T18:53:00.000 170785398.52902907

ANGLE_1 = 2016-10-14T18:54:00.000 87.87156164423523
ANGLE_2 = 2016-10-14T18:54:00.000 49.7455614434581
RANGE = 2016-10-14T18:54:00.000 170786139.71386698

ANGLE_1 = 2016-10-14T18:55:00.000 87.71544445077335
ANGLE_2 = 2016-10-14T18:55:00.000 49.948428963248695
RANGE = 2016-10-14T18:55:00.000 170786880.99917233

ANGLE_1 = 2016-10-14T18:56:00.000 87.55968488050266
ANGLE_2 = 2016-10-14T18:56:00.000 50.15149152694726
RANGE = 2016-10-14T18:56:00.000 170787622.33694154

ANGLE_1 = 2016-10-14T18:57:00.000 87.40166998032981
ANGLE_2 = 2016-10-14T18:57:00.000 50.35382533884226
RANGE = 2016-10-14T18:57:00.000 170788363.73965198

ANGLE_1 = 2016-10-14T18:58:00.000 87.24399131447706
ANGLE_2 = 2016-10-14T18:58:00.000 50.55682583272633
RANGE = 2016-10-14T18:58:00.000 170789105.20128646

ANGLE_1 = 2016-10-14T18:59:00.000 87.08488067369203
ANGLE_2 = 2016-10-14T18:59:00.000 50.75941924336687
RANGE = 2016-10-14T18:59:00.000 170789846.68364233

ANGLE_1 = 2016-10-14T19:00:00.000 86.92653853668578
ANGLE_2 = 2016-10-14T19:00:00.000 50.96256320039728
RANGE = 2016-10-14T19:00:00.000 170790588.30062786

ANGLE_1 = 2016-10-14T19:01:00.000 86.76607564688852
ANGLE_2 = 2016-10-14T19:01:00.000 51.16463904479499
RANGE = 2016-10-14T19:01:00.000 170791329.93469393

ANGLE_1 = 2016-10-14T19:02:00.000 86.60500571658223
ANGLE_2 = 2016-10-14T19:02:00.000 51.36704120493962
RANGE = 2016-10-14T19:02:00.000 170792071.6860524

ANGLE_1 = 2016-10-14T19:03:00.000 86.44273982332817
ANGLE_2 = 2016-10-14T19:03:00.000 51.57017781952179
RANGE = 2016-10-14T19:03:00.000 170792813.4673364

ANGLE_1 = 2016-10-14T19:04:00.000 86.28036491354065
ANGLE_2 = 2016-10-14T19:04:00.000 51.77281161958643
RANGE = 2016-10-14T19:04:00.000 170793555.25137198

ANGLE_1 = 2016-10-14T19:05:00.000 86.11720640356376
ANGLE_2 = 2016-10-14T19:05:00.000 51.975325049915114
RANGE = 2016-10-14T19:05:00.000 170794297.17605305

ANGLE_1 = 2016-10-14T19:06:00.000 85.95241112329924
ANGLE_2 = 2016-10-14T19:06:00.000 52.17765281902678
RANGE = 2016-10-14T19:06:00.000 170795039.12957755

ANGLE_1 = 2016-10-14T19:07:00.000 85.78707697628711
ANGLE_2 = 2016-10-14T19:07:00.000 52.3796499598542
RANGE = 2016-10-14T19:07:00.000 170795781.16486332

ANGLE_1 = 2016-10-14T19:08:00.000 85.62105248291788
ANGLE_2 = 2016-10-14T19:08:00.000 52.582877592535375
RANGE = 2016-10-14T19:08:00.000 170796523.24723035

ANGLE_1 = 2016-10-14T19:09:00.000 85.4539366352697
ANGLE_2 = 2016-10-14T19:09:00.000 52.784059102015846
RANGE = 2016-10-14T19:09:00.000 170797265.41647795

ANGLE_1 = 2016-10-14T19:10:00.000 85.28565831513626
ANGLE_2 = 2016-10-14T19:10:00.000 52.98708120102743
RANGE = 2016-10-14T19:10:00.000 170798007.65053767

ANGLE_1 = 2016-10-14T19:11:00.000 85.1171071008095
ANGLE_2 = 2016-10-14T19:11:00.000 53.189426165985424
RANGE = 2016-10-14T19:11:00.000 170798749.9122154

ANGLE_1 = 2016-10-14T19:12:00.000 84.94719700207196
ANGLE_2 = 2016-10-14T19:12:00.000 53.39159499146897
RANGE = 2016-10-14T19:12:00.000 170799492.27651978

ANGLE_1 = 2016-10-14T19:13:00.000 84.77562594813827
ANGLE_2 = 2016-10-14T19:13:00.000 53.59384000264903
RANGE = 2016-10-14T19:13:00.000 170800234.69881603

ANGLE_1 = 2016-10-14T19:14:00.000 84.60381790292156
ANGLE_2 = 2016-10-14T19:14:00.000 53.79599534037416
RANGE = 2016-10-14T19:14:00.000 170800977.1918079

ANGLE_1 = 2016-10-14T19:15:00.000 84.4312097479724
ANGLE_2 = 2016-10-14T19:15:00.000 53.99786033188383
RANGE = 2016-10-14T19:15:00.000 170801719.73596525

ANGLE_1 = 2016-10-14T19:16:00.000 84.25712339074526
ANGLE_2 = 2016-10-14T19:16:00.000 54.199988029303235
RANGE = 2016-10-14T19:16:00.000 170802462.39805135

ANGLE_1 = 2016-10-14T19:17:00.000 84.0819649771229
ANGLE_2 = 2016-10-14T19:17:00.000 54.401618739053816
RANGE = 2016-10-14T19:17:00.000 170803205.05142108

ANGLE_1 = 2016-10-14T19:18:00.000 83.9056090476888
ANGLE_2 = 2016-10-14T19:18:00.000 54.60332843495164
RANGE = 2016-10-14T19:18:00.000 170803947.81338772

ANGLE_1 = 2016-10-14T19:19:00.000 83.72814928119854
ANGLE_2 = 2016-10-14T19:19:00.000 54.80541380457578
RANGE = 2016-10-14T19:19:00.000 170804690.623346

ANGLE_1 = 2016-10-14T19:20:00.000 83.5500958722293
ANGLE_2 = 2016-10-14T19:20:00.000 55.007010076336826
RANGE = 2016-10-14T19:20:00.000 170805433.5535119

ANGLE_1 = 2016-10-14T19:21:00.000 83.36984624127757
ANGLE_2 = 2016-10-14T19:21:00.000 55.20864561780512
RANGE = 2016-10-14T19:21:00.000 170806176.51270285

ANGLE_1 = 2016-10-14T19:22:00.000 83.18985452553245
ANGLE_2 = 2016-10-14T19:22:00.000 55.41021948407744
RANGE = 2016-10-14T19:22:00.000 170806919.4758336

ANGLE_1 = 2016-10-14T19:23:00.000 83.00762799474376
ANGLE_2 = 2016-10-14T19:23:00.000 55.61197827359759
RANGE = 2016-10-14T19:23:00.000 170807662.5566559

ANGLE_1 = 2016-10-14T19:24:00.000 82.8244852138618
ANGLE_2 = 2016-10-14T19:24:00.000 55.8132403168074
RANGE = 2016-10-14T19:24:00.000 170808405.75045663

ANGLE_1 = 2016-10-14T19:25:00.000 82.63993482058638
ANGLE_2 = 2016-10-14T19:25:00.000 56.014358833673704
RANGE = 2016-10-14T19:25:00.000 170809148.98690557

ANGLE_1 = 2016-10-14T19:26:00.000 82.45482777102049
ANGLE_2 = 2016-10-14T19:26:00.000 56.215587542129775
RANGE = 2016-10-14T19:26:00.000 170809892.30945405

ANGLE_1 = 2016-10-14T19:27:00.000 82.26730573495625
ANGLE_2 = 2016-10-14T19:27:00.000 56.41690834274498
RANGE = 2016-10-14T19:27:00.000 170810635.62393126

ANGLE_1 = 2016-10-14T19:28:00.000 82.07970497209872
ANGLE_2 = 2016-10-14T19:28:00.000 56.6177520014547
RANGE = 2016-10-14T19:28:00.000 170811379.11502245

ANGLE_1 = 2016-10-14T19:29:00.000 81.89050309894938
ANGLE_2 = 2016-10-14T19:29:00.000 56.81902690474366
RANGE = 2016-10-14T19:29:00.000 170812122.59647307

ANGLE_1 = 2016-10-14T19:30:00.000 81.69949218037534
ANGLE_2 = 2016-10-14T19:30:00.000 57.02005726028345
RANGE = 2016-10-14T19:30:00.000 170812866.16059032

ANGLE_1 = 2016-10-14T19:31:00.000 81.50692214882612
ANGLE_2 = 2016-10-14T19:31:00.000 57.22060203515089
RANGE = 2016-10-14T19:31:00.000 170813609.84378856

ANGLE_1 = 2016-10-14T19:32:00.000 81.3134483745635
ANGLE_2 = 2016-10-14T19:32:00.000 57.42115349953931
RANGE = 2016-10-14T19:32:00.000 170814353.5588176

ANGLE_1 = 2016-10-14T19:33:00.000 81.11759984659658
ANGLE_2 = 2016-10-14T19:33:00.000 57.622014523501214
RANGE = 2016-10-14T19:33:00.000 170815097.35816342

ANGLE_1 = 2016-10-14T19:34:00.000 80.92105822399841
ANGLE_2 = 2016-10-14T19:34:00.000 57.82269723673489
RANGE = 2016-10-14T19:34:00.000 170815841.18682396

ANGLE_1 = 2016-10-14T19:35:00.000 80.7235540038736
ANGLE_2 = 2016-10-14T19:35:00.000 58.02263171226155
RANGE = 2016-10-14T19:35:00.000 170816585.1366376

ANGLE_1 = 2016-10-14T19:36:00.000 80.52407315650659
ANGLE_2 = 2016-10-14T19:36:00.000 58.22315658883166
RANGE = 2016-10-14T19:36:00.000 170817329.1221986

ANGLE_1 = 2016-10-14T19:37:00.000 80.322940623005
ANGLE_2 = 2016-10-14T19:37:00.000 58.42310851881301
RANGE = 2016-10-14T19:37:00.000 170818073.20842028

ANGLE_1 = 2016-10-14T19:38:00.000 80.11995027354526
ANGLE_2 = 2016-10-14T19:38:00.000 58.62304920772367
RANGE = 2016-10-14T19:38:00.000 170818817.32306027

ANGLE_1 = 2016-10-14T19:39:00.000 79.91626910413557
ANGLE_2 = 2016-10-14T19:39:00.000 58.82299742920662
RANGE = 2016-10-14T19:39:00.000 170819561.57558715

ANGLE_1 = 2016-10-14T19:40:00.000 79.71031642210964
ANGLE_2 = 2016-10-14T19:40:00.000 59.02346288864417
RANGE = 2016-10-14T19:40:00.000 170820305.84883186

ANGLE_1 = 2016-10-14T19:41:00.000 79.502364309598
ANGLE_2 = 2016-10-14T19:41:00.000 59.22291841960664
RANGE = 2016-10-14T19:41:00.000 170821050.232365

ANGLE_1 = 2016-10-14T19:42:00.000 79.29316009658415
ANGLE_2 = 2016-10-14T19:42:00.000 59.42220180766488
RANGE = 2016-10-14T19:42:00.000 170821794.65928018

ANGLE_1 = 2016-10-14T19:43:00.000 79.08152542684833
ANGLE_2 = 2016-10-14T19:43:00.000 59.620837102696555
RANGE = 2016-10-14T19:43:00.000 170822539.1542331

ANGLE_1 = 2016-10-14T19:44:00.000 78.86923775768851
ANGLE_2 = 2016-10-14T19:44:00.000 59.82074335299423
RANGE = 2016-10-14T19:44:00.000 170823283.73485124

ANGLE_1 = 2016-10-14T19:45:00.000 78.65426356514938
ANGLE_2 = 2016-10-14T19:45:00.000 60.01907012729681
RANGE = 2016-10-14T19:45:00.000 170824028.37599373

ANGLE_1 = 2016-10-14T19:46:00.000 78.43742241718714
ANGLE_2 = 2016-10-14T19:46:00.000 60.21822082609277
RANGE = 2016-10-14T19:46:00.000 170824773.15733257

ANGLE_1 = 2016-10-14T19:47:00.000 78.21906361892836
ANGLE_2 = 2016-10-14T19:47:00.000 60.4170747704971
RANGE = 2016-10-14T19:47:00.000 170825517.94077826

ANGLE_1 = 2016-10-14T19:48:00.000 77.99908845589933
ANGLE_2 = 2016-10-14T19:48:00.000 60.61589546954478
RANGE = 2016-10-14T19:48:00.000 170826262.82372704

ANGLE_1 = 2016-10-14T19:49:00.000 77.77653794667606
ANGLE_2 = 2016-10-14T19:49:00.000 60.8148654739275
RANGE = 2016-10-14T19:49:00.000 170827007.7879748

ANGLE_1 = 2016-10-14T19:50:00.000 77.55135564155665
ANGLE_2 = 2016-10-14T19:50:00.000 61.01287772603113
RANGE = 2016-10-14T19:50:00.000 170827752.7920125

ANGLE_1 = 2016-10-14T19:51:00.000 77.3256496806237
ANGLE_2 = 2016-10-14T19:51:00.000 61.210527810664125
RANGE = 2016-10-14T19:51:00.000 170828497.91030526

ANGLE_1 = 2016-10-14T19:52:00.000 77.09691784720474
ANGLE_2 = 2016-10-14T19:52:00.000 61.408978163143864
RANGE = 2016-10-14T19:52:00.000 170829243.09564894

ANGLE_1 = 2016-10-14T19:53:00.000 76.86645368131005
ANGLE_2 = 2016-10-14T19:53:00.000 61.60642510394118
RANGE = 2016-10-14T19:53:00.000 170829988.3327217

ANGLE_1 = 2016-10-14T19:54:00.000 76.63281696436918
ANGLE_2 = 2016-10-14T19:54:00.000 61.8041717603567
RANGE = 2016-10-14T19:54:00.000 170830733.65318596

ANGLE_1 = 2016-10-14T19:55:00.000 76.39858638789684
ANGLE_2 = 2016-10-14T19:55:00.000 62.00153642490696
RANGE = 2016-10-14T19:55:00.000 170831479.08134782

ANGLE_1 = 2016-10-14T19:56:00.000 76.16072475025445
ANGLE_2 = 2016-10-14T19:56:00.000 62.19871805157649
RANGE = 2016-10-14T19:56:00.000 170832224.49070933

ANGLE_1 = 2016-10-14T19:57:00.000 75.92185384487787
ANGLE_2 = 2016-10-14T19:57:00.000 62.39577578665811
RANGE = 2016-10-14T19:57:00.000 170832970.0549894

ANGLE_1 = 2016-10-14T19:58:00.000 75.67887242795068
ANGLE_2 = 2016-10-14T19:58:00.000 62.592386210713656
RANGE = 2016-10-14T19:58:00.000 170833715.71236354

ANGLE_1 = 2016-10-14T19:59:00.000 75.43485877787747
ANGLE_2 = 2016-10-14T19:59:00.000 62.78850946936988
RANGE = 2016-10-14T19:59:00.000 170834461.44699046

ANGLE_1 = 2016-10-14T20:00:00.000 75.1883064396251
ANGLE_2 = 2016-10-14T20:00:00.000 62.98554496939606
RANGE = 2016-10-14T20:00:00.000 170835207.20432267

ANGLE_1 = 2016-10-14T20:01:00.000 74.93777455186118
ANGLE_2 = 2016-10-14T20:01:00.000 63.18129214401576
RANGE = 2016-10-14T20:01:00.000 170835953.01940346

ANGLE_1 = 2016-10-14T20:02:00.000 74.68565494100042
ANGLE_2 = 2016-10-14T20:02:00.000 63.3774045972517
RANGE = 2016-10-14T20:02:00.000 170836698.9712896

ANGLE_1 = 2016-10-14T20:03:00.000 74.43176053019813
ANGLE_2 = 2016-10-14T20:03:00.000 63.57288229602106
RANGE = 2016-10-14T20:03:00.000 170837445.00036174

ANGLE_1 = 2016-10-14T20:04:00.000 74.17392045635621
ANGLE_2 = 2016-10-14T20:04:00.000 63.768055075975646
RANGE = 2016-10-14T20:04:00.000 170838191.1080108

ANGLE_1 = 2016-10-14T20:05:00.000 73.91437057537061
ANGLE_2 = 2016-10-14T20:05:00.000 63.96300777116018
RANGE = 2016-10-14T20:05:00.000 170838937.2349826

ANGLE_1 = 2016-10-14T20:06:00.000 73.65130785670189
ANGLE_2 = 2016-10-14T20:06:00.000 64.1579713886822
RANGE = 2016-10-14T20:06:00.000 170839683.49567178

ANGLE_1 = 2016-10-14T20:07:00.000 73.3850607974198
ANGLE_2 = 2016-10-14T20:07:00.000 64.35244770425822
RANGE = 2016-10-14T20:07:00.000 170840429.81770203

ANGLE_1 = 2016-10-14T20:08:00.000 73.11652398358648
ANGLE_2 = 2016-10-14T20:08:00.000 64.547270989028
RANGE = 2016-10-14T20:08:00.000 170841176.23242167

ANGLE_1 = 2016-10-14T20:09:00.000 72.84487989317614
ANGLE_2 = 2016-10-14T20:09:00.000 64.74125263148031
RANGE = 2016-10-14T20:09:00.000 170841922.70272228

ANGLE_1 = 2016-10-14T20:10:00.000 72.57017974969256
ANGLE_2 = 2016-10-14T20:10:00.000 64.9350415403184
RANGE = 2016-10-14T20:10:00.000 170842669.2304742

ANGLE_1 = 2016-10-14T20:11:00.000 72.29154746334737
ANGLE_2 = 2016-10-14T20:11:00.000 65.1288934774791
RANGE = 2016-10-14T20:11:00.000 170843415.90491626

ANGLE_1 = 2016-10-14T20:12:00.000 72.0105999994401
ANGLE_2 = 2016-10-14T20:12:00.000 65.32179125571089
RANGE = 2016-10-14T20:12:00.000 170844162.61397436

ANGLE_1 = 2016-10-14T20:13:00.000 71.72562989880748
ANGLE_2 = 2016-10-14T20:13:00.000 65.51470932176527
RANGE = 2016-10-14T20:13:00.000 170844909.41792274

ANGLE_1 = 2016-10-14T20:14:00.000 71.43789908431103
ANGLE_2 = 2016-10-14T20:14:00.000 65.70719319618748
RANGE = 2016-10-14T20:14:00.000 170845656.28137004

ANGLE_1 = 2016-10-14T20:15:00.000 71.14678509747722
ANGLE_2 = 2016-10-14T20:15:00.000 65.89946335570463
RANGE = 2016-10-14T20:15:00.000 170846403.2071001

ANGLE_1 = 2016-10-14T20:16:00.000 70.85208805268708
ANGLE_2 = 2016-10-14T20:16:00.000 66.09143328523771
RANGE = 2016-10-14T20:16:00.000 170847150.28771362

ANGLE_1 = 2016-10-14T20:17:00.000 70.55363395598825
ANGLE_2 = 2016-10-14T20:17:00.000 66.28316385744068
RANGE = 2016-10-14T20:17:00.000 170847897.36332428

ANGLE_1 = 2016-10-14T20:18:00.000 70.25091002938731
ANGLE_2 = 2016-10-14T20:18:00.000 66.47421587513637
RANGE = 2016-10-14T20:18:00.000 170848644.5459412

ANGLE_1 = 2016-10-14T20:19:00.000 69.94567607385002
ANGLE_2 = 2016-10-14T20:19:00.000 66.66467078560446
RANGE = 2016-10-14T20:19:00.000 170849391.81711242

ANGLE_1 = 2016-10-14T20:20:00.000 69.63554159996704
ANGLE_2 = 2016-10-14T20:20:00.000 66.8547083861961
RANGE = 2016-10-14T20:20:00.000 170850139.14287844

ANGLE_1 = 2016-10-14T20:21:00.000 69.3218316073056
ANGLE_2 = 2016-10-14T20:21:00.000 67.04565346384162
RANGE = 2016-10-14T20:21:00.000 170850886.57493255

ANGLE_1 = 2016-10-14T20:22:00.000 69.00409370835702
ANGLE_2 = 2016-10-14T20:22:00.000 67.23509632884995
RANGE = 2016-10-14T20:22:00.000 170851634.0923975

ANGLE_1 = 2016-10-14T20:23:00.000 68.68211237610512
ANGLE_2 = 2016-10-14T20:23:00.000 67.42372584949462
RANGE = 2016-10-14T20:23:00.000 170852381.687728

ANGLE_1 = 2016-10-14T20:24:00.000 68.3565763728529
ANGLE_2 = 2016-10-14T20:24:00.000 67.61317756291454
RANGE = 2016-10-14T20:24:00.000 170853129.3419872

ANGLE_1 = 2016-10-14T20:25:00.000 68.02561645871597
ANGLE_2 = 2016-10-14T20:25:00.000 67.8019080085811
RANGE = 2016-10-14T20:25:00.000 170853877.11834988

ANGLE_1 = 2016-10-14T20:26:00.000 67.69084312069141
ANGLE_2 = 2016-10-14T20:26:00.000 67.9889837586281
RANGE = 2016-10-14T20:26:00.000 170854624.9250107

ANGLE_1 = 2016-10-14T20:27:00.000 67.3516908919002
ANGLE_2 = 2016-10-14T20:27:00.000 68.17730714863922
RANGE = 2016-10-14T20:27:00.000 170855372.80857405

ANGLE_1 = 2016-10-14T20:28:00.000 67.00760600670601
ANGLE_2 = 2016-10-14T20:28:00.000 68.3646190416872
RANGE = 2016-10-14T20:28:00.000 170856120.8136789

ANGLE_1 = 2016-10-14T20:29:00.000 66.65925804566236
ANGLE_2 = 2016-10-14T20:29:00.000 68.55118281966581
RANGE = 2016-10-14T20:29:00.000 170856868.91805872

ANGLE_1 = 2016-10-14T20:30:00.000 66.30567505630982
ANGLE_2 = 2016-10-14T20:30:00.000 68.73671584641737
RANGE = 2016-10-14T20:30:00.000 170857617.07360834

ANGLE_1 = 2016-10-14T20:31:00.000 65.94669695916497
ANGLE_2 = 2016-10-14T20:31:00.000 68.92253890664661
RANGE = 2016-10-14T20:31:00.000 170858365.292182

ANGLE_1 = 2016-10-14T20:32:00.000 65.5830678840862
ANGLE_2 = 2016-10-14T20:32:00.000 69.1077434547984
RANGE = 2016-10-14T20:32:00.000 170859113.60801145

ANGLE_1 = 2016-10-14T20:33:00.000 65.21390326837655
ANGLE_2 = 2016-10-14T20:33:00.000 69.29181933887052
RANGE = 2016-10-14T20:33:00.000 170859862.00699633

ANGLE_1 = 2016-10-14T20:34:00.000 64.84005819962184
ANGLE_2 = 2016-10-14T20:34:00.000 69.47602243608304
RANGE = 2016-10-14T20:34:00.000 170860610.48086458

ANGLE_1 = 2016-10-14T20:35:00.000 64.46010045470081
ANGLE_2 = 2016-10-14T20:35:00.000 69.65964678374519
RANGE = 2016-10-14T20:35:00.000 170861359.0828794

ANGLE_1 = 2016-10-14T20:36:00.000 64.074114417103
ANGLE_2 = 2016-10-14T20:36:00.000 69.84206368042466
RANGE = 2016-10-14T20:36:00.000 170862107.71983993

ANGLE_1 = 2016-10-14T20:37:00.000 63.68345057772242
ANGLE_2 = 2016-10-14T20:37:00.000 70.02453969513117
RANGE = 2016-10-14T20:37:00.000 170862856.46119353

ANGLE_1 = 2016-10-14T20:38:00.000 63.287175504419274
ANGLE_2 = 2016-10-14T20:38:00.000 70.20600023670458
RANGE = 2016-10-14T20:38:00.000 170863605.27132782

ANGLE_1 = 2016-10-14T20:39:00.000 62.8831501837873
ANGLE_2 = 2016-10-14T20:39:00.000 70.38684819294163
RANGE = 2016-10-14T20:39:00.000 170864354.1680601

ANGLE_1 = 2016-10-14T20:40:00.000 62.47378178635345
ANGLE_2 = 2016-10-14T20:40:00.000 70.56741024064931
RANGE = 2016-10-14T20:40:00.000 170865103.14054498

ANGLE_1 = 2016-10-14T20:41:00.000 62.058822579127
ANGLE_2 = 2016-10-14T20:41:00.000 70.74721076881053
RANGE = 2016-10-14T20:41:00.000 170865852.187827

ANGLE_1 = 2016-10-14T20:42:00.000 61.63670670655816
ANGLE_2 = 2016-10-14T20:42:00.000 70.92607549355314
RANGE = 2016-10-14T20:42:00.000 170866601.35212404

ANGLE_1 = 2016-10-14T20:43:00.000 61.20750225880642
ANGLE_2 = 2016-10-14T20:43:00.000 71.10443161149647
RANGE = 2016-10-14T20:43:00.000 170867350.52575547

ANGLE_1 = 2016-10-14T20:44:00.000 60.77236809956024
ANGLE_2 = 2016-10-14T20:44:00.000 71.28174470586673
RANGE = 2016-10-14T20:44:00.000 170868099.85051596

ANGLE_1 = 2016-10-14T20:45:00.000 60.329879046307674
ANGLE_2 = 2016-10-14T20:45:00.000 71.45880957904988
RANGE = 2016-10-14T20:45:00.000 170868849.27298707

ANGLE_1 = 2016-10-14T20:46:00.000 59.879553663096694
ANGLE_2 = 2016-10-14T20:46:00.000 71.63432801116257
RANGE = 2016-10-14T20:46:00.000 170869598.73907688

ANGLE_1 = 2016-10-14T20:47:00.000 59.42272001398292
ANGLE_2 = 2016-10-14T20:47:00.000 71.80940360786047
RANGE = 2016-10-14T20:47:00.000 170870348.3276304

ANGLE_1 = 2016-10-14T20:48:00.000 58.95887067721157
ANGLE_2 = 2016-10-14T20:48:00.000 71.98359433652118
RANGE = 2016-10-14T20:48:00.000 170871097.96943146

ANGLE_1 = 2016-10-14T20:49:00.000 58.486213866738346
ANGLE_2 = 2016-10-14T20:49:00.000 72.1572984005423
RANGE = 2016-10-14T20:49:00.000 170871847.68536687

ANGLE_1 = 2016-10-14T20:50:00.000 58.00592129883827
ANGLE_2 = 2016-10-14T20:50:00.000 72.32966050168169
RANGE = 2016-10-14T20:50:00.000 170872597.50587738

ANGLE_1 = 2016-10-14T20:51:00.000 57.51761227297021
ANGLE_2 = 2016-10-14T20:51:00.000 72.50195147219904
RANGE = 2016-10-14T20:51:00.000 170873347.38157374

ANGLE_1 = 2016-10-14T20:52:00.000 57.02118510482552
ANGLE_2 = 2016-10-14T20:52:00.000 72.67193497132038
RANGE = 2016-10-14T20:52:00.000 170874097.36684728

ANGLE_1 = 2016-10-14T20:53:00.000 56.516370573629864
ANGLE_2 = 2016-10-14T20:53:00.000 72.84232556815725
RANGE = 2016-10-14T20:53:00.000 170874847.4425262

ANGLE_1 = 2016-10-14T20:54:00.000 56.002996719862516
ANGLE_2 = 2016-10-14T20:54:00.000 73.01124925622247
RANGE = 2016-10-14T20:54:00.000 170875597.59763038

ANGLE_1 = 2016-10-14T20:55:00.000 55.480030598980555
ANGLE_2 = 2016-10-14T20:55:00.000 73.17845040249794
RANGE = 2016-10-14T20:55:00.000 170876347.81617343

ANGLE_1 = 2016-10-14T20:56:00.000 54.949322559388
ANGLE_2 = 2016-10-14T20:56:00.000 73.34546586973771
RANGE = 2016-10-14T20:56:00.000 170877098.1581133

ANGLE_1 = 2016-10-14T20:57:00.000 54.40823204583768
ANGLE_2 = 2016-10-14T20:57:00.000 73.51089995339694
RANGE = 2016-10-14T20:57:00.000 170877848.54783875

ANGLE_1 = 2016-10-14T20:58:00.000 53.85797033202782
ANGLE_2 = 2016-10-14T20:58:00.000 73.6753668101357
RANGE = 2016-10-14T20:58:00.000 170878599.0199292

ANGLE_1 = 2016-10-14T20:59:00.000 53.297562079760226
ANGLE_2 = 2016-10-14T20:59:00.000 73.83931263322513
RANGE = 2016-10-14T20:59:00.000 170879349.60717717

ANGLE_1 = 2016-10-14T21:00:00.000 52.727356549170445
ANGLE_2 = 2016-10-14T21:00:00.000 74.0006173556005
RANGE = 2016-10-14T21:00:00.000 170880100.29589993

ANGLE_1 = 2016-10-14T21:01:00.000 52.1472120960571
ANGLE_2 = 2016-10-14T21:01:00.000 74.16178073203065
RANGE = 2016-10-14T21:01:00.000 170880851.03559548

ANGLE_1 = 2016-10-14T21:02:00.000 51.55624849123762
ANGLE_2 = 2016-10-14T21:02:00.000 74.32103951176694
RANGE = 2016-10-14T21:02:00.000 170881601.8499541

ANGLE_1 = 2016-10-14T21:03:00.000 50.95468993685571
ANGLE_2 = 2016-10-14T21:03:00.000 74.4795707357676
RANGE = 2016-10-14T21:03:00.000 170882352.78410757

ANGLE_1 = 2016-10-14T21:04:00.000 50.342676587302066
ANGLE_2 = 2016-10-14T21:04:00.000 74.63636507812849
RANGE = 2016-10-14T21:04:00.000 170883103.78181124

ANGLE_1 = 2016-10-14T21:05:00.000 49.718607038200794
ANGLE_2 = 2016-10-14T21:05:00.000 74.79144422724262
RANGE = 2016-10-14T21:05:00.000 170883854.8458171

ANGLE_1 = 2016-10-14T21:06:00.000 49.08368527844731
ANGLE_2 = 2016-10-14T21:06:00.000 74.94634751559329
RANGE = 2016-10-14T21:06:00.000 170884606.01685718

ANGLE_1 = 2016-10-14T21:07:00.000 48.436461295648265
ANGLE_2 = 2016-10-14T21:07:00.000 75.09819714920386
RANGE = 2016-10-14T21:07:00.000 170885357.28748342

ANGLE_1 = 2016-10-14T21:08:00.000 47.77814400792699
ANGLE_2 = 2016-10-14T21:08:00.000 75.24987129741179
RANGE = 2016-10-14T21:08:00.000 170886108.5999008

ANGLE_1 = 2016-10-14T21:09:00.000 47.10708047878591
ANGLE_2 = 2016-10-14T21:09:00.000 75.3991349195547
RANGE = 2016-10-14T21:09:00.000 170886860.04573017

ANGLE_1 = 2016-10-14T21:10:00.000 46.424384753073205
ANGLE_2 = 2016-10-14T21:10:00.000 75.5466962394242
RANGE = 2016-10-14T21:10:00.000 170887611.5638565

ANGLE_1 = 2016-10-14T21:11:00.000 45.72923972834137
ANGLE_2 = 2016-10-14T21:11:00.000 75.6931227625342
RANGE = 2016-10-14T21:11:00.000 170888363.14776692

ANGLE_1 = 2016-10-14T21:12:00.000 45.02057179252843
ANGLE_2 = 2016-10-14T21:12:00.000 75.83808041239656
RANGE = 2016-10-14T21:12:00.000 170889114.86649385

ANGLE_1 = 2016-10-14T21:13:00.000 44.298627790999475
ANGLE_2 = 2016-10-14T21:13:00.000 75.98036406296738
RANGE = 2016-10-14T21:13:00.000 170889866.6154208

ANGLE_1 = 2016-10-14T21:14:00.000 43.56379795054421
ANGLE_2 = 2016-10-14T21:14:00.000 76.12100877613443
RANGE = 2016-10-14T21:14:00.000 170890618.47730282

ANGLE_1 = 2016-10-14T21:15:00.000 42.81478641085947
ANGLE_2 = 2016-10-14T21:15:00.000 76.25975285636783
RANGE = 2016-10-14T21:15:00.000 170891370.4460529

ANGLE_1 = 2016-10-14T21:16:00.000 42.052354755871924
ANGLE_2 = 2016-10-14T21:16:00.000 76.39701178442824
RANGE = 2016-10-14T21:16:00.000 170892122.4860788

ANGLE_1 = 2016-10-14T21:17:00.000 41.27592045072763
ANGLE_2 = 2016-10-14T21:17:00.000 76.53188721857555
RANGE = 2016-10-14T21:17:00.000 170892874.58119956

ANGLE_1 = 2016-10-14T21:18:00.000 40.485175329539445
ANGLE_2 = 2016-10-14T21:18:00.000 76.6638509534612
RANGE = 2016-10-14T21:18:00.000 170893626.78591356

ANGLE_1 = 2016-10-14T21:19:00.000 39.680225548359594
ANGLE_2 = 2016-10-14T21:19:00.000 76.79527486067843
RANGE = 2016-10-14T21:19:00.000 170894379.10100168

ANGLE_1 = 2016-10-14T21:20:00.000 38.85980476859581
ANGLE_2 = 2016-10-14T21:20:00.000 76.92309335183184
RANGE = 2016-10-14T21:20:00.000 170895131.47466946

ANGLE_1 = 2016-10-14T21:21:00.000 38.025872754697424
ANGLE_2 = 2016-10-14T21:21:00.000 77.04932036522479
RANGE = 2016-10-14T21:21:00.000 170895883.9378318

ANGLE_1 = 2016-10-14T21:22:00.000 37.176863609039714
ANGLE_2 = 2016-10-14T21:22:00.000 77.17329049934332
RANGE = 2016-10-14T21:22:00.000 170896636.4914669

ANGLE_1 = 2016-10-14T21:23:00.000 36.311694986290206
ANGLE_2 = 2016-10-14T21:23:00.000 77.29483701976372
RANGE = 2016-10-14T21:23:00.000 170897389.1232869

ANGLE_1 = 2016-10-14T21:24:00.000 35.43258147227601
ANGLE_2 = 2016-10-14T21:24:00.000 77.41342685073977
RANGE = 2016-10-14T21:24:00.000 170898141.88119787

ANGLE_1 = 2016-10-14T21:25:00.000 34.537357032274144
ANGLE_2 = 2016-10-14T21:25:00.000 77.53031495875918
RANGE = 2016-10-14T21:25:00.000 170898894.65350804

ANGLE_1 = 2016-10-14T21:26:00.000 33.62718898427796
ANGLE_2 = 2016-10-14T21:26:00.000 77.6438987643896
RANGE = 2016-10-14T21:26:00.000 170899647.5875737

ANGLE_1 = 2016-10-14T21:27:00.000 32.701476287809264
ANGLE_2 = 2016-10-14T21:27:00.000 77.75472660787582
RANGE = 2016-10-14T21:27:00.000 170900400.52897975

ANGLE_1 = 2016-10-14T21:28:00.000 31.76019011759401
ANGLE_2 = 2016-10-14T21:28:00.000 77.86282546069376
RANGE = 2016-10-14T21:28:00.000 170901153.6200786

ANGLE_1 = 2016-10-14T21:29:00.000 30.803752681282344
ANGLE_2 = 2016-10-14T21:29:00.000 77.96798908088675
RANGE = 2016-10-14T21:29:00.000 170901906.79777968

ANGLE_1 = 2016-10-14T21:30:00.000 29.831296647310467
ANGLE_2 = 2016-10-14T21:30:00.000 78.07061098972045
RANGE = 2016-10-14T21:30:00.000 170902660.04285693

ANGLE_1 = 2016-10-14T21:31:00.000 28.843039868320254
ANGLE_2 = 2016-10-14T21:31:00.000 78.1698643504713
RANGE = 2016-10-14T21:31:00.000 170903413.40555796

ANGLE_1 = 2016-10-14T21:32:00.000 27.840181185475362
ANGLE_2 = 2016-10-14T21:32:00.000 78.26647817226034
RANGE = 2016-10-14T21:32:00.000 170904166.83434948

ANGLE_1 = 2016-10-14T21:33:00.000 26.821995838025167
ANGLE_2 = 2016-10-14T21:33:00.000 78.35967192784604
RANGE = 2016-10-14T21:33:00.000 170904920.3207576

ANGLE_1 = 2016-10-14T21:34:00.000 25.78885202605103
ANGLE_2 = 2016-10-14T21:34:00.000 78.44931092082112
RANGE = 2016-10-14T21:34:00.000 170905673.92765567

ANGLE_1 = 2016-10-14T21:35:00.000 24.740403747607775
ANGLE_2 = 2016-10-14T21:35:00.000 78.5363623186433
RANGE = 2016-10-14T21:35:00.000 170906427.59149966

ANGLE_1 = 2016-10-14T21:36:00.000 23.677318308749978
ANGLE_2 = 2016-10-14T21:36:00.000 78.61905982073463
RANGE = 2016-10-14T21:36:00.000 170907181.40268654

ANGLE_1 = 2016-10-14T21:37:00.000 22.600769233272505
ANGLE_2 = 2016-10-14T21:37:00.000 78.69901824831251
RANGE = 2016-10-14T21:37:00.000 170907935.23038933

ANGLE_1 = 2016-10-14T21:38:00.000 21.50941347583117
ANGLE_2 = 2016-10-14T21:38:00.000 78.77527397080594
RANGE = 2016-10-14T21:38:00.000 170908689.19650474

ANGLE_1 = 2016-10-14T21:39:00.000 20.404321291387365
ANGLE_2 = 2016-10-14T21:39:00.000 78.84736007542934
RANGE = 2016-10-14T21:39:00.000 170909443.2406292

ANGLE_1 = 2016-10-14T21:40:00.000 19.2869727828954
ANGLE_2 = 2016-10-14T21:40:00.000 78.9172987864458
RANGE = 2016-10-14T21:40:00.000 170910197.34824896

ANGLE_1 = 2016-10-14T21:41:00.000 18.155951964141153
ANGLE_2 = 2016-10-14T21:41:00.000 78.98169985866882
RANGE = 2016-10-14T21:41:00.000 170910951.54572508

ANGLE_1 = 2016-10-14T21:42:00.000 17.012556203446376
ANGLE_2 = 2016-10-14T21:42:00.000 79.04264488547715
RANGE = 2016-10-14T21:42:00.000 170911705.8229375

ANGLE_1 = 2016-10-14T21:43:00.000 15.857733804464365
ANGLE_2 = 2016-10-14T21:43:00.000 79.09956106231088
RANGE = 2016-10-14T21:43:00.000 170912460.24344963

ANGLE_1 = 2016-10-14T21:44:00.000 14.691683804741078
ANGLE_2 = 2016-10-14T21:44:00.000 79.15360601114723
RANGE = 2016-10-14T21:44:00.000 170913214.7127357

ANGLE_1 = 2016-10-14T21:45:00.000 13.516166593483538
ANGLE_2 = 2016-10-14T21:45:00.000 79.20342131721875
RANGE = 2016-10-14T21:45:00.000 170913969.27056202

ANGLE_1 = 2016-10-14T21:46:00.000 12.329378745178435
ANGLE_2 = 2016-10-14T21:46:00.000 79.24867188674482
RANGE = 2016-10-14T21:46:00.000 170914723.93342522

ANGLE_1 = 2016-10-14T21:47:00.000 11.134276698491824
ANGLE_2 = 2016-10-14T21:47:00.000 79.2895329034251
RANGE = 2016-10-14T21:47:00.000 170915478.68076736

ANGLE_1 = 2016-10-14T21:48:00.000 9.930582010411817
ANGLE_2 = 2016-10-14T21:48:00.000 79.32626242598566
RANGE = 2016-10-14T21:48:00.000 170916233.46934116

ANGLE_1 = 2016-10-14T21:49:00.000 8.720111121917261
ANGLE_2 = 2016-10-14T21:49:00.000 79.35905641098721
RANGE = 2016-10-14T21:49:00.000 170916988.44592795

ANGLE_1 = 2016-10-14T21:50:00.000 7.502088316119918
ANGLE_2 = 2016-10-14T21:50:00.000 79.38785467511592
RANGE = 2016-10-14T21:50:00.000 170917743.4097773

ANGLE_1 = 2016-10-14T21:51:00.000 6.279314403057714
ANGLE_2 = 2016-10-14T21:51:00.000 79.41181247559321
RANGE = 2016-10-14T21:51:00.000 170918498.46097004

ANGLE_1 = 2016-10-14T21:52:00.000 5.051445967610536
ANGLE_2 = 2016-10-14T21:52:00.000 79.43227894099043
RANGE = 2016-10-14T21:52:00.000 170919253.65474057

ANGLE_1 = 2016-10-14T21:53:00.000 3.8193437908061405
ANGLE_2 = 2016-10-14T21:53:00.000 79.4475990805208
RANGE = 2016-10-14T21:53:00.000 170920008.9517993

ANGLE_1 = 2016-10-14T21:54:00.000 2.583362363812322
ANGLE_2 = 2016-10-14T21:54:00.000 79.4592093602489
RANGE = 2016-10-14T21:54:00.000 170920764.3103303

ANGLE_1 = 2016-10-14T21:55:00.000 1.3466847308210925
ANGLE_2 = 2016-10-14T21:55:00.000 79.46610258666617
RANGE = 2016-10-14T21:55:00.000 170921519.73384675

ANGLE_1 = 2016-10-14T21:56:00.000 0.1090599315369622
ANGLE_2 = 2016-10-14T21:56:00.000 79.4687566689643
RANGE = 2016-10-14T21:56:00.000 170922275.2414311

ANGLE_1 = 2016-10-14T21:57:00.000 358.8708560703736
ANGLE_2 = 2016-10-14T21:57:00.000 79.46670326074643
RANGE = 2016-10-14T21:57:00.000 170923030.8646616

ANGLE_1 = 2016-10-14T21:58:00.000 357.6343646734629
ANGLE_2 = 2016-10-14T21:58:00.000 79.46025040197024
RANGE = 2016-10-14T21:58:00.000 170923786.5683074

ANGLE_1 = 2016-10-14T21:59:00.000 356.3985846286275
ANGLE_2 = 2016-10-14T21:59:00.000 79.44975943369991
RANGE = 2016-10-14T21:59:00.000 170924542.34740922

ANGLE_1 = 2016-10-14T22:00:00.000 355.1657231907479
ANGLE_2 = 2016-10-14T22:00:00.000 79.4345798041787
RANGE = 2016-10-14T22:00:00.000 170925298.21766654

ANGLE_1 = 2016-10-14T22:01:00.000 353.9372187442994
ANGLE_2 = 2016-10-14T22:01:00.000 79.41544798868519
RANGE = 2016-10-14T22:01:00.000 170926054.224982

ANGLE_1 = 2016-10-14T22:02:00.000 352.713970700715
ANGLE_2 = 2016-10-14T22:02:00.000 79.39188935775839
RANGE = 2016-10-14T22:02:00.000 170926810.28632194

ANGLE_1 = 2016-10-14T22:03:00.000 351.4951647705235
ANGLE_2 = 2016-10-14T22:03:00.000 79.36379327096468
RANGE = 2016-10-14T22:03:00.000 170927566.41709548

ANGLE_1 = 2016-10-14T22:04:00.000 350.2830220367792
ANGLE_2 = 2016-10-14T22:04:00.000 79.33139602785069
RANGE = 2016-10-14T22:04:00.000 170928322.6651886

ANGLE_1 = 2016-10-14T22:05:00.000 349.0788154983348
ANGLE_2 = 2016-10-14T22:05:00.000 79.29485256898886
RANGE = 2016-10-14T22:05:00.000 170929078.94767395

ANGLE_1 = 2016-10-14T22:06:00.000 347.88204700729443
ANGLE_2 = 2016-10-14T22:06:00.000 79.25447373162477
RANGE = 2016-10-14T22:06:00.000 170929835.3633506

ANGLE_1 = 2016-10-14T22:07:00.000 346.69431368466627
ANGLE_2 = 2016-10-14T22:07:00.000 79.20964426923152
RANGE = 2016-10-14T22:07:00.000 170930591.870858

ANGLE_1 = 2016-10-14T22:08:00.000 345.5164770701121
ANGLE_2 = 2016-10-14T22:08:00.000 79.16082072029596
RANGE = 2016-10-14T22:08:00.000 170931348.46162817

ANGLE_1 = 2016-10-14T22:09:00.000 344.3496457015754
ANGLE_2 = 2016-10-14T22:09:00.000 79.10768737877392
RANGE = 2016-10-14T22:09:00.000 170932105.11181623

ANGLE_1 = 2016-10-14T22:10:00.000 343.1929538479528
ANGLE_2 = 2016-10-14T22:10:00.000 79.05112149466693
RANGE = 2016-10-14T22:10:00.000 170932861.88361236

ANGLE_1 = 2016-10-14T22:11:00.000 342.0483605717347
ANGLE_2 = 2016-10-14T22:11:00.000 78.99025733650551
RANGE = 2016-10-14T22:11:00.000 170933618.70823926

ANGLE_1 = 2016-10-14T22:12:00.000 340.91592333183576
ANGLE_2 = 2016-10-14T22:12:00.000 78.92537538227646
RANGE = 2016-10-14T22:12:00.000 170934375.6488497

ANGLE_1 = 2016-10-14T22:13:00.000 339.79532287242546
ANGLE_2 = 2016-10-14T22:13:00.000 78.85796100865427
RANGE = 2016-10-14T22:13:00.000 170935132.68356392

ANGLE_1 = 2016-10-14T22:14:00.000 338.6892686262956
ANGLE_2 = 2016-10-14T22:14:00.000 78.78522961094613
RANGE = 2016-10-14T22:14:00.000 170935889.8025208

ANGLE_1 = 2016-10-14T22:15:00.000 337.5961021745262
ANGLE_2 = 2016-10-14T22:15:00.000 78.7102520181187
RANGE = 2016-10-14T22:15:00.000 170936646.98760262

ANGLE_1 = 2016-10-14T22:16:00.000 336.5167183648457
ANGLE_2 = 2016-10-14T22:16:00.000 78.63030390934769
RANGE = 2016-10-14T22:16:00.000 170937404.2443997

ANGLE_1 = 2016-10-14T22:17:00.000 335.4519428569472
ANGLE_2 = 2016-10-14T22:17:00.000 78.54801620021654
RANGE = 2016-10-14T22:17:00.000 170938161.65232953

ANGLE_1 = 2016-10-14T22:18:00.000 334.40116378492286
ANGLE_2 = 2016-10-14T22:18:00.000 78.46185836597901
RANGE = 2016-10-14T22:18:00.000 170938919.08225903

ANGLE_1 = 2016-10-14T22:19:00.000 333.3661666586306
ANGLE_2 = 2016-10-14T22:19:00.000 78.37254405778069
RANGE = 2016-10-14T22:19:00.000 170939676.6087131

ANGLE_1 = 2016-10-14T22:20:00.000 332.3457561183668
ANGLE_2 = 2016-10-14T22:20:00.000 78.27934430094662
RANGE = 2016-10-14T22:20:00.000 170940434.2875582

ANGLE_1 = 2016-10-14T22:21:00.000 331.3404223162414
ANGLE_2 = 2016-10-14T22:21:00.000 78.18373246717755
RANGE = 2016-10-14T22:21:00.000 170941192.00881186

ANGLE_1 = 2016-10-14T22:22:00.000 330.35045700788913
ANGLE_2 = 2016-10-14T22:22:00.000 78.0851094055752
RANGE = 2016-10-14T22:22:00.000 170941949.8049649

ANGLE_1 = 2016-10-14T22:23:00.000 329.3759558600153
ANGLE_2 = 2016-10-14T22:23:00.000 77.98304699771799
RANGE = 2016-10-14T22:23:00.000 170942707.68623698

ANGLE_1 = 2016-10-14T22:24:00.000 328.4166699636884
ANGLE_2 = 2016-10-14T22:24:00.000 77.87815123600876
RANGE = 2016-10-14T22:24:00.000 170943465.6767814

ANGLE_1 = 2016-10-14T22:25:00.000 327.4733473213257
ANGLE_2 = 2016-10-14T22:25:00.000 77.77051896345827
RANGE = 2016-10-14T22:25:00.000 170944223.750151

ANGLE_1 = 2016-10-14T22:26:00.000 326.54565322596227
ANGLE_2 = 2016-10-14T22:26:00.000 77.65960899184124
RANGE = 2016-10-14T22:26:00.000 170944981.8945804

ANGLE_1 = 2016-10-14T22:27:00.000 325.63330862262734
ANGLE_2 = 2016-10-14T22:27:00.000 77.5464372443418
RANGE = 2016-10-14T22:27:00.000 170945740.14862755

ANGLE_1 = 2016-10-14T22:28:00.000 324.73538821535533
ANGLE_2 = 2016-10-14T22:28:00.000 77.43000418490215
RANGE = 2016-10-14T22:28:00.000 170946498.52099043

ANGLE_1 = 2016-10-14T22:29:00.000 323.8542518446544
ANGLE_2 = 2016-10-14T22:29:00.000 77.31148726191176
RANGE = 2016-10-14T22:29:00.000 170947256.92075503

ANGLE_1 = 2016-10-14T22:30:00.000 322.9869544843059
ANGLE_2 = 2016-10-14T22:30:00.000 77.19046762188806
RANGE = 2016-10-14T22:30:00.000 170948015.43917876

ANGLE_1 = 2016-10-14T22:31:00.000 322.13531465138465
ANGLE_2 = 2016-10-14T22:31:00.000 77.06716211032966
RANGE = 2016-10-14T22:31:00.000 170948774.01358083

ANGLE_1 = 2016-10-14T22:32:00.000 321.29936613993465
ANGLE_2 = 2016-10-14T22:32:00.000 76.94160202598827
RANGE = 2016-10-14T22:32:00.000 170949532.6705048

ANGLE_1 = 2016-10-14T22:33:00.000 320.4775823170176
ANGLE_2 = 2016-10-14T22:33:00.000 76.81300168997717
RANGE = 2016-10-14T22:33:00.000 170950291.43642542

ANGLE_1 = 2016-10-14T22:34:00.000 319.6708569931283
ANGLE_2 = 2016-10-14T22:34:00.000 76.68326256908784
RANGE = 2016-10-14T22:34:00.000 170951050.3033357

ANGLE_1 = 2016-10-14T22:35:00.000 318.8779142599318
ANGLE_2 = 2016-10-14T22:35:00.000 76.5501085048862
RANGE = 2016-10-14T22:35:00.000 170951809.24615467

ANGLE_1 = 2016-10-14T22:36:00.000 318.0994233351649
ANGLE_2 = 2016-10-14T22:36:00.000 76.41580062490259
RANGE = 2016-10-14T22:36:00.000 170952568.2745853

ANGLE_1 = 2016-10-14T22:37:00.000 317.33481563424004
ANGLE_2 = 2016-10-14T22:37:00.000 76.27913341330145
