2nd Assignment - Navigation/tdm/MALARGUE_EXM_20161011T162803_20161012T033108.tdm

CCSDS_TDM_VERS = 2.0

COMMENT This TDM contains synthetic data, not from real observations

CREATION_DATE = 2021-11-26T14:48:28.589395
ORIGINATOR = POLIMI-DAER

META_START
TIME_SYSTEM = UTC
START_TIME = 2016-10-11T16:28:03.880
STOP_TIME = 2016-10-12T03:31:08.784
PARTICIPANT_1 = MALARGUE
PARTICIPANT_2 = EXM
MODE = SEQUENTIAL
PATH = 1,2,1
RANGE_UNITS = km
ANGLE_TYPE = AZEL
META_STOP

DATA_START

ANGLE_1 = 2016-10-11T16:28:03.880 107.71092503129307
ANGLE_2 = 2016-10-11T16:28:03.880 19.99984875326185
RANGE = 2016-10-11T16:28:03.880 167398359.30955333

ANGLE_1 = 2016-10-11T16:29:00.000 107.59577447186676
ANGLE_2 = 2016-10-11T16:29:00.000 20.180937139549176
RANGE = 2016-10-11T16:29:00.000 167399053.54478145

ANGLE_1 = 2016-10-11T16:30:00.000 107.47162748855828
ANGLE_2 = 2016-10-11T16:30:00.000 20.37421626827898
RANGE = 2016-10-11T16:30:00.000 167399795.7519007

ANGLE_1 = 2016-10-11T16:31:00.000 107.34778752324102
ANGLE_2 = 2016-10-11T16:31:00.000 20.567953385850178
RANGE = 2016-10-11T16:31:00.000 167400537.98551586

ANGLE_1 = 2016-10-11T16:32:00.000 107.22405328691761
ANGLE_2 = 2016-10-11T16:32:00.000 20.76178603321513
RANGE = 2016-10-11T16:32:00.000 167401280.2201668

ANGLE_1 = 2016-10-11T16:33:00.000 107.10138796083882
ANGLE_2 = 2016-10-11T16:33:00.000 20.955642943328616
RANGE = 2016-10-11T16:33:00.000 167402022.4796589

ANGLE_1 = 2016-10-11T16:34:00.000 106.9779620820243
ANGLE_2 = 2016-10-11T16:34:00.000 21.149803620339988
RANGE = 2016-10-11T16:34:00.000 167402764.70875543

ANGLE_1 = 2016-10-11T16:35:00.000 106.85390244240183
ANGLE_2 = 2016-10-11T16:35:00.000 21.343545276080153
RANGE = 2016-10-11T16:35:00.000 167403506.9899843

ANGLE_1 = 2016-10-11T16:36:00.000 106.73060970130255
ANGLE_2 = 2016-10-11T16:36:00.000 21.53825899076925
RANGE = 2016-10-11T16:36:00.000 167404249.24030927

ANGLE_1 = 2016-10-11T16:37:00.000 106.60716089158208
ANGLE_2 = 2016-10-11T16:37:00.000 21.732239355077052
RANGE = 2016-10-11T16:37:00.000 167404991.53264877

ANGLE_1 = 2016-10-11T16:38:00.000 106.48397589757244
ANGLE_2 = 2016-10-11T16:38:00.000 21.92679426893474
RANGE = 2016-10-11T16:38:00.000 167405733.8493827

ANGLE_1 = 2016-10-11T16:39:00.000 106.36150613506823
ANGLE_2 = 2016-10-11T16:39:00.000 22.122595702420693
RANGE = 2016-10-11T16:39:00.000 167406476.1654183

ANGLE_1 = 2016-10-11T16:40:00.000 106.23796370273915
ANGLE_2 = 2016-10-11T16:40:00.000 22.31657239411269
RANGE = 2016-10-11T16:40:00.000 167407218.48660627

ANGLE_1 = 2016-10-11T16:41:00.000 106.11463805278784
ANGLE_2 = 2016-10-11T16:41:00.000 22.512130368089384
RANGE = 2016-10-11T16:41:00.000 167407960.85426417

ANGLE_1 = 2016-10-11T16:42:00.000 105.99212040508317
ANGLE_2 = 2016-10-11T16:42:00.000 22.70632370605416
RANGE = 2016-10-11T16:42:00.000 167408703.1789613

ANGLE_1 = 2016-10-11T16:43:00.000 105.86923519768867
ANGLE_2 = 2016-10-11T16:43:00.000 22.902075739391456
RANGE = 2016-10-11T16:43:00.000 167409445.59294936

ANGLE_1 = 2016-10-11T16:44:00.000 105.74639127062498
ANGLE_2 = 2016-10-11T16:44:00.000 23.097111084113354
RANGE = 2016-10-11T16:44:00.000 167410187.97671688

ANGLE_1 = 2016-10-11T16:45:00.000 105.6234311167223
ANGLE_2 = 2016-10-11T16:45:00.000 23.29258215641468
RANGE = 2016-10-11T16:45:00.000 167410930.36907533

ANGLE_1 = 2016-10-11T16:46:00.000 105.50086851640091
ANGLE_2 = 2016-10-11T16:46:00.000 23.488641431964982
RANGE = 2016-10-11T16:46:00.000 167411672.81220698

ANGLE_1 = 2016-10-11T16:47:00.000 105.37849380936812
ANGLE_2 = 2016-10-11T16:47:00.000 23.68346605157784
RANGE = 2016-10-11T16:47:00.000 167412415.23405892

ANGLE_1 = 2016-10-11T16:48:00.000 105.25530544956221
ANGLE_2 = 2016-10-11T16:48:00.000 23.879560810586405
RANGE = 2016-10-11T16:48:00.000 167413157.68766248

ANGLE_1 = 2016-10-11T16:49:00.000 105.13282498171512
ANGLE_2 = 2016-10-11T16:49:00.000 24.075278383806207
RANGE = 2016-10-11T16:49:00.000 167413900.1893587

ANGLE_1 = 2016-10-11T16:50:00.000 105.01013671573409
ANGLE_2 = 2016-10-11T16:50:00.000 24.27150395316703
RANGE = 2016-10-11T16:50:00.000 167414642.66063192

ANGLE_1 = 2016-10-11T16:51:00.000 104.88688976770959
ANGLE_2 = 2016-10-11T16:51:00.000 24.46703216674666
RANGE = 2016-10-11T16:51:00.000 167415385.14403823

ANGLE_1 = 2016-10-11T16:52:00.000 104.76475516741006
ANGLE_2 = 2016-10-11T16:52:00.000 24.663947500405257
RANGE = 2016-10-11T16:52:00.000 167416127.7154696

ANGLE_1 = 2016-10-11T16:53:00.000 104.64186510031375
ANGLE_2 = 2016-10-11T16:53:00.000 24.859997361202538
RANGE = 2016-10-11T16:53:00.000 167416870.2306887

ANGLE_1 = 2016-10-11T16:54:00.000 104.51939894312041
ANGLE_2 = 2016-10-11T16:54:00.000 25.056029729719224
RANGE = 2016-10-11T16:54:00.000 167417612.80900252

ANGLE_1 = 2016-10-11T16:55:00.000 104.39620874102314
ANGLE_2 = 2016-10-11T16:55:00.000 25.252969259733362
RANGE = 2016-10-11T16:55:00.000 167418355.40110466

ANGLE_1 = 2016-10-11T16:56:00.000 104.27477887461251
ANGLE_2 = 2016-10-11T16:56:00.000 25.44969994223509
RANGE = 2016-10-11T16:56:00.000 167419097.98669308

ANGLE_1 = 2016-10-11T16:57:00.000 104.1521954200116
ANGLE_2 = 2016-10-11T16:57:00.000 25.647058055587102
RANGE = 2016-10-11T16:57:00.000 167419840.63592649

ANGLE_1 = 2016-10-11T16:58:00.000 104.02947647457388
ANGLE_2 = 2016-10-11T16:58:00.000 25.843169169725815
RANGE = 2016-10-11T16:58:00.000 167420583.25872773

ANGLE_1 = 2016-10-11T16:59:00.000 103.90712294692344
ANGLE_2 = 2016-10-11T16:59:00.000 26.04024044718261
RANGE = 2016-10-11T16:59:00.000 167421325.91173464

ANGLE_1 = 2016-10-11T17:00:00.000 103.78428310759175
ANGLE_2 = 2016-10-11T17:00:00.000 26.237266452601315
RANGE = 2016-10-11T17:00:00.000 167422068.63476944

ANGLE_1 = 2016-10-11T17:01:00.000 103.66254344098144
ANGLE_2 = 2016-10-11T17:01:00.000 26.434327370145926
RANGE = 2016-10-11T17:01:00.000 167422811.3109546

ANGLE_1 = 2016-10-11T17:02:00.000 103.53972450405088
ANGLE_2 = 2016-10-11T17:02:00.000 26.631663348819394
RANGE = 2016-10-11T17:02:00.000 167423554.06021062

ANGLE_1 = 2016-10-11T17:03:00.000 103.41697124405997
ANGLE_2 = 2016-10-11T17:03:00.000 26.82945368220647
RANGE = 2016-10-11T17:03:00.000 167424296.8148653

ANGLE_1 = 2016-10-11T17:04:00.000 103.29471264304021
ANGLE_2 = 2016-10-11T17:04:00.000 27.02688892412113
RANGE = 2016-10-11T17:04:00.000 167425039.58067632

ANGLE_1 = 2016-10-11T17:05:00.000 103.17156434935482
ANGLE_2 = 2016-10-11T17:05:00.000 27.224157434438123
RANGE = 2016-10-11T17:05:00.000 167425782.37125516

ANGLE_1 = 2016-10-11T17:06:00.000 103.04952189019615
ANGLE_2 = 2016-10-11T17:06:00.000 27.42100697097649
RANGE = 2016-10-11T17:06:00.000 167426525.23756522

ANGLE_1 = 2016-10-11T17:07:00.000 102.92756942017526
ANGLE_2 = 2016-10-11T17:07:00.000 27.61999665953267
RANGE = 2016-10-11T17:07:00.000 167427268.03753817

ANGLE_1 = 2016-10-11T17:08:00.000 102.80444459741662
ANGLE_2 = 2016-10-11T17:08:00.000 27.81728993477256
RANGE = 2016-10-11T17:08:00.000 167428010.90264532

ANGLE_1 = 2016-10-11T17:09:00.000 102.68143147704077
ANGLE_2 = 2016-10-11T17:09:00.000 28.015409147951257
RANGE = 2016-10-11T17:09:00.000 167428753.83354867

ANGLE_1 = 2016-10-11T17:10:00.000 102.5581533985929
ANGLE_2 = 2016-10-11T17:10:00.000 28.21345511397743
RANGE = 2016-10-11T17:10:00.000 167429496.73804492

ANGLE_1 = 2016-10-11T17:11:00.000 102.43609392708629
ANGLE_2 = 2016-10-11T17:11:00.000 28.41193057996582
RANGE = 2016-10-11T17:11:00.000 167430239.6696877

ANGLE_1 = 2016-10-11T17:12:00.000 102.3135697502674
ANGLE_2 = 2016-10-11T17:12:00.000 28.60998661140122
RANGE = 2016-10-11T17:12:00.000 167430982.64191157

ANGLE_1 = 2016-10-11T17:13:00.000 102.19054639566843
ANGLE_2 = 2016-10-11T17:13:00.000 28.808201342873573
RANGE = 2016-10-11T17:13:00.000 167431725.6546542

ANGLE_1 = 2016-10-11T17:14:00.000 102.06746101815637
ANGLE_2 = 2016-10-11T17:14:00.000 29.006447539949278
RANGE = 2016-10-11T17:14:00.000 167432468.66417158

ANGLE_1 = 2016-10-11T17:15:00.000 101.94537913949843
ANGLE_2 = 2016-10-11T17:15:00.000 29.20457019236547
RANGE = 2016-10-11T17:15:00.000 167433211.70222512

ANGLE_1 = 2016-10-11T17:16:00.000 101.82265705573978
ANGLE_2 = 2016-10-11T17:16:00.000 29.403765103451455
RANGE = 2016-10-11T17:16:00.000 167433954.80834135

ANGLE_1 = 2016-10-11T17:17:00.000 101.6993716755838
ANGLE_2 = 2016-10-11T17:17:00.000 29.602011608227006
RANGE = 2016-10-11T17:17:00.000 167434697.89309865

ANGLE_1 = 2016-10-11T17:18:00.000 101.5772173632131
ANGLE_2 = 2016-10-11T17:18:00.000 29.801414522517586
RANGE = 2016-10-11T17:18:00.000 167435441.0039705

ANGLE_1 = 2016-10-11T17:19:00.000 101.45349146122314
ANGLE_2 = 2016-10-11T17:19:00.000 30.0007188861875
RANGE = 2016-10-11T17:19:00.000 167436184.21178812

ANGLE_1 = 2016-10-11T17:20:00.000 101.33026893248086
ANGLE_2 = 2016-10-11T17:20:00.000 30.199675598282163
RANGE = 2016-10-11T17:20:00.000 167436927.38805816

ANGLE_1 = 2016-10-11T17:21:00.000 101.20676582524699
ANGLE_2 = 2016-10-11T17:21:00.000 30.39824796288128
RANGE = 2016-10-11T17:21:00.000 167437670.60977784

ANGLE_1 = 2016-10-11T17:22:00.000 101.08377816052302
ANGLE_2 = 2016-10-11T17:22:00.000 30.597409528752586
RANGE = 2016-10-11T17:22:00.000 167438413.85960174

ANGLE_1 = 2016-10-11T17:23:00.000 100.9608061614059
ANGLE_2 = 2016-10-11T17:23:00.000 30.796478046857366
RANGE = 2016-10-11T17:23:00.000 167439157.12655616

ANGLE_1 = 2016-10-11T17:24:00.000 100.83712081089718
ANGLE_2 = 2016-10-11T17:24:00.000 30.996388918689615
RANGE = 2016-10-11T17:24:00.000 167439900.43202028

ANGLE_1 = 2016-10-11T17:25:00.000 100.71371903543537
ANGLE_2 = 2016-10-11T17:25:00.000 31.195192110804513
RANGE = 2016-10-11T17:25:00.000 167440643.79026318

ANGLE_1 = 2016-10-11T17:26:00.000 100.59009276062199
ANGLE_2 = 2016-10-11T17:26:00.000 31.394171014933896
RANGE = 2016-10-11T17:26:00.000 167441387.16241804

ANGLE_1 = 2016-10-11T17:27:00.000 100.46665175620765
ANGLE_2 = 2016-10-11T17:27:00.000 31.59361606699183
RANGE = 2016-10-11T17:27:00.000 167442130.54597202

ANGLE_1 = 2016-10-11T17:28:00.000 100.34334493906302
ANGLE_2 = 2016-10-11T17:28:00.000 31.793773681655203
RANGE = 2016-10-11T17:28:00.000 167442873.97574028

ANGLE_1 = 2016-10-11T17:29:00.000 100.21853201560602
ANGLE_2 = 2016-10-11T17:29:00.000 31.993478512638067
RANGE = 2016-10-11T17:29:00.000 167443617.4566876

ANGLE_1 = 2016-10-11T17:30:00.000 100.09511475411009
ANGLE_2 = 2016-10-11T17:30:00.000 32.19333814948778
RANGE = 2016-10-11T17:30:00.000 167444360.9507335

ANGLE_1 = 2016-10-11T17:31:00.000 99.97184479230057
ANGLE_2 = 2016-10-11T17:31:00.000 32.39289311090648
RANGE = 2016-10-11T17:31:00.000 167445104.44288132

ANGLE_1 = 2016-10-11T17:32:00.000 99.84726443501678
ANGLE_2 = 2016-10-11T17:32:00.000 32.59367552770895
RANGE = 2016-10-11T17:32:00.000 167445848.03375572

ANGLE_1 = 2016-10-11T17:33:00.000 99.72310827584022
ANGLE_2 = 2016-10-11T17:33:00.000 32.79275177233356
RANGE = 2016-10-11T17:33:00.000 167446591.64041805

ANGLE_1 = 2016-10-11T17:34:00.000 99.59833171888388
ANGLE_2 = 2016-10-11T17:34:00.000 32.993242417642186
RANGE = 2016-10-11T17:34:00.000 167447335.23531964

ANGLE_1 = 2016-10-11T17:35:00.000 99.47405769286894
ANGLE_2 = 2016-10-11T17:35:00.000 33.19339890175066
RANGE = 2016-10-11T17:35:00.000 167448078.9356653

ANGLE_1 = 2016-10-11T17:36:00.000 99.34949789385496
ANGLE_2 = 2016-10-11T17:36:00.000 33.393240891123405
RANGE = 2016-10-11T17:36:00.000 167448822.61356425

ANGLE_1 = 2016-10-11T17:37:00.000 99.22497702515838
ANGLE_2 = 2016-10-11T17:37:00.000 33.59370907548552
RANGE = 2016-10-11T17:37:00.000 167449566.34104043

ANGLE_1 = 2016-10-11T17:38:00.000 99.10001289805552
ANGLE_2 = 2016-10-11T17:38:00.000 33.794499948907784
RANGE = 2016-10-11T17:38:00.000 167450310.0992337

ANGLE_1 = 2016-10-11T17:39:00.000 98.97485864688232
ANGLE_2 = 2016-10-11T17:39:00.000 33.994603951710076
RANGE = 2016-10-11T17:39:00.000 167451053.9238918

ANGLE_1 = 2016-10-11T17:40:00.000 98.84995727515889
ANGLE_2 = 2016-10-11T17:40:00.000 34.19543488685597
RANGE = 2016-10-11T17:40:00.000 167451797.76528963

ANGLE_1 = 2016-10-11T17:41:00.000 98.72476137618067
ANGLE_2 = 2016-10-11T17:41:00.000 34.39624638005885
RANGE = 2016-10-11T17:41:00.000 167452541.6347336

ANGLE_1 = 2016-10-11T17:42:00.000 98.59950548335839
ANGLE_2 = 2016-10-11T17:42:00.000 34.59677544232716
RANGE = 2016-10-11T17:42:00.000 167453285.52182716

ANGLE_1 = 2016-10-11T17:43:00.000 98.47432221237376
ANGLE_2 = 2016-10-11T17:43:00.000 34.79690692665592
RANGE = 2016-10-11T17:43:00.000 167454029.5163224

ANGLE_1 = 2016-10-11T17:44:00.000 98.34859950749764
ANGLE_2 = 2016-10-11T17:44:00.000 34.998070358417905
RANGE = 2016-10-11T17:44:00.000 167454773.4683708

ANGLE_1 = 2016-10-11T17:45:00.000 98.2231367617313
ANGLE_2 = 2016-10-11T17:45:00.000 35.198999909882
RANGE = 2016-10-11T17:45:00.000 167455517.55582952

ANGLE_1 = 2016-10-11T17:46:00.000 98.09644827765598
ANGLE_2 = 2016-10-11T17:46:00.000 35.39981226825872
RANGE = 2016-10-11T17:46:00.000 167456261.5966948

ANGLE_1 = 2016-10-11T17:47:00.000 97.9711143867545
ANGLE_2 = 2016-10-11T17:47:00.000 35.60071960466942
RANGE = 2016-10-11T17:47:00.000 167457005.66186443

ANGLE_1 = 2016-10-11T17:48:00.000 97.84409738135706
ANGLE_2 = 2016-10-11T17:48:00.000 35.80168605390211
RANGE = 2016-10-11T17:48:00.000 167457749.81195965

ANGLE_1 = 2016-10-11T17:49:00.000 97.7178698218655
ANGLE_2 = 2016-10-11T17:49:00.000 36.00276202682636
RANGE = 2016-10-11T17:49:00.000 167458493.99769548

ANGLE_1 = 2016-10-11T17:50:00.000 97.59109626969263
ANGLE_2 = 2016-10-11T17:50:00.000 36.20434835161272
RANGE = 2016-10-11T17:50:00.000 167459238.2521725

ANGLE_1 = 2016-10-11T17:51:00.000 97.46414057025694
ANGLE_2 = 2016-10-11T17:51:00.000 36.4055559294991
RANGE = 2016-10-11T17:51:00.000 167459982.52853328

ANGLE_1 = 2016-10-11T17:52:00.000 97.337391635835
ANGLE_2 = 2016-10-11T17:52:00.000 36.60675663824032
RANGE = 2016-10-11T17:52:00.000 167460726.77667516

ANGLE_1 = 2016-10-11T17:53:00.000 97.20998469312977
ANGLE_2 = 2016-10-11T17:53:00.000 36.807881693681125
RANGE = 2016-10-11T17:53:00.000 167461471.13138354

ANGLE_1 = 2016-10-11T17:54:00.000 97.08269796157703
ANGLE_2 = 2016-10-11T17:54:00.000 37.00944126879859
RANGE = 2016-10-11T17:54:00.000 167462215.49545428

ANGLE_1 = 2016-10-11T17:55:00.000 96.95544021191553
ANGLE_2 = 2016-10-11T17:55:00.000 37.21092219556321
RANGE = 2016-10-11T17:55:00.000 167462959.91776848

ANGLE_1 = 2016-10-11T17:56:00.000 96.82662275837279
ANGLE_2 = 2016-10-11T17:56:00.000 37.411928111476215
RANGE = 2016-10-11T17:56:00.000 167463704.3783158

ANGLE_1 = 2016-10-11T17:57:00.000 96.69901133413275
ANGLE_2 = 2016-10-11T17:57:00.000 37.613268042918534
RANGE = 2016-10-11T17:57:00.000 167464448.90494555

ANGLE_1 = 2016-10-11T17:58:00.000 96.57098867453846
ANGLE_2 = 2016-10-11T17:58:00.000 37.815649628816814
RANGE = 2016-10-11T17:58:00.000 167465193.39694673

ANGLE_1 = 2016-10-11T17:59:00.000 96.44326933258183
ANGLE_2 = 2016-10-11T17:59:00.000 38.017343878882535
RANGE = 2016-10-11T17:59:00.000 167465938.0021618

ANGLE_1 = 2016-10-11T18:00:00.000 96.3139365761737
ANGLE_2 = 2016-10-11T18:00:00.000 38.21885249259055
RANGE = 2016-10-11T18:00:00.000 167466682.62479892

ANGLE_1 = 2016-10-11T18:01:00.000 96.18501356019634
ANGLE_2 = 2016-10-11T18:01:00.000 38.42050339607848
RANGE = 2016-10-11T18:01:00.000 167467427.30352587

ANGLE_1 = 2016-10-11T18:02:00.000 96.0561645326606
ANGLE_2 = 2016-10-11T18:02:00.000 38.62233518017328
RANGE = 2016-10-11T18:02:00.000 167468172.06603312

ANGLE_1 = 2016-10-11T18:03:00.000 95.92659459389223
ANGLE_2 = 2016-10-11T18:03:00.000 38.823476503008024
RANGE = 2016-10-11T18:03:00.000 167468916.82893687

ANGLE_1 = 2016-10-11T18:04:00.000 95.79684684120281
ANGLE_2 = 2016-10-11T18:04:00.000 39.0255329269937
RANGE = 2016-10-11T18:04:00.000 167469661.61208704

ANGLE_1 = 2016-10-11T18:05:00.000 95.66725568499311
ANGLE_2 = 2016-10-11T18:05:00.000 39.22782834036662
RANGE = 2016-10-11T18:05:00.000 167470406.4563688

ANGLE_1 = 2016-10-11T18:06:00.000 95.53698181651289
ANGLE_2 = 2016-10-11T18:06:00.000 39.430233961290426
RANGE = 2016-10-11T18:06:00.000 167471151.36850876

ANGLE_1 = 2016-10-11T18:07:00.000 95.4069375267415
ANGLE_2 = 2016-10-11T18:07:00.000 39.632601374063704
RANGE = 2016-10-11T18:07:00.000 167471896.27567846

ANGLE_1 = 2016-10-11T18:08:00.000 95.27584948554501
ANGLE_2 = 2016-10-11T18:08:00.000 39.83375060506397
RANGE = 2016-10-11T18:08:00.000 167472641.2672932

ANGLE_1 = 2016-10-11T18:09:00.000 95.1449936338166
ANGLE_2 = 2016-10-11T18:09:00.000 40.03587179415938
RANGE = 2016-10-11T18:09:00.000 167473386.33526954

ANGLE_1 = 2016-10-11T18:10:00.000 95.01393021285391
ANGLE_2 = 2016-10-11T18:10:00.000 40.23839580389473
RANGE = 2016-10-11T18:10:00.000 167474131.40706655

ANGLE_1 = 2016-10-11T18:11:00.000 94.88234676410156
ANGLE_2 = 2016-10-11T18:11:00.000 40.44097921262864
RANGE = 2016-10-11T18:11:00.000 167474876.461793

ANGLE_1 = 2016-10-11T18:12:00.000 94.75070941620513
ANGLE_2 = 2016-10-11T18:12:00.000 40.643269883941485
RANGE = 2016-10-11T18:12:00.000 167475621.69346684

ANGLE_1 = 2016-10-11T18:13:00.000 94.6191096977387
ANGLE_2 = 2016-10-11T18:13:00.000 40.84540632681102
RANGE = 2016-10-11T18:13:00.000 167476366.9180477

ANGLE_1 = 2016-10-11T18:14:00.000 94.48618520996281
ANGLE_2 = 2016-10-11T18:14:00.000 41.047913097843995
RANGE = 2016-10-11T18:14:00.000 167477112.19826013

ANGLE_1 = 2016-10-11T18:15:00.000 94.35333502513136
ANGLE_2 = 2016-10-11T18:15:00.000 41.2495929835007
RANGE = 2016-10-11T18:15:00.000 167477857.4935426

ANGLE_1 = 2016-10-11T18:16:00.000 94.22007655265513
ANGLE_2 = 2016-10-11T18:16:00.000 41.45280002266901
RANGE = 2016-10-11T18:16:00.000 167478602.8313005

ANGLE_1 = 2016-10-11T18:17:00.000 94.08685840097476
ANGLE_2 = 2016-10-11T18:17:00.000 41.65485676763531
RANGE = 2016-10-11T18:17:00.000 167479348.26707932

ANGLE_1 = 2016-10-11T18:18:00.000 93.95294714789806
ANGLE_2 = 2016-10-11T18:18:00.000 41.85725728874428
RANGE = 2016-10-11T18:18:00.000 167480093.71488532

ANGLE_1 = 2016-10-11T18:19:00.000 93.81882236496016
ANGLE_2 = 2016-10-11T18:19:00.000 42.05961672903863
RANGE = 2016-10-11T18:19:00.000 167480839.23277313

ANGLE_1 = 2016-10-11T18:20:00.000 93.68518521195759
ANGLE_2 = 2016-10-11T18:20:00.000 42.262489111262894
RANGE = 2016-10-11T18:20:00.000 167481584.75518873

ANGLE_1 = 2016-10-11T18:21:00.000 93.5503783352044
ANGLE_2 = 2016-10-11T18:21:00.000 42.46470908339962
RANGE = 2016-10-11T18:21:00.000 167482330.3856875

ANGLE_1 = 2016-10-11T18:22:00.000 93.41488978038927
ANGLE_2 = 2016-10-11T18:22:00.000 42.66707630942592
RANGE = 2016-10-11T18:22:00.000 167483076.07856783

ANGLE_1 = 2016-10-11T18:23:00.000 93.27986183935504
ANGLE_2 = 2016-10-11T18:23:00.000 42.8701789187757
RANGE = 2016-10-11T18:23:00.000 167483821.745704

ANGLE_1 = 2016-10-11T18:24:00.000 93.1446921006837
ANGLE_2 = 2016-10-11T18:24:00.000 43.072263439223725
RANGE = 2016-10-11T18:24:00.000 167484567.4847187

ANGLE_1 = 2016-10-11T18:25:00.000 93.00740952541507
ANGLE_2 = 2016-10-11T18:25:00.000 43.27573619292645
RANGE = 2016-10-11T18:25:00.000 167485313.33474597

ANGLE_1 = 2016-10-11T18:26:00.000 92.87175836300834
ANGLE_2 = 2016-10-11T18:26:00.000 43.478018755055906
RANGE = 2016-10-11T18:26:00.000 167486059.1842184

ANGLE_1 = 2016-10-11T18:27:00.000 92.7347883718183
ANGLE_2 = 2016-10-11T18:27:00.000 43.68079752077082
RANGE = 2016-10-11T18:27:00.000 167486805.11218792

ANGLE_1 = 2016-10-11T18:28:00.000 92.59734749572276
ANGLE_2 = 2016-10-11T18:28:00.000 43.88333497808097
RANGE = 2016-10-11T18:28:00.000 167487551.04410034

ANGLE_1 = 2016-10-11T18:29:00.000 92.45968376025857
ANGLE_2 = 2016-10-11T18:29:00.000 44.08652038872684
RANGE = 2016-10-11T18:29:00.000 167488297.08609164

ANGLE_1 = 2016-10-11T18:30:00.000 92.32131433113129
ANGLE_2 = 2016-10-11T18:30:00.000 44.289063140639236
RANGE = 2016-10-11T18:30:00.000 167489043.12796077

ANGLE_1 = 2016-10-11T18:31:00.000 92.18324750164412
ANGLE_2 = 2016-10-11T18:31:00.000 44.491871652848516
RANGE = 2016-10-11T18:31:00.000 167489789.23070702

ANGLE_1 = 2016-10-11T18:32:00.000 92.04401440234201
ANGLE_2 = 2016-10-11T18:32:00.000 44.69490757487728
RANGE = 2016-10-11T18:32:00.000 167490535.46313137

ANGLE_1 = 2016-10-11T18:33:00.000 91.90552209501269
ANGLE_2 = 2016-10-11T18:33:00.000 44.89813065043971
RANGE = 2016-10-11T18:33:00.000 167491281.65896472

ANGLE_1 = 2016-10-11T18:34:00.000 91.76405409045711
ANGLE_2 = 2016-10-11T18:34:00.000 45.10024258341794
RANGE = 2016-10-11T18:34:00.000 167492027.96139157

ANGLE_1 = 2016-10-11T18:35:00.000 91.62459002887219
ANGLE_2 = 2016-10-11T18:35:00.000 45.303212756702486
RANGE = 2016-10-11T18:35:00.000 167492774.26163074

ANGLE_1 = 2016-10-11T18:36:00.000 91.4838792219522
ANGLE_2 = 2016-10-11T18:36:00.000 45.5066280558167
RANGE = 2016-10-11T18:36:00.000 167493520.6619775

ANGLE_1 = 2016-10-11T18:37:00.000 91.34239854680979
ANGLE_2 = 2016-10-11T18:37:00.000 45.709390837398296
RANGE = 2016-10-11T18:37:00.000 167494267.12877795

ANGLE_1 = 2016-10-11T18:38:00.000 91.2002327102844
ANGLE_2 = 2016-10-11T18:38:00.000 45.91211674659449
RANGE = 2016-10-11T18:38:00.000 167495013.60554045

ANGLE_1 = 2016-10-11T18:39:00.000 91.05816490691286
ANGLE_2 = 2016-10-11T18:39:00.000 46.114150963489976
RANGE = 2016-10-11T18:39:00.000 167495760.173731

ANGLE_1 = 2016-10-11T18:40:00.000 90.91594638411199
ANGLE_2 = 2016-10-11T18:40:00.000 46.31802301006055
RANGE = 2016-10-11T18:40:00.000 167496506.7720677

ANGLE_1 = 2016-10-11T18:41:00.000 90.77250858237204
ANGLE_2 = 2016-10-11T18:41:00.000 46.5204117061937
RANGE = 2016-10-11T18:41:00.000 167497253.44708726

ANGLE_1 = 2016-10-11T18:42:00.000 90.628789748524
ANGLE_2 = 2016-10-11T18:42:00.000 46.72362063586423
RANGE = 2016-10-11T18:42:00.000 167498000.17772475

ANGLE_1 = 2016-10-11T18:43:00.000 90.48464883038585
ANGLE_2 = 2016-10-11T18:43:00.000 46.92716249094734
RANGE = 2016-10-11T18:43:00.000 167498746.9442154

ANGLE_1 = 2016-10-11T18:44:00.000 90.33953402640813
ANGLE_2 = 2016-10-11T18:44:00.000 47.12986806900576
RANGE = 2016-10-11T18:44:00.000 167499493.79951465

ANGLE_1 = 2016-10-11T18:45:00.000 90.19448916922816
ANGLE_2 = 2016-10-11T18:45:00.000 47.33289118032487
RANGE = 2016-10-11T18:45:00.000 167500240.67535943

ANGLE_1 = 2016-10-11T18:46:00.000 90.04843602180162
ANGLE_2 = 2016-10-11T18:46:00.000 47.536226649859195
RANGE = 2016-10-11T18:46:00.000 167500987.63282105

ANGLE_1 = 2016-10-11T18:47:00.000 89.9021585381629
ANGLE_2 = 2016-10-11T18:47:00.000 47.73842423951881
RANGE = 2016-10-11T18:47:00.000 167501734.62582362

ANGLE_1 = 2016-10-11T18:48:00.000 89.75487830263172
ANGLE_2 = 2016-10-11T18:48:00.000 47.94123419326466
RANGE = 2016-10-11T18:48:00.000 167502481.72205877

ANGLE_1 = 2016-10-11T18:49:00.000 89.60721023301728
ANGLE_2 = 2016-10-11T18:49:00.000 48.14434079507571
RANGE = 2016-10-11T18:49:00.000 167503228.85275415

ANGLE_1 = 2016-10-11T18:50:00.000 89.45874402285776
ANGLE_2 = 2016-10-11T18:50:00.000 48.347155564565256
RANGE = 2016-10-11T18:50:00.000 167503976.0354821

ANGLE_1 = 2016-10-11T18:51:00.000 89.3101006830417
ANGLE_2 = 2016-10-11T18:51:00.000 48.55033301983489
RANGE = 2016-10-11T18:51:00.000 167504723.25919965

ANGLE_1 = 2016-10-11T18:52:00.000 89.16093847774256
ANGLE_2 = 2016-10-11T18:52:00.000 48.75390266478607
RANGE = 2016-10-11T18:52:00.000 167505470.55592227

ANGLE_1 = 2016-10-11T18:53:00.000 89.01033358945001
ANGLE_2 = 2016-10-11T18:53:00.000 48.9563185399732
RANGE = 2016-10-11T18:53:00.000 167506217.94249457

ANGLE_1 = 2016-10-11T18:54:00.000 88.86017960123709
ANGLE_2 = 2016-10-11T18:54:00.000 49.159763120019186
RANGE = 2016-10-11T18:54:00.000 167506965.29414526

ANGLE_1 = 2016-10-11T18:55:00.000 88.70817225702329
ANGLE_2 = 2016-10-11T18:55:00.000 49.362290826242265
RANGE = 2016-10-11T18:55:00.000 167507712.8223126

ANGLE_1 = 2016-10-11T18:56:00.000 88.5565051654259
ANGLE_2 = 2016-10-11T18:56:00.000 49.56560740416427
RANGE = 2016-10-11T18:56:00.000 167508460.33376557

ANGLE_1 = 2016-10-11T18:57:00.000 88.40340638467232
ANGLE_2 = 2016-10-11T18:57:00.000 49.76803198507653
RANGE = 2016-10-11T18:57:00.000 167509207.9686987

ANGLE_1 = 2016-10-11T18:58:00.000 88.24975894872635
ANGLE_2 = 2016-10-11T18:58:00.000 49.97081859159155
RANGE = 2016-10-11T18:58:00.000 167509955.6309984

ANGLE_1 = 2016-10-11T18:59:00.000 88.09671167338182
ANGLE_2 = 2016-10-11T18:59:00.000 50.17336439763153
RANGE = 2016-10-11T18:59:00.000 167510703.33108312

ANGLE_1 = 2016-10-11T19:00:00.000 87.94156375421903
ANGLE_2 = 2016-10-11T19:00:00.000 50.37734999317443
RANGE = 2016-10-11T19:00:00.000 167511451.13897303

ANGLE_1 = 2016-10-11T19:01:00.000 87.78582219661345
ANGLE_2 = 2016-10-11T19:01:00.000 50.57976965525519
RANGE = 2016-10-11T19:01:00.000 167512198.96319342

ANGLE_1 = 2016-10-11T19:02:00.000 87.62959580393714
ANGLE_2 = 2016-10-11T19:02:00.000 50.782779035351126
RANGE = 2016-10-11T19:02:00.000 167512946.8615276

ANGLE_1 = 2016-10-11T19:03:00.000 87.47280556320273
ANGLE_2 = 2016-10-11T19:03:00.000 50.98520440947539
RANGE = 2016-10-11T19:03:00.000 167513694.8334286

ANGLE_1 = 2016-10-11T19:04:00.000 87.31544664178381
ANGLE_2 = 2016-10-11T19:04:00.000 51.188239783008015
RANGE = 2016-10-11T19:04:00.000 167514442.8475312

ANGLE_1 = 2016-10-11T19:05:00.000 87.15607009357619
ANGLE_2 = 2016-10-11T19:05:00.000 51.39042439168758
RANGE = 2016-10-11T19:05:00.000 167515190.97706372

ANGLE_1 = 2016-10-11T19:06:00.000 86.99652015613783
ANGLE_2 = 2016-10-11T19:06:00.000 51.59341701556492
RANGE = 2016-10-11T19:06:00.000 167515939.1269639

ANGLE_1 = 2016-10-11T19:07:00.000 86.83670431084143
ANGLE_2 = 2016-10-11T19:07:00.000 51.79612584767193
RANGE = 2016-10-11T19:07:00.000 167516687.3714471

ANGLE_1 = 2016-10-11T19:08:00.000 86.67563150844812
ANGLE_2 = 2016-10-11T19:08:00.000 51.998723304186825
RANGE = 2016-10-11T19:08:00.000 167517435.65334916

ANGLE_1 = 2016-10-11T19:09:00.000 86.5137711916469
ANGLE_2 = 2016-10-11T19:09:00.000 52.20166427160707
RANGE = 2016-10-11T19:09:00.000 167518183.98298785

ANGLE_1 = 2016-10-11T19:10:00.000 86.35116683949477
ANGLE_2 = 2016-10-11T19:10:00.000 52.4033067065267
RANGE = 2016-10-11T19:10:00.000 167518932.4210494

ANGLE_1 = 2016-10-11T19:11:00.000 86.1874620143233
ANGLE_2 = 2016-10-11T19:11:00.000 52.60710821145214
RANGE = 2016-10-11T19:11:00.000 167519680.88927993

ANGLE_1 = 2016-10-11T19:12:00.000 86.02245327975842
ANGLE_2 = 2016-10-11T19:12:00.000 52.80870989032767
RANGE = 2016-10-11T19:12:00.000 167520429.42709488

ANGLE_1 = 2016-10-11T19:13:00.000 85.85761250419742
ANGLE_2 = 2016-10-11T19:13:00.000 53.011704075039155
RANGE = 2016-10-11T19:13:00.000 167521178.0267035

ANGLE_1 = 2016-10-11T19:14:00.000 85.69110163247306
ANGLE_2 = 2016-10-11T19:14:00.000 53.214226038752074
RANGE = 2016-10-11T19:14:00.000 167521926.71562883

ANGLE_1 = 2016-10-11T19:15:00.000 85.52473465786116
ANGLE_2 = 2016-10-11T19:15:00.000 53.41643435194021
RANGE = 2016-10-11T19:15:00.000 167522675.4147273

ANGLE_1 = 2016-10-11T19:16:00.000 85.35577649550224
ANGLE_2 = 2016-10-11T19:16:00.000 53.61867868755389
RANGE = 2016-10-11T19:16:00.000 167523424.22928226

ANGLE_1 = 2016-10-11T19:17:00.000 85.18601076854428
ANGLE_2 = 2016-10-11T19:17:00.000 53.82064234375576
RANGE = 2016-10-11T19:17:00.000 167524173.1136183

ANGLE_1 = 2016-10-11T19:18:00.000 85.01667973114255
ANGLE_2 = 2016-10-11T19:18:00.000 54.02324583891778
RANGE = 2016-10-11T19:18:00.000 167524922.04135278

ANGLE_1 = 2016-10-11T19:19:00.000 84.84457032350707
ANGLE_2 = 2016-10-11T19:19:00.000 54.22488998564621
RANGE = 2016-10-11T19:19:00.000 167525671.01607117

ANGLE_1 = 2016-10-11T19:20:00.000 84.67307499764588
ANGLE_2 = 2016-10-11T19:20:00.000 54.4274182376703
RANGE = 2016-10-11T19:20:00.000 167526420.0861667

ANGLE_1 = 2016-10-11T19:21:00.000 84.50048537479469
ANGLE_2 = 2016-10-11T19:21:00.000 54.62974499640728
RANGE = 2016-10-11T19:21:00.000 167527169.21135598

ANGLE_1 = 2016-10-11T19:22:00.000 84.32514826138932
ANGLE_2 = 2016-10-11T19:22:00.000 54.83154904921483
RANGE = 2016-10-11T19:22:00.000 167527918.4458921

ANGLE_1 = 2016-10-11T19:23:00.000 84.14986734174968
ANGLE_2 = 2016-10-11T19:23:00.000 55.03362909838078
RANGE = 2016-10-11T19:23:00.000 167528667.7239541

ANGLE_1 = 2016-10-11T19:24:00.000 83.9734117248641
ANGLE_2 = 2016-10-11T19:24:00.000 55.235354679115574
RANGE = 2016-10-11T19:24:00.000 167529417.05508703

ANGLE_1 = 2016-10-11T19:25:00.000 83.7960391363031
ANGLE_2 = 2016-10-11T19:25:00.000 55.437066186137976
RANGE = 2016-10-11T19:25:00.000 167530166.44560823

ANGLE_1 = 2016-10-11T19:26:00.000 83.61698788118834
ANGLE_2 = 2016-10-11T19:26:00.000 55.638421707157086
RANGE = 2016-10-11T19:26:00.000 167530915.93250796

ANGLE_1 = 2016-10-11T19:27:00.000 83.43674151459913
ANGLE_2 = 2016-10-11T19:27:00.000 55.84053731399993
RANGE = 2016-10-11T19:27:00.000 167531665.50380108

ANGLE_1 = 2016-10-11T19:28:00.000 83.25539596692319
ANGLE_2 = 2016-10-11T19:28:00.000 56.04220180799771
RANGE = 2016-10-11T19:28:00.000 167532415.08624563

ANGLE_1 = 2016-10-11T19:29:00.000 83.0739930531644
ANGLE_2 = 2016-10-11T19:29:00.000 56.24364751830289
RANGE = 2016-10-11T19:29:00.000 167533164.75002214

ANGLE_1 = 2016-10-11T19:30:00.000 82.88989575301244
ANGLE_2 = 2016-10-11T19:30:00.000 56.445230623989765
RANGE = 2016-10-11T19:30:00.000 167533914.48051816

ANGLE_1 = 2016-10-11T19:31:00.000 82.70467436298497
ANGLE_2 = 2016-10-11T19:31:00.000 56.645865756329876
RANGE = 2016-10-11T19:31:00.000 167534664.3128722

ANGLE_1 = 2016-10-11T19:32:00.000 82.51839380319123
ANGLE_2 = 2016-10-11T19:32:00.000 56.84765244858837
RANGE = 2016-10-11T19:32:00.000 167535414.18807262

ANGLE_1 = 2016-10-11T19:33:00.000 82.33058227027415
ANGLE_2 = 2016-10-11T19:33:00.000 57.04867797403952
RANGE = 2016-10-11T19:33:00.000 167536164.16513336

ANGLE_1 = 2016-10-11T19:34:00.000 82.14226004099564
ANGLE_2 = 2016-10-11T19:34:00.000 57.250142608239194
RANGE = 2016-10-11T19:34:00.000 167536914.18705508

ANGLE_1 = 2016-10-11T19:35:00.000 81.95185187174947
ANGLE_2 = 2016-10-11T19:35:00.000 57.451246752326895
RANGE = 2016-10-11T19:35:00.000 167537664.2961205

ANGLE_1 = 2016-10-11T19:36:00.000 81.76011021958655
ANGLE_2 = 2016-10-11T19:36:00.000 57.6518812100853
RANGE = 2016-10-11T19:36:00.000 167538414.43496984

ANGLE_1 = 2016-10-11T19:37:00.000 81.56751637948685
ANGLE_2 = 2016-10-11T19:37:00.000 57.85326032981665
RANGE = 2016-10-11T19:37:00.000 167539164.69639176

ANGLE_1 = 2016-10-11T19:38:00.000 81.37254132619817
ANGLE_2 = 2016-10-11T19:38:00.000 58.05354466224309
RANGE = 2016-10-11T19:38:00.000 167539914.99985284

ANGLE_1 = 2016-10-11T19:39:00.000 81.17660144530464
ANGLE_2 = 2016-10-11T19:39:00.000 58.25425572742191
RANGE = 2016-10-11T19:39:00.000 167540665.35883936

ANGLE_1 = 2016-10-11T19:40:00.000 80.97868886449854
ANGLE_2 = 2016-10-11T19:40:00.000 58.45495219566431
RANGE = 2016-10-11T19:40:00.000 167541415.81619236

ANGLE_1 = 2016-10-11T19:41:00.000 80.7794539885387
ANGLE_2 = 2016-10-11T19:41:00.000 58.65465064285469
RANGE = 2016-10-11T19:41:00.000 167542166.34117

ANGLE_1 = 2016-10-11T19:42:00.000 80.57956423388869
ANGLE_2 = 2016-10-11T19:42:00.000 58.85550781075887
RANGE = 2016-10-11T19:42:00.000 167542916.9340098

ANGLE_1 = 2016-10-11T19:43:00.000 80.3779609957079
ANGLE_2 = 2016-10-11T19:43:00.000 59.055807103943344
RANGE = 2016-10-11T19:43:00.000 167543667.61847383

ANGLE_1 = 2016-10-11T19:44:00.000 80.17362672235033
ANGLE_2 = 2016-10-11T19:44:00.000 59.2557436051816
RANGE = 2016-10-11T19:44:00.000 167544418.34098634

ANGLE_1 = 2016-10-11T19:45:00.000 79.96760714825517
ANGLE_2 = 2016-10-11T19:45:00.000 59.455810443030614
RANGE = 2016-10-11T19:45:00.000 167545169.16311067

ANGLE_1 = 2016-10-11T19:46:00.000 79.76125725338012
ANGLE_2 = 2016-10-11T19:46:00.000 59.65500569605093
RANGE = 2016-10-11T19:46:00.000 167545920.068658

ANGLE_1 = 2016-10-11T19:47:00.000 79.55215797807995
ANGLE_2 = 2016-10-11T19:47:00.000 59.85479126326094
RANGE = 2016-10-11T19:47:00.000 167546671.0197162

ANGLE_1 = 2016-10-11T19:48:00.000 79.34147985338322
ANGLE_2 = 2016-10-11T19:48:00.000 60.05420115555383
RANGE = 2016-10-11T19:48:00.000 167547422.03905758

ANGLE_1 = 2016-10-11T19:49:00.000 79.12871770951061
ANGLE_2 = 2016-10-11T19:49:00.000 60.25381026188845
RANGE = 2016-10-11T19:49:00.000 167548173.14597055

ANGLE_1 = 2016-10-11T19:50:00.000 78.91418432292821
ANGLE_2 = 2016-10-11T19:50:00.000 60.45334864385043
RANGE = 2016-10-11T19:50:00.000 167548924.28350618

ANGLE_1 = 2016-10-11T19:51:00.000 78.69812887640381
ANGLE_2 = 2016-10-11T19:51:00.000 60.65234536574982
RANGE = 2016-10-11T19:51:00.000 167549675.58074057

ANGLE_1 = 2016-10-11T19:52:00.000 78.48046901434792
ANGLE_2 = 2016-10-11T19:52:00.000 60.851353202663525
RANGE = 2016-10-11T19:52:00.000 167550426.92586273

ANGLE_1 = 2016-10-11T19:53:00.000 78.26063389512879
ANGLE_2 = 2016-10-11T19:53:00.000 61.050630484281676
RANGE = 2016-10-11T19:53:00.000 167551178.27880773

ANGLE_1 = 2016-10-11T19:54:00.000 78.03854500553436
ANGLE_2 = 2016-10-11T19:54:00.000 61.24877314118571
RANGE = 2016-10-11T19:54:00.000 167551929.76544765

ANGLE_1 = 2016-10-11T19:55:00.000 77.8142139183607
ANGLE_2 = 2016-10-11T19:55:00.000 61.44718083947534
RANGE = 2016-10-11T19:55:00.000 167552681.30526584

ANGLE_1 = 2016-10-11T19:56:00.000 77.58768218201236
ANGLE_2 = 2016-10-11T19:56:00.000 61.645899622763736
RANGE = 2016-10-11T19:56:00.000 167553432.93188867

ANGLE_1 = 2016-10-11T19:57:00.000 77.36001025272044
ANGLE_2 = 2016-10-11T19:57:00.000 61.84372450408359
RANGE = 2016-10-11T19:57:00.000 167554184.63614845

ANGLE_1 = 2016-10-11T19:58:00.000 77.12889592423335
ANGLE_2 = 2016-10-11T19:58:00.000 62.04142066068341
RANGE = 2016-10-11T19:58:00.000 167554936.39932734

ANGLE_1 = 2016-10-11T19:59:00.000 76.8968195789053
ANGLE_2 = 2016-10-11T19:59:00.000 62.239330998669324
RANGE = 2016-10-11T19:59:00.000 167555688.23415667

ANGLE_1 = 2016-10-11T20:00:00.000 76.66065764316812
ANGLE_2 = 2016-10-11T20:00:00.000 62.43626910390416
RANGE = 2016-10-11T20:00:00.000 167556440.1617284

ANGLE_1 = 2016-10-11T20:01:00.000 76.42405173727815
ANGLE_2 = 2016-10-11T20:01:00.000 62.63460296573777
RANGE = 2016-10-11T20:01:00.000 167557192.18154627

ANGLE_1 = 2016-10-11T20:02:00.000 76.18461008031731
ANGLE_2 = 2016-10-11T20:02:00.000 62.83122338568082
RANGE = 2016-10-11T20:02:00.000 167557944.25056255

ANGLE_1 = 2016-10-11T20:03:00.000 75.94279516990711
ANGLE_2 = 2016-10-11T20:03:00.000 63.02896902488645
RANGE = 2016-10-11T20:03:00.000 167558696.3755965

ANGLE_1 = 2016-10-11T20:04:00.000 75.69774621528526
ANGLE_2 = 2016-10-11T20:04:00.000 63.22542633036745
RANGE = 2016-10-11T20:04:00.000 167559448.62352264

ANGLE_1 = 2016-10-11T20:05:00.000 75.45051807684267
ANGLE_2 = 2016-10-11T20:05:00.000 63.4217385820492
RANGE = 2016-10-11T20:05:00.000 167560200.90815017

ANGLE_1 = 2016-10-11T20:06:00.000 75.2011791352744
ANGLE_2 = 2016-10-11T20:06:00.000 63.61827175160319
RANGE = 2016-10-11T20:06:00.000 167560953.33004782

ANGLE_1 = 2016-10-11T20:07:00.000 74.94911898542091
ANGLE_2 = 2016-10-11T20:07:00.000 63.8141680817129
RANGE = 2016-10-11T20:07:00.000 167561705.774207

ANGLE_1 = 2016-10-11T20:08:00.000 74.69446280579395
ANGLE_2 = 2016-10-11T20:08:00.000 64.01012040749947
RANGE = 2016-10-11T20:08:00.000 167562458.31169584

ANGLE_1 = 2016-10-11T20:09:00.000 74.43543908705459
ANGLE_2 = 2016-10-11T20:09:00.000 64.20595736974536
RANGE = 2016-10-11T20:09:00.000 167563210.96124777

ANGLE_1 = 2016-10-11T20:10:00.000 74.1747322933009
ANGLE_2 = 2016-10-11T20:10:00.000 64.40127537734419
RANGE = 2016-10-11T20:10:00.000 167563963.62110418

ANGLE_1 = 2016-10-11T20:11:00.000 73.91183596522531
ANGLE_2 = 2016-10-11T20:11:00.000 64.59626123087904
RANGE = 2016-10-11T20:11:00.000 167564716.39433837

ANGLE_1 = 2016-10-11T20:12:00.000 73.64590010854421
ANGLE_2 = 2016-10-11T20:12:00.000 64.79142067933734
RANGE = 2016-10-11T20:12:00.000 167565469.2042727

ANGLE_1 = 2016-10-11T20:13:00.000 73.37648523138743
ANGLE_2 = 2016-10-11T20:13:00.000 64.98580803458336
RANGE = 2016-10-11T20:13:00.000 167566222.1450852

ANGLE_1 = 2016-10-11T20:14:00.000 73.1045099683685
ANGLE_2 = 2016-10-11T20:14:00.000 65.18014469948942
RANGE = 2016-10-11T20:14:00.000 167566975.13451928

ANGLE_1 = 2016-10-11T20:15:00.000 72.82817258837888
ANGLE_2 = 2016-10-11T20:15:00.000 65.37407379673976
RANGE = 2016-10-11T20:15:00.000 167567728.24055842

ANGLE_1 = 2016-10-11T20:16:00.000 72.54849662046239
ANGLE_2 = 2016-10-11T20:16:00.000 65.56792060430297
RANGE = 2016-10-11T20:16:00.000 167568481.4198978

ANGLE_1 = 2016-10-11T20:17:00.000 72.26674992207774
ANGLE_2 = 2016-10-11T20:17:00.000 65.76161829149784
RANGE = 2016-10-11T20:17:00.000 167569234.61567125

ANGLE_1 = 2016-10-11T20:18:00.000 71.98171593047488
ANGLE_2 = 2016-10-11T20:18:00.000 65.9549796681762
RANGE = 2016-10-11T20:18:00.000 167569987.9628096

ANGLE_1 = 2016-10-11T20:19:00.000 71.69310256529742
ANGLE_2 = 2016-10-11T20:19:00.000 66.14759957856626
RANGE = 2016-10-11T20:19:00.000 167570741.31618926

ANGLE_1 = 2016-10-11T20:20:00.000 71.40104874224254
ANGLE_2 = 2016-10-11T20:20:00.000 66.34030667655146
RANGE = 2016-10-11T20:20:00.000 167571494.80510318

ANGLE_1 = 2016-10-11T20:21:00.000 71.10475597156719
ANGLE_2 = 2016-10-11T20:21:00.000 66.53247744423444
RANGE = 2016-10-11T20:21:00.000 167572248.3576418

ANGLE_1 = 2016-10-11T20:22:00.000 70.80455589928629
ANGLE_2 = 2016-10-11T20:22:00.000 66.72399075547568
RANGE = 2016-10-11T20:22:00.000 167573001.96786648

ANGLE_1 = 2016-10-11T20:23:00.000 70.50217115536623
ANGLE_2 = 2016-10-11T20:23:00.000 66.9153497421356
RANGE = 2016-10-11T20:23:00.000 167573755.70213225

ANGLE_1 = 2016-10-11T20:24:00.000 70.19389305609448
ANGLE_2 = 2016-10-11T20:24:00.000 67.10667867297211
RANGE = 2016-10-11T20:24:00.000 167574509.52342692

ANGLE_1 = 2016-10-11T20:25:00.000 69.88297923006516
ANGLE_2 = 2016-10-11T20:25:00.000 67.29762399990894
RANGE = 2016-10-11T20:25:00.000 167575263.39294273

ANGLE_1 = 2016-10-11T20:26:00.000 69.56781952852677
ANGLE_2 = 2016-10-11T20:26:00.000 67.48834749194354
RANGE = 2016-10-11T20:26:00.000 167576017.3159873

ANGLE_1 = 2016-10-11T20:27:00.000 69.24805254715926
ANGLE_2 = 2016-10-11T20:27:00.000 67.67767742677103
RANGE = 2016-10-11T20:27:00.000 167576771.37487766

ANGLE_1 = 2016-10-11T20:28:00.000 68.92400017389144
ANGLE_2 = 2016-10-11T20:28:00.000 67.8674593899551
RANGE = 2016-10-11T20:28:00.000 167577525.4937338

ANGLE_1 = 2016-10-11T20:29:00.000 68.59546253845237
ANGLE_2 = 2016-10-11T20:29:00.000 68.05667481974248
RANGE = 2016-10-11T20:29:00.000 167578279.67164028

ANGLE_1 = 2016-10-11T20:30:00.000 68.26379035531748
ANGLE_2 = 2016-10-11T20:30:00.000 68.24546205375466
RANGE = 2016-10-11T20:30:00.000 167579033.9303301

ANGLE_1 = 2016-10-11T20:31:00.000 67.92632778957673
ANGLE_2 = 2016-10-11T20:31:00.000 68.43373586231567
RANGE = 2016-10-11T20:31:00.000 167579788.3086988

ANGLE_1 = 2016-10-11T20:32:00.000 67.58404164183848
ANGLE_2 = 2016-10-11T20:32:00.000 68.62110180689253
RANGE = 2016-10-11T20:32:00.000 167580542.76906458

ANGLE_1 = 2016-10-11T20:33:00.000 67.23815906714887
ANGLE_2 = 2016-10-11T20:33:00.000 68.80914930754982
RANGE = 2016-10-11T20:33:00.000 167581297.27404827

ANGLE_1 = 2016-10-11T20:34:00.000 66.88658504741619
ANGLE_2 = 2016-10-11T20:34:00.000 68.99580990794436
RANGE = 2016-10-11T20:34:00.000 167582051.85474935

ANGLE_1 = 2016-10-11T20:35:00.000 66.53013990713045
ANGLE_2 = 2016-10-11T20:35:00.000 69.18219010196485
RANGE = 2016-10-11T20:35:00.000 167582806.5416304

ANGLE_1 = 2016-10-11T20:36:00.000 66.1683035296449
ANGLE_2 = 2016-10-11T20:36:00.000 69.36799134378582
RANGE = 2016-10-11T20:36:00.000 167583561.3310529

ANGLE_1 = 2016-10-11T20:37:00.000 65.80098514565002
ANGLE_2 = 2016-10-11T20:37:00.000 69.55316618270668
RANGE = 2016-10-11T20:37:00.000 167584316.13968018

ANGLE_1 = 2016-10-11T20:38:00.000 65.42889764077098
ANGLE_2 = 2016-10-11T20:38:00.000 69.73838937487979
RANGE = 2016-10-11T20:38:00.000 167585071.0657308

ANGLE_1 = 2016-10-11T20:39:00.000 65.05071348417374
ANGLE_2 = 2016-10-11T20:39:00.000 69.92279277230674
RANGE = 2016-10-11T20:39:00.000 167585826.09602723

ANGLE_1 = 2016-10-11T20:40:00.000 64.6672334109924
ANGLE_2 = 2016-10-11T20:40:00.000 70.10591990543615
RANGE = 2016-10-11T20:40:00.000 167586581.2135794

ANGLE_1 = 2016-10-11T20:41:00.000 64.27806345345064
ANGLE_2 = 2016-10-11T20:41:00.000 70.28984585402692
RANGE = 2016-10-11T20:41:00.000 167587336.3520356

ANGLE_1 = 2016-10-11T20:42:00.000 63.882373999925996
ANGLE_2 = 2016-10-11T20:42:00.000 70.47193882865716
RANGE = 2016-10-11T20:42:00.000 167588091.61252883

ANGLE_1 = 2016-10-11T20:43:00.000 63.481114371450154
ANGLE_2 = 2016-10-11T20:43:00.000 70.65443504413395
RANGE = 2016-10-11T20:43:00.000 167588846.97709566

ANGLE_1 = 2016-10-11T20:44:00.000 63.073020250130384
ANGLE_2 = 2016-10-11T20:44:00.000 70.83499996336262
RANGE = 2016-10-11T20:44:00.000 167589602.38351268

ANGLE_1 = 2016-10-11T20:45:00.000 62.659147548109495
ANGLE_2 = 2016-10-11T20:45:00.000 71.01605570330132
RANGE = 2016-10-11T20:45:00.000 167590357.89842147

ANGLE_1 = 2016-10-11T20:46:00.000 62.23797094131644
ANGLE_2 = 2016-10-11T20:46:00.000 71.19590755109216
RANGE = 2016-10-11T20:46:00.000 167591113.47586015

ANGLE_1 = 2016-10-11T20:47:00.000 61.81119093714354
ANGLE_2 = 2016-10-11T20:47:00.000 71.37523561683767
RANGE = 2016-10-11T20:47:00.000 167591869.14356866

ANGLE_1 = 2016-10-11T20:48:00.000 61.37569962620801
ANGLE_2 = 2016-10-11T20:48:00.000 71.55344669285714
RANGE = 2016-10-11T20:48:00.000 167592624.90649307

ANGLE_1 = 2016-10-11T20:49:00.000 60.93445489499473
ANGLE_2 = 2016-10-11T20:49:00.000 71.73168747518488
RANGE = 2016-10-11T20:49:00.000 167593380.7209485

ANGLE_1 = 2016-10-11T20:50:00.000 60.48568143829454
ANGLE_2 = 2016-10-11T20:50:00.000 71.90857239361829
RANGE = 2016-10-11T20:50:00.000 167594136.69314575

ANGLE_1 = 2016-10-11T20:51:00.000 60.029278223247594
ANGLE_2 = 2016-10-11T20:51:00.000 72.08445909521578
RANGE = 2016-10-11T20:51:00.000 167594892.62859344

ANGLE_1 = 2016-10-11T20:52:00.000 59.56522983821616
ANGLE_2 = 2016-10-11T20:52:00.000 72.25977203971314
RANGE = 2016-10-11T20:52:00.000 167595648.77338517

ANGLE_1 = 2016-10-11T20:53:00.000 59.093038820037684
ANGLE_2 = 2016-10-11T20:53:00.000 72.43499550179912
RANGE = 2016-10-11T20:53:00.000 167596404.9416423

ANGLE_1 = 2016-10-11T20:54:00.000 58.61321905439448
ANGLE_2 = 2016-10-11T20:54:00.000 72.60842927869602
RANGE = 2016-10-11T20:54:00.000 167597161.18281874

ANGLE_1 = 2016-10-11T20:55:00.000 58.12490626620267
ANGLE_2 = 2016-10-11T20:55:00.000 72.78155358792515
RANGE = 2016-10-11T20:55:00.000 167597917.5018679

ANGLE_1 = 2016-10-11T20:56:00.000 57.6286070036127
ANGLE_2 = 2016-10-11T20:56:00.000 72.95329619348888
RANGE = 2016-10-11T20:56:00.000 167598673.92783055

ANGLE_1 = 2016-10-11T20:57:00.000 57.123675217034155
ANGLE_2 = 2016-10-11T20:57:00.000 73.12439847931734
RANGE = 2016-10-11T20:57:00.000 167599430.4465261

ANGLE_1 = 2016-10-11T20:58:00.000 56.60972674340464
ANGLE_2 = 2016-10-11T20:58:00.000 73.29414031330889
RANGE = 2016-10-11T20:58:00.000 167600187.06368306

ANGLE_1 = 2016-10-11T20:59:00.000 56.08583756750839
ANGLE_2 = 2016-10-11T20:59:00.000 73.46302215173299
RANGE = 2016-10-11T20:59:00.000 167600943.70591283

ANGLE_1 = 2016-10-11T21:00:00.000 55.55417665121278
ANGLE_2 = 2016-10-11T21:00:00.000 73.63097381700788
RANGE = 2016-10-11T21:00:00.000 167601700.4778839

ANGLE_1 = 2016-10-11T21:01:00.000 55.01113568268498
ANGLE_2 = 2016-10-11T21:01:00.000 73.79739788698755
RANGE = 2016-10-11T21:01:00.000 167602457.33893332

ANGLE_1 = 2016-10-11T21:02:00.000 54.45895976272556
ANGLE_2 = 2016-10-11T21:02:00.000 73.96352004304975
RANGE = 2016-10-11T21:02:00.000 167603214.28358376

ANGLE_1 = 2016-10-11T21:03:00.000 53.8965634126465
ANGLE_2 = 2016-10-11T21:03:00.000 74.12762564752298
RANGE = 2016-10-11T21:03:00.000 167603971.2913622

ANGLE_1 = 2016-10-11T21:04:00.000 53.32466532085538
ANGLE_2 = 2016-10-11T21:04:00.000 74.29106618631546
RANGE = 2016-10-11T21:04:00.000 167604728.38084394

ANGLE_1 = 2016-10-11T21:05:00.000 52.74175113886284
ANGLE_2 = 2016-10-11T21:05:00.000 74.45390757275811
RANGE = 2016-10-11T21:05:00.000 167605485.57419428

ANGLE_1 = 2016-10-11T21:06:00.000 52.1488912414943
ANGLE_2 = 2016-10-11T21:06:00.000 74.61488245369287
RANGE = 2016-10-11T21:06:00.000 167606242.83212474

ANGLE_1 = 2016-10-11T21:07:00.000 51.543510238393104
ANGLE_2 = 2016-10-11T21:07:00.000 74.77393100070476
RANGE = 2016-10-11T21:07:00.000 167607000.1906929

ANGLE_1 = 2016-10-11T21:08:00.000 50.926891345353695
ANGLE_2 = 2016-10-11T21:08:00.000 74.93196342655733
RANGE = 2016-10-11T21:08:00.000 167607757.63566393

ANGLE_1 = 2016-10-11T21:09:00.000 50.2998210463697
ANGLE_2 = 2016-10-11T21:09:00.000 75.08857793062182
RANGE = 2016-10-11T21:09:00.000 167608515.17060107

ANGLE_1 = 2016-10-11T21:10:00.000 49.66089388144171
ANGLE_2 = 2016-10-11T21:10:00.000 75.24407801032885
RANGE = 2016-10-11T21:10:00.000 167609272.76969385

ANGLE_1 = 2016-10-11T21:11:00.000 49.009172031349294
ANGLE_2 = 2016-10-11T21:11:00.000 75.39816473229884
RANGE = 2016-10-11T21:11:00.000 167610030.46984488

ANGLE_1 = 2016-10-11T21:12:00.000 48.34518340193268
ANGLE_2 = 2016-10-11T21:12:00.000 75.55024895823679
RANGE = 2016-10-11T21:12:00.000 167610788.26329204

ANGLE_1 = 2016-10-11T21:13:00.000 47.668616065004336
ANGLE_2 = 2016-10-11T21:13:00.000 75.70194286871246
RANGE = 2016-10-11T21:13:00.000 167611546.13013473

ANGLE_1 = 2016-10-11T21:14:00.000 46.97913459609285
ANGLE_2 = 2016-10-11T21:14:00.000 75.85083786114889
RANGE = 2016-10-11T21:14:00.000 167612304.11575204

ANGLE_1 = 2016-10-11T21:15:00.000 46.277034213138656
ANGLE_2 = 2016-10-11T21:15:00.000 75.99815750176761
RANGE = 2016-10-11T21:15:00.000 167613062.11874175

ANGLE_1 = 2016-10-11T21:16:00.000 45.56074652793641
ANGLE_2 = 2016-10-11T21:16:00.000 76.14430462858222
RANGE = 2016-10-11T21:16:00.000 167613820.25871238

ANGLE_1 = 2016-10-11T21:17:00.000 44.8316405033196
ANGLE_2 = 2016-10-11T21:17:00.000 76.28791236381677
RANGE = 2016-10-11T21:17:00.000 167614578.4533863

ANGLE_1 = 2016-10-11T21:18:00.000 44.08802540465604
ANGLE_2 = 2016-10-11T21:18:00.000 76.4299649179293
RANGE = 2016-10-11T21:18:00.000 167615336.77467814

ANGLE_1 = 2016-10-11T21:19:00.000 43.33062741740518
ANGLE_2 = 2016-10-11T21:19:00.000 76.5701739676781
RANGE = 2016-10-11T21:19:00.000 167616095.18273684

ANGLE_1 = 2016-10-11T21:20:00.000 42.558166291291386
ANGLE_2 = 2016-10-11T21:20:00.000 76.7078956182798
RANGE = 2016-10-11T21:20:00.000 167616853.6398876

ANGLE_1 = 2016-10-11T21:21:00.000 41.77146808800538
ANGLE_2 = 2016-10-11T21:21:00.000 76.84464332203952
RANGE = 2016-10-11T21:21:00.000 167617612.2249606

ANGLE_1 = 2016-10-11T21:22:00.000 40.96965229859693
ANGLE_2 = 2016-10-11T21:22:00.000 76.97869325718132
RANGE = 2016-10-11T21:22:00.000 167618370.86108544

ANGLE_1 = 2016-10-11T21:23:00.000 40.15273959320374
ANGLE_2 = 2016-10-11T21:23:00.000 77.11078596197062
RANGE = 2016-10-11T21:23:00.000 167619129.60417512

ANGLE_1 = 2016-10-11T21:24:00.000 39.32039824566467
ANGLE_2 = 2016-10-11T21:24:00.000 77.24011116782458
RANGE = 2016-10-11T21:24:00.000 167619888.39415658

ANGLE_1 = 2016-10-11T21:25:00.000 38.47213808204919
ANGLE_2 = 2016-10-11T21:25:00.000 77.36766241639336
RANGE = 2016-10-11T21:25:00.000 167620647.30581397

ANGLE_1 = 2016-10-11T21:26:00.000 37.6092848283868
ANGLE_2 = 2016-10-11T21:26:00.000 77.4930989498435
RANGE = 2016-10-11T21:26:00.000 167621406.3208217

ANGLE_1 = 2016-10-11T21:27:00.000 36.72920279669085
ANGLE_2 = 2016-10-11T21:27:00.000 77.61561211185786
RANGE = 2016-10-11T21:27:00.000 167622165.37910658

ANGLE_1 = 2016-10-11T21:28:00.000 35.83429567473435
ANGLE_2 = 2016-10-11T21:28:00.000 77.73594915305722
RANGE = 2016-10-11T21:28:00.000 167622924.5243881

ANGLE_1 = 2016-10-11T21:29:00.000 34.922561591744454
ANGLE_2 = 2016-10-11T21:29:00.000 77.85252794051466
RANGE = 2016-10-11T21:29:00.000 167623683.81181738

ANGLE_1 = 2016-10-11T21:30:00.000 33.99479779792848
ANGLE_2 = 2016-10-11T21:30:00.000 77.9679329748915
RANGE = 2016-10-11T21:30:00.000 167624443.156031

ANGLE_1 = 2016-10-11T21:31:00.000 33.05078743600246
ANGLE_2 = 2016-10-11T21:31:00.000 78.07975103488309
RANGE = 2016-10-11T21:31:00.000 167625202.53248513

ANGLE_1 = 2016-10-11T21:32:00.000 32.08960087672417
ANGLE_2 = 2016-10-11T21:32:00.000 78.18932819926759
RANGE = 2016-10-11T21:32:00.000 167625962.07045335

ANGLE_1 = 2016-10-11T21:33:00.000 31.111793857541805
ANGLE_2 = 2016-10-11T21:33:00.000 78.29573794293307
RANGE = 2016-10-11T21:33:00.000 167626721.67931747

ANGLE_1 = 2016-10-11T21:34:00.000 30.11885768056276
ANGLE_2 = 2016-10-11T21:34:00.000 78.39866166961934
RANGE = 2016-10-11T21:34:00.000 167627481.36836728

ANGLE_1 = 2016-10-11T21:35:00.000 29.108797316025818
ANGLE_2 = 2016-10-11T21:35:00.000 78.49957164126094
RANGE = 2016-10-11T21:35:00.000 167628241.1244073

ANGLE_1 = 2016-10-11T21:36:00.000 28.082718769112514
ANGLE_2 = 2016-10-11T21:36:00.000 78.59649954865195
RANGE = 2016-10-11T21:36:00.000 167629000.99805167

ANGLE_1 = 2016-10-11T21:37:00.000 27.039542087637578
ANGLE_2 = 2016-10-11T21:37:00.000 78.68983457467668
RANGE = 2016-10-11T21:37:00.000 167629760.96446043

ANGLE_1 = 2016-10-11T21:38:00.000 25.9813207396672
ANGLE_2 = 2016-10-11T21:38:00.000 78.78060721863048
RANGE = 2016-10-11T21:38:00.000 167630520.9901863

ANGLE_1 = 2016-10-11T21:39:00.000 24.907755461171945
ANGLE_2 = 2016-10-11T21:39:00.000 78.86783467507344
RANGE = 2016-10-11T21:39:00.000 167631281.13092294

ANGLE_1 = 2016-10-11T21:40:00.000 23.817388353722425
ANGLE_2 = 2016-10-11T21:40:00.000 78.95156423557226
RANGE = 2016-10-11T21:40:00.000 167632041.32156998

ANGLE_1 = 2016-10-11T21:41:00.000 22.712594430481815
ANGLE_2 = 2016-10-11T21:41:00.000 79.031406602913
RANGE = 2016-10-11T21:41:00.000 167632801.61131763

ANGLE_1 = 2016-10-11T21:42:00.000 21.59245820844649
ANGLE_2 = 2016-10-11T21:42:00.000 79.10801093240937
RANGE = 2016-10-11T21:42:00.000 167633561.9890983

ANGLE_1 = 2016-10-11T21:43:00.000 20.4584672523177
ANGLE_2 = 2016-10-11T21:43:00.000 79.18045633977918
RANGE = 2016-10-11T21:43:00.000 167634322.49378222

ANGLE_1 = 2016-10-11T21:44:00.000 19.309200251459004
ANGLE_2 = 2016-10-11T21:44:00.000 79.2498436861996
RANGE = 2016-10-11T21:44:00.000 167635083.04447672

ANGLE_1 = 2016-10-11T21:45:00.000 18.14640395514114
ANGLE_2 = 2016-10-11T21:45:00.000 79.31423195267512
RANGE = 2016-10-11T21:45:00.000 167635843.6958198

ANGLE_1 = 2016-10-11T21:46:00.000 16.97195328036151
ANGLE_2 = 2016-10-11T21:46:00.000 79.3759266424414
RANGE = 2016-10-11T21:46:00.000 167636604.4152674

ANGLE_1 = 2016-10-11T21:47:00.000 15.784455250508522
ANGLE_2 = 2016-10-11T21:47:00.000 79.43325252138975
RANGE = 2016-10-11T21:47:00.000 167637365.2331858

ANGLE_1 = 2016-10-11T21:48:00.000 14.584938726500122
ANGLE_2 = 2016-10-11T21:48:00.000 79.48654453512746
RANGE = 2016-10-11T21:48:00.000 167638126.16977116

ANGLE_1 = 2016-10-11T21:49:00.000 13.375130412512455
ANGLE_2 = 2016-10-11T21:49:00.000 79.53593359905288
RANGE = 2016-10-11T21:49:00.000 167638887.17910755

ANGLE_1 = 2016-10-11T21:50:00.000 12.154111458535212
ANGLE_2 = 2016-10-11T21:50:00.000 79.58083072369281
RANGE = 2016-10-11T21:50:00.000 167639648.23658007

ANGLE_1 = 2016-10-11T21:51:00.000 10.923931586468306
ANGLE_2 = 2016-10-11T21:51:00.000 79.6206936899166
RANGE = 2016-10-11T21:51:00.000 167640409.4191276

ANGLE_1 = 2016-10-11T21:52:00.000 9.685576301931636
ANGLE_2 = 2016-10-11T21:52:00.000 79.65706872882488
RANGE = 2016-10-11T21:52:00.000 167641170.67929125

ANGLE_1 = 2016-10-11T21:53:00.000 8.43850587740748
ANGLE_2 = 2016-10-11T21:53:00.000 79.6888092409416
RANGE = 2016-10-11T21:53:00.000 167641932.0334824

ANGLE_1 = 2016-10-11T21:54:00.000 7.18512664765907
ANGLE_2 = 2016-10-11T21:54:00.000 79.71657031559651
RANGE = 2016-10-11T21:54:00.000 167642693.46376956

ANGLE_1 = 2016-10-11T21:55:00.000 5.926826191830568
ANGLE_2 = 2016-10-11T21:55:00.000 79.7395649603736
RANGE = 2016-10-11T21:55:00.000 167643455.00616664

ANGLE_1 = 2016-10-11T21:56:00.000 4.6627170380369956
ANGLE_2 = 2016-10-11T21:56:00.000 79.75815833864864
RANGE = 2016-10-11T21:56:00.000 167644216.64466125

ANGLE_1 = 2016-10-11T21:57:00.000 3.3947277348220792
ANGLE_2 = 2016-10-11T21:57:00.000 79.77270259244332
RANGE = 2016-10-11T21:57:00.000 167644978.30852687

ANGLE_1 = 2016-10-11T21:58:00.000 2.124181149500164
ANGLE_2 = 2016-10-11T21:58:00.000 79.78236816585981
RANGE = 2016-10-11T21:58:00.000 167645740.10550454

ANGLE_1 = 2016-10-11T21:59:00.000 0.8512645713656058
ANGLE_2 = 2016-10-11T21:59:00.000 79.78719862921486
RANGE = 2016-10-11T21:59:00.000 167646501.9819188

ANGLE_1 = 2016-10-11T22:00:00.000 359.577943732727
ANGLE_2 = 2016-10-11T22:00:00.000 79.78818196432566
RANGE = 2016-10-11T22:00:00.000 167647263.9340345

ANGLE_1 = 2016-10-11T22:01:00.000 358.3046379080454
ANGLE_2 = 2016-10-11T22:01:00.000 79.78384058649256
RANGE = 2016-10-11T22:01:00.000 167648025.9754214

ANGLE_1 = 2016-10-11T22:02:00.000 357.0337809871055
ANGLE_2 = 2016-10-11T22:02:00.000 79.77537909759339
RANGE = 2016-10-11T22:02:00.000 167648788.1171569

ANGLE_1 = 2016-10-11T22:03:00.000 355.7653448448837
ANGLE_2 = 2016-10-11T22:03:00.000 79.76350616417609
RANGE = 2016-10-11T22:03:00.000 167649550.34114596

ANGLE_1 = 2016-10-11T22:04:00.000 354.4998810309563
ANGLE_2 = 2016-10-11T22:04:00.000 79.7460110104716
RANGE = 2016-10-11T22:04:00.000 167650312.6392024

ANGLE_1 = 2016-10-11T22:05:00.000 353.23928259160374
ANGLE_2 = 2016-10-11T22:05:00.000 79.72372661337818
RANGE = 2016-10-11T22:05:00.000 167651075.0330967

ANGLE_1 = 2016-10-11T22:06:00.000 351.983184496467
ANGLE_2 = 2016-10-11T22:06:00.000 79.69747512057454
RANGE = 2016-10-11T22:06:00.000 167651837.53795856

ANGLE_1 = 2016-10-11T22:07:00.000 350.7354141014095
ANGLE_2 = 2016-10-11T22:07:00.000 79.66740112360483
RANGE = 2016-10-11T22:07:00.000 167652600.10931152

ANGLE_1 = 2016-10-11T22:08:00.000 349.49420721866295
ANGLE_2 = 2016-10-11T22:08:00.000 79.63233544446072
RANGE = 2016-10-11T22:08:00.000 167653362.78397706

ANGLE_1 = 2016-10-11T22:09:00.000 348.26092683963367
ANGLE_2 = 2016-10-11T22:09:00.000 79.5928970934055
RANGE = 2016-10-11T22:09:00.000 167654125.5370581

ANGLE_1 = 2016-10-11T22:10:00.000 347.03746758272695
ANGLE_2 = 2016-10-11T22:10:00.000 79.54990905204508
RANGE = 2016-10-11T22:10:00.000 167654888.3750159

ANGLE_1 = 2016-10-11T22:11:00.000 345.82365656153974
ANGLE_2 = 2016-10-11T22:11:00.000 79.5021152319502
RANGE = 2016-10-11T22:11:00.000 167655651.29552504

ANGLE_1 = 2016-10-11T22:12:00.000 344.6214000557049
ANGLE_2 = 2016-10-11T22:12:00.000 79.45011828705388
RANGE = 2016-10-11T22:12:00.000 167656414.31091285

ANGLE_1 = 2016-10-11T22:13:00.000 343.42980644401416
ANGLE_2 = 2016-10-11T22:13:00.000 79.39398876955002
RANGE = 2016-10-11T22:13:00.000 167657177.43927243

ANGLE_1 = 2016-10-11T22:14:00.000 342.2507350185163
ANGLE_2 = 2016-10-11T22:14:00.000 79.33403739387755
RANGE = 2016-10-11T22:14:00.000 167657940.62942132

ANGLE_1 = 2016-10-11T22:15:00.000 341.08449669141424
ANGLE_2 = 2016-10-11T22:15:00.000 79.26982629231114
RANGE = 2016-10-11T22:15:00.000 167658703.8823265

ANGLE_1 = 2016-10-11T22:16:00.000 339.9317190917119
ANGLE_2 = 2016-10-11T22:16:00.000 79.20241818442325
RANGE = 2016-10-11T22:16:00.000 167659467.27094316

ANGLE_1 = 2016-10-11T22:17:00.000 338.7928436687029
ANGLE_2 = 2016-10-11T22:17:00.000 79.13057297510545
RANGE = 2016-10-11T22:17:00.000 167660230.69178787

ANGLE_1 = 2016-10-11T22:18:00.000 337.6680866969872
ANGLE_2 = 2016-10-11T22:18:00.000 79.0558903233933
RANGE = 2016-10-11T22:18:00.000 167660994.2448404

ANGLE_1 = 2016-10-11T22:19:00.000 336.5586709775876
ANGLE_2 = 2016-10-11T22:19:00.000 78.97595052772971
RANGE = 2016-10-11T22:19:00.000 167661757.91390997

ANGLE_1 = 2016-10-11T22:20:00.000 335.4642122408033
ANGLE_2 = 2016-10-11T22:20:00.000 78.89380868234076
RANGE = 2016-10-11T22:20:00.000 167662521.580054

ANGLE_1 = 2016-10-11T22:21:00.000 334.38513163139345
ANGLE_2 = 2016-10-11T22:21:00.000 78.80749197019755
RANGE = 2016-10-11T22:21:00.000 167663285.3626468

ANGLE_1 = 2016-10-11T22:22:00.000 333.32150717288255
ANGLE_2 = 2016-10-11T22:22:00.000 78.71714048214864
RANGE = 2016-10-11T22:22:00.000 167664049.29196373

ANGLE_1 = 2016-10-11T22:23:00.000 332.27407062900835
ANGLE_2 = 2016-10-11T22:23:00.000 78.62546858944282
RANGE = 2016-10-11T22:23:00.000 167664813.25959465

ANGLE_1 = 2016-10-11T22:24:00.000 331.24365759242596
ANGLE_2 = 2016-10-11T22:24:00.000 78.52919590697023
RANGE = 2016-10-11T22:24:00.000 167665577.3016588

ANGLE_1 = 2016-10-11T22:25:00.000 330.2282869250651
ANGLE_2 = 2016-10-11T22:25:00.000 78.42961173985258
RANGE = 2016-10-11T22:25:00.000 167666341.4934844

ANGLE_1 = 2016-10-11T22:26:00.000 329.2291661685578
ANGLE_2 = 2016-10-11T22:26:00.000 78.32792636242704
RANGE = 2016-10-11T22:26:00.000 167667105.72527006

ANGLE_1 = 2016-10-11T22:27:00.000 328.24697241190455
ANGLE_2 = 2016-10-11T22:27:00.000 78.2220342723359
RANGE = 2016-10-11T22:27:00.000 167667870.0331319

ANGLE_1 = 2016-10-11T22:28:00.000 327.28086191959784
ANGLE_2 = 2016-10-11T22:28:00.000 78.11386536250822
RANGE = 2016-10-11T22:28:00.000 167668634.44777718

ANGLE_1 = 2016-10-11T22:29:00.000 326.33149082872364
ANGLE_2 = 2016-10-11T22:29:00.000 78.00224125025053
RANGE = 2016-10-11T22:29:00.000 167669398.93032575

ANGLE_1 = 2016-10-11T22:30:00.000 325.3984839588651
ANGLE_2 = 2016-10-11T22:30:00.000 77.8880546013866
RANGE = 2016-10-11T22:30:00.000 167670163.5548493

ANGLE_1 = 2016-10-11T22:31:00.000 324.48189515365215
ANGLE_2 = 2016-10-11T22:31:00.000 77.77163142275208
RANGE = 2016-10-11T22:31:00.000 167670928.1900836

ANGLE_1 = 2016-10-11T22:32:00.000 323.58176984203396
ANGLE_2 = 2016-10-11T22:32:00.000 77.65212545579557
RANGE = 2016-10-11T22:32:00.000 167671693.02462184

ANGLE_1 = 2016-10-11T22:33:00.000 322.6976206849713
ANGLE_2 = 2016-10-11T22:33:00.000 77.53027384779936
RANGE = 2016-10-11T22:33:00.000 167672457.82358462

ANGLE_1 = 2016-10-11T22:34:00.000 321.8288116451627
ANGLE_2 = 2016-10-11T22:34:00.000 77.40655164170443
RANGE = 2016-10-11T22:34:00.000 167673222.77521038

ANGLE_1 = 2016-10-11T22:35:00.000 320.9766864421791
ANGLE_2 = 2016-10-11T22:35:00.000 77.27949624267846
RANGE = 2016-10-11T22:35:00.000 167673987.80106696

ANGLE_1 = 2016-10-11T22:36:00.000 320.14012784727277
ANGLE_2 = 2016-10-11T22:36:00.000 77.15070311476926
RANGE = 2016-10-11T22:36:00.000 167674752.8643361

ANGLE_1 = 2016-10-11T22:37:00.000 319.31809740864753
ANGLE_2 = 2016-10-11T22:37:00.000 77.01938498798597
RANGE = 2016-10-11T22:37:00.000 167675518.07962152

ANGLE_1 = 2016-10-11T22:38:00.000 318.5116322835046
ANGLE_2 = 2016-10-11T22:38:00.000 76.88547941131486
RANGE = 2016-10-11T22:38:00.000 167676283.3926562

ANGLE_1 = 2016-10-11T22:39:00.000 317.7203984311132
ANGLE_2 = 2016-10-11T22:39:00.000 76.75060563202524
RANGE = 2016-10-11T22:39:00.000 167677048.71539015

ANGLE_1 = 2016-10-11T22:40:00.000 316.9434820477903
