2nd Assignment - Navigation/tdm/MALARGUE_EXM_20161010T162859_20161011T033236.tdm

CCSDS_TDM_VERS = 2.0

COMMENT This TDM contains synthetic data, not from real observations

CREATION_DATE = 2021-11-26T14:48:28.565365
ORIGINATOR = POLIMI-DAER

META_START
TIME_SYSTEM = UTC
START_TIME = 2016-10-10T16:28:59.406
STOP_TIME = 2016-10-11T03:32:36.760
PARTICIPANT_1 = MALARGUE
PARTICIPANT_2 = EXM
MODE = SEQUENTIAL
PATH = 1,2,1
RANGE_UNITS = km
ANGLE_TYPE = AZEL
META_STOP

DATA_START

ANGLE_1 = 2016-10-10T16:28:59.406 107.83646490417192
ANGLE_2 = 2016-10-10T16:28:59.406 19.99976689274087
RANGE = 2016-10-10T16:28:59.406 166299666.33000284

ANGLE_1 = 2016-10-10T16:29:00.000 107.8349994194081
ANGLE_2 = 2016-10-10T16:29:00.000 20.00165029805946
RANGE = 2016-10-10T16:29:00.000 166299673.7034045

ANGLE_1 = 2016-10-10T16:30:00.000 107.71138927777015
ANGLE_2 = 2016-10-10T16:30:00.000 20.195241067474296
RANGE = 2016-10-10T16:30:00.000 166300417.9727552

ANGLE_1 = 2016-10-10T16:31:00.000 107.587445780914
ANGLE_2 = 2016-10-10T16:31:00.000 20.38863929580292
RANGE = 2016-10-10T16:31:00.000 166301162.22985214

ANGLE_1 = 2016-10-10T16:32:00.000 107.46433716942535
ANGLE_2 = 2016-10-10T16:32:00.000 20.58177405377784
RANGE = 2016-10-10T16:32:00.000 166301906.5084795

ANGLE_1 = 2016-10-10T16:33:00.000 107.34073828135067
ANGLE_2 = 2016-10-10T16:33:00.000 20.77570329949701
RANGE = 2016-10-10T16:33:00.000 166302650.7748151

ANGLE_1 = 2016-10-10T16:34:00.000 107.2177286893634
ANGLE_2 = 2016-10-10T16:34:00.000 20.969397938446328
RANGE = 2016-10-10T16:34:00.000 166303395.04212815

ANGLE_1 = 2016-10-10T16:35:00.000 107.09458535782389
ANGLE_2 = 2016-10-10T16:35:00.000 21.16317472313639
RANGE = 2016-10-10T16:35:00.000 166304139.35963243

ANGLE_1 = 2016-10-10T16:36:00.000 106.97108569143181
ANGLE_2 = 2016-10-10T16:36:00.000 21.357684910438426
RANGE = 2016-10-10T16:36:00.000 166304883.64512053

ANGLE_1 = 2016-10-10T16:37:00.000 106.84798526843521
ANGLE_2 = 2016-10-10T16:37:00.000 21.551376381451924
RANGE = 2016-10-10T16:37:00.000 166305628.01166254

ANGLE_1 = 2016-10-10T16:38:00.000 106.72511614284424
ANGLE_2 = 2016-10-10T16:38:00.000 21.74567732740838
RANGE = 2016-10-10T16:38:00.000 166306372.3347934

ANGLE_1 = 2016-10-10T16:39:00.000 106.60192628174033
ANGLE_2 = 2016-10-10T16:39:00.000 21.940648951447155
RANGE = 2016-10-10T16:39:00.000 166307116.67745626

ANGLE_1 = 2016-10-10T16:40:00.000 106.47950395506768
ANGLE_2 = 2016-10-10T16:40:00.000 22.13481351906144
RANGE = 2016-10-10T16:40:00.000 166307861.07855836

ANGLE_1 = 2016-10-10T16:41:00.000 106.35680755829834
ANGLE_2 = 2016-10-10T16:41:00.000 22.32968809576056
RANGE = 2016-10-10T16:41:00.000 166308605.46321687

ANGLE_1 = 2016-10-10T16:42:00.000 106.23327222972682
ANGLE_2 = 2016-10-10T16:42:00.000 22.524993293358193
RANGE = 2016-10-10T16:42:00.000 166309349.83036032

ANGLE_1 = 2016-10-10T16:43:00.000 106.11082411365685
ANGLE_2 = 2016-10-10T16:43:00.000 22.719291592755887
RANGE = 2016-10-10T16:43:00.000 166310094.24411705

ANGLE_1 = 2016-10-10T16:44:00.000 105.98777087026838
ANGLE_2 = 2016-10-10T16:44:00.000 22.914680087588643
RANGE = 2016-10-10T16:44:00.000 166310838.61492527

ANGLE_1 = 2016-10-10T16:45:00.000 105.86534655757168
ANGLE_2 = 2016-10-10T16:45:00.000 23.109953244649198
RANGE = 2016-10-10T16:45:00.000 166311583.05780554

ANGLE_1 = 2016-10-10T16:46:00.000 105.74171446607593
ANGLE_2 = 2016-10-10T16:46:00.000 23.30525085690246
RANGE = 2016-10-10T16:46:00.000 166312327.51871717

ANGLE_1 = 2016-10-10T16:47:00.000 105.6200660780532
ANGLE_2 = 2016-10-10T16:47:00.000 23.50016080940387
RANGE = 2016-10-10T16:47:00.000 166313072.00080457

ANGLE_1 = 2016-10-10T16:48:00.000 105.49744388437263
ANGLE_2 = 2016-10-10T16:48:00.000 23.6958983095821
RANGE = 2016-10-10T16:48:00.000 166313816.5042405

ANGLE_1 = 2016-10-10T16:49:00.000 105.37485495739895
ANGLE_2 = 2016-10-10T16:49:00.000 23.891441417253414
RANGE = 2016-10-10T16:49:00.000 166314560.9966082

ANGLE_1 = 2016-10-10T16:50:00.000 105.2520572994927
ANGLE_2 = 2016-10-10T16:50:00.000 24.086907158778356
RANGE = 2016-10-10T16:50:00.000 166315305.51665756

ANGLE_1 = 2016-10-10T16:51:00.000 105.13083621109419
ANGLE_2 = 2016-10-10T16:51:00.000 24.283214267076993
RANGE = 2016-10-10T16:51:00.000 166316050.0568895

ANGLE_1 = 2016-10-10T16:52:00.000 105.00757886807239
ANGLE_2 = 2016-10-10T16:52:00.000 24.479289873349224
RANGE = 2016-10-10T16:52:00.000 166316794.594154

ANGLE_1 = 2016-10-10T16:53:00.000 104.8853870863553
ANGLE_2 = 2016-10-10T16:53:00.000 24.67547357501901
RANGE = 2016-10-10T16:53:00.000 166317539.14054132

ANGLE_1 = 2016-10-10T16:54:00.000 104.76260927526421
ANGLE_2 = 2016-10-10T16:54:00.000 24.87190217094915
RANGE = 2016-10-10T16:54:00.000 166318283.7959642

ANGLE_1 = 2016-10-10T16:55:00.000 104.64087482414207
ANGLE_2 = 2016-10-10T16:55:00.000 25.068193552770865
RANGE = 2016-10-10T16:55:00.000 166319028.38139066

ANGLE_1 = 2016-10-10T16:56:00.000 104.51828515659629
ANGLE_2 = 2016-10-10T16:56:00.000 25.264316345677173
RANGE = 2016-10-10T16:56:00.000 166319772.98173177

ANGLE_1 = 2016-10-10T16:57:00.000 104.39553054349719
ANGLE_2 = 2016-10-10T16:57:00.000 25.460945753238846
RANGE = 2016-10-10T16:57:00.000 166320517.6238402

ANGLE_1 = 2016-10-10T16:58:00.000 104.27327533946034
ANGLE_2 = 2016-10-10T16:58:00.000 25.65710044923402
RANGE = 2016-10-10T16:58:00.000 166321262.30668077

ANGLE_1 = 2016-10-10T16:59:00.000 104.15130077609597
ANGLE_2 = 2016-10-10T16:59:00.000 25.85439112186396
RANGE = 2016-10-10T16:59:00.000 166322006.96230236

ANGLE_1 = 2016-10-10T17:00:00.000 104.02920144312884
ANGLE_2 = 2016-10-10T17:00:00.000 26.050964220597173
RANGE = 2016-10-10T17:00:00.000 166322751.70562562

ANGLE_1 = 2016-10-10T17:01:00.000 103.9070366298754
ANGLE_2 = 2016-10-10T17:01:00.000 26.24834175049808
RANGE = 2016-10-10T17:01:00.000 166323496.4445491

ANGLE_1 = 2016-10-10T17:02:00.000 103.78417252771882
ANGLE_2 = 2016-10-10T17:02:00.000 26.444654325661485
RANGE = 2016-10-10T17:02:00.000 166324241.19298482

ANGLE_1 = 2016-10-10T17:03:00.000 103.66178698335808
ANGLE_2 = 2016-10-10T17:03:00.000 26.64292877846447
RANGE = 2016-10-10T17:03:00.000 166324985.97753635

ANGLE_1 = 2016-10-10T17:04:00.000 103.53955267843622
ANGLE_2 = 2016-10-10T17:04:00.000 26.839269885512902
RANGE = 2016-10-10T17:04:00.000 166325730.76924697

ANGLE_1 = 2016-10-10T17:05:00.000 103.41715289883079
ANGLE_2 = 2016-10-10T17:05:00.000 27.037075697916247
RANGE = 2016-10-10T17:05:00.000 166326475.56680638

ANGLE_1 = 2016-10-10T17:06:00.000 103.29581257948426
ANGLE_2 = 2016-10-10T17:06:00.000 27.234637388374086
RANGE = 2016-10-10T17:06:00.000 166327220.3966907

ANGLE_1 = 2016-10-10T17:07:00.000 103.17238062454021
ANGLE_2 = 2016-10-10T17:07:00.000 27.4320076327452
RANGE = 2016-10-10T17:07:00.000 166327965.2424112

ANGLE_1 = 2016-10-10T17:08:00.000 103.05010505933205
ANGLE_2 = 2016-10-10T17:08:00.000 27.629496011374933
RANGE = 2016-10-10T17:08:00.000 166328710.17293623

ANGLE_1 = 2016-10-10T17:09:00.000 102.92822982026127
ANGLE_2 = 2016-10-10T17:09:00.000 27.827385084442483
RANGE = 2016-10-10T17:09:00.000 166329455.08918452

ANGLE_1 = 2016-10-10T17:10:00.000 102.80585319500348
ANGLE_2 = 2016-10-10T17:10:00.000 28.025147177979825
RANGE = 2016-10-10T17:10:00.000 166330200.03122023

ANGLE_1 = 2016-10-10T17:11:00.000 102.68310001444573
ANGLE_2 = 2016-10-10T17:11:00.000 28.223237249808545
RANGE = 2016-10-10T17:11:00.000 166330944.97919136

ANGLE_1 = 2016-10-10T17:12:00.000 102.56113502662005
ANGLE_2 = 2016-10-10T17:12:00.000 28.421402768463008
RANGE = 2016-10-10T17:12:00.000 166331689.9481474

ANGLE_1 = 2016-10-10T17:13:00.000 102.4387497989457
ANGLE_2 = 2016-10-10T17:13:00.000 28.61949564115603
RANGE = 2016-10-10T17:13:00.000 166332434.95509315

ANGLE_1 = 2016-10-10T17:14:00.000 102.31585853898774
ANGLE_2 = 2016-10-10T17:14:00.000 28.818301415446665
RANGE = 2016-10-10T17:14:00.000 166333180.01067734

ANGLE_1 = 2016-10-10T17:15:00.000 102.19381747288544
ANGLE_2 = 2016-10-10T17:15:00.000 29.015913132412
RANGE = 2016-10-10T17:15:00.000 166333925.0939424

ANGLE_1 = 2016-10-10T17:16:00.000 102.07101524540772
ANGLE_2 = 2016-10-10T17:16:00.000 29.214754712273667
RANGE = 2016-10-10T17:16:00.000 166334670.15902728

ANGLE_1 = 2016-10-10T17:17:00.000 101.9488981474496
ANGLE_2 = 2016-10-10T17:17:00.000 29.413196389384517
RANGE = 2016-10-10T17:17:00.000 166335415.31516257

ANGLE_1 = 2016-10-10T17:18:00.000 101.82532276077376
ANGLE_2 = 2016-10-10T17:18:00.000 29.611681925579646
RANGE = 2016-10-10T17:18:00.000 166336160.4339396

ANGLE_1 = 2016-10-10T17:19:00.000 101.70248783270338
ANGLE_2 = 2016-10-10T17:19:00.000 29.810156799276704
RANGE = 2016-10-10T17:19:00.000 166336905.61445364

ANGLE_1 = 2016-10-10T17:20:00.000 101.58026188532153
ANGLE_2 = 2016-10-10T17:20:00.000 30.008750862737642
RANGE = 2016-10-10T17:20:00.000 166337650.83428916

ANGLE_1 = 2016-10-10T17:21:00.000 101.45726642390463
ANGLE_2 = 2016-10-10T17:21:00.000 30.208025203404695
RANGE = 2016-10-10T17:21:00.000 166338396.05982682

ANGLE_1 = 2016-10-10T17:22:00.000 101.33387771127553
ANGLE_2 = 2016-10-10T17:22:00.000 30.406701930519784
RANGE = 2016-10-10T17:22:00.000 166339141.31639236

ANGLE_1 = 2016-10-10T17:23:00.000 101.21136320718314
ANGLE_2 = 2016-10-10T17:23:00.000 30.60602272334282
RANGE = 2016-10-10T17:23:00.000 166339886.59844002

ANGLE_1 = 2016-10-10T17:24:00.000 101.0875074036339
ANGLE_2 = 2016-10-10T17:24:00.000 30.805020970914725
RANGE = 2016-10-10T17:24:00.000 166340631.94281355

ANGLE_1 = 2016-10-10T17:25:00.000 100.96552953719257
ANGLE_2 = 2016-10-10T17:25:00.000 31.004706920288076
RANGE = 2016-10-10T17:25:00.000 166341377.28391886

ANGLE_1 = 2016-10-10T17:26:00.000 100.84248790700542
ANGLE_2 = 2016-10-10T17:26:00.000 31.203500624135817
RANGE = 2016-10-10T17:26:00.000 166342122.61778104

ANGLE_1 = 2016-10-10T17:27:00.000 100.7193216251507
ANGLE_2 = 2016-10-10T17:27:00.000 31.402847878847435
RANGE = 2016-10-10T17:27:00.000 166342868.10545424

ANGLE_1 = 2016-10-10T17:28:00.000 100.59534261191747
ANGLE_2 = 2016-10-10T17:28:00.000 31.60256756854964
RANGE = 2016-10-10T17:28:00.000 166343613.50972039

ANGLE_1 = 2016-10-10T17:29:00.000 100.47203880139305
ANGLE_2 = 2016-10-10T17:29:00.000 31.80233254767703
RANGE = 2016-10-10T17:29:00.000 166344358.99593696

ANGLE_1 = 2016-10-10T17:30:00.000 100.34818537613987
ANGLE_2 = 2016-10-10T17:30:00.000 32.00136657957436
RANGE = 2016-10-10T17:30:00.000 166345104.49314046

ANGLE_1 = 2016-10-10T17:31:00.000 100.22467575331268
ANGLE_2 = 2016-10-10T17:31:00.000 32.20104623640336
RANGE = 2016-10-10T17:31:00.000 166345850.0504939

ANGLE_1 = 2016-10-10T17:32:00.000 100.10090518106904
ANGLE_2 = 2016-10-10T17:32:00.000 32.40082144138468
RANGE = 2016-10-10T17:32:00.000 166346595.6132391

ANGLE_1 = 2016-10-10T17:33:00.000 99.977588520396
ANGLE_2 = 2016-10-10T17:33:00.000 32.60114986649762
RANGE = 2016-10-10T17:33:00.000 166347341.23062915

ANGLE_1 = 2016-10-10T17:34:00.000 99.85343906133487
ANGLE_2 = 2016-10-10T17:34:00.000 32.80091142990048
RANGE = 2016-10-10T17:34:00.000 166348086.83480906

ANGLE_1 = 2016-10-10T17:35:00.000 99.72979557631893
ANGLE_2 = 2016-10-10T17:35:00.000 33.00120326325191
RANGE = 2016-10-10T17:35:00.000 166348832.49302092

ANGLE_1 = 2016-10-10T17:36:00.000 99.60501315995579
ANGLE_2 = 2016-10-10T17:36:00.000 33.201084830382236
RANGE = 2016-10-10T17:36:00.000 166349578.22744635

ANGLE_1 = 2016-10-10T17:37:00.000 99.4817679506879
ANGLE_2 = 2016-10-10T17:37:00.000 33.40139161576391
RANGE = 2016-10-10T17:37:00.000 166350323.96620622

ANGLE_1 = 2016-10-10T17:38:00.000 99.35715630991406
ANGLE_2 = 2016-10-10T17:38:00.000 33.60196069964104
RANGE = 2016-10-10T17:38:00.000 166351069.7279792

ANGLE_1 = 2016-10-10T17:39:00.000 99.23198959976996
ANGLE_2 = 2016-10-10T17:39:00.000 33.80179157974701
RANGE = 2016-10-10T17:39:00.000 166351815.5438156

ANGLE_1 = 2016-10-10T17:40:00.000 99.10710750857143
ANGLE_2 = 2016-10-10T17:40:00.000 34.001739965244674
RANGE = 2016-10-10T17:40:00.000 166352561.41451558

ANGLE_1 = 2016-10-10T17:41:00.000 98.98312182292314
ANGLE_2 = 2016-10-10T17:41:00.000 34.20281148491372
RANGE = 2016-10-10T17:41:00.000 166353307.24227655

ANGLE_1 = 2016-10-10T17:42:00.000 98.85790014582282
ANGLE_2 = 2016-10-10T17:42:00.000 34.40345805631572
RANGE = 2016-10-10T17:42:00.000 166354053.1869671

ANGLE_1 = 2016-10-10T17:43:00.000 98.73296959159616
ANGLE_2 = 2016-10-10T17:43:00.000 34.603743973578666
RANGE = 2016-10-10T17:43:00.000 166354799.16239804

ANGLE_1 = 2016-10-10T17:44:00.000 98.60773741821718
ANGLE_2 = 2016-10-10T17:44:00.000 34.80450461831008
RANGE = 2016-10-10T17:44:00.000 166355545.1540676

ANGLE_1 = 2016-10-10T17:45:00.000 98.48175027316624
ANGLE_2 = 2016-10-10T17:45:00.000 35.005086214792875
RANGE = 2016-10-10T17:45:00.000 166356291.18331814

ANGLE_1 = 2016-10-10T17:46:00.000 98.35681219275659
ANGLE_2 = 2016-10-10T17:46:00.000 35.205623751676306
RANGE = 2016-10-10T17:46:00.000 166357037.2267399

ANGLE_1 = 2016-10-10T17:47:00.000 98.23133868601056
ANGLE_2 = 2016-10-10T17:47:00.000 35.40684947411334
RANGE = 2016-10-10T17:47:00.000 166357783.3444383

ANGLE_1 = 2016-10-10T17:48:00.000 98.10593912798488
ANGLE_2 = 2016-10-10T17:48:00.000 35.607413783819524
RANGE = 2016-10-10T17:48:00.000 166358529.4889668

ANGLE_1 = 2016-10-10T17:49:00.000 97.97985259394869
ANGLE_2 = 2016-10-10T17:49:00.000 35.80857314355108
RANGE = 2016-10-10T17:49:00.000 166359275.6565667

ANGLE_1 = 2016-10-10T17:50:00.000 97.85327932967509
ANGLE_2 = 2016-10-10T17:50:00.000 36.00956566627502
RANGE = 2016-10-10T17:50:00.000 166360021.89189175

ANGLE_1 = 2016-10-10T17:51:00.000 97.7272710210363
ANGLE_2 = 2016-10-10T17:51:00.000 36.21039655297961
RANGE = 2016-10-10T17:51:00.000 166360768.1509081

ANGLE_1 = 2016-10-10T17:52:00.000 97.60083157221452
ANGLE_2 = 2016-10-10T17:52:00.000 36.411864020613606
RANGE = 2016-10-10T17:52:00.000 166361514.4379954

ANGLE_1 = 2016-10-10T17:53:00.000 97.47445426867093
ANGLE_2 = 2016-10-10T17:53:00.000 36.61289460764849
RANGE = 2016-10-10T17:53:00.000 166362260.77809724

ANGLE_1 = 2016-10-10T17:54:00.000 97.34772573973152
ANGLE_2 = 2016-10-10T17:54:00.000 36.8140326772927
RANGE = 2016-10-10T17:54:00.000 166363007.14409298

ANGLE_1 = 2016-10-10T17:55:00.000 97.22023342776822
ANGLE_2 = 2016-10-10T17:55:00.000 37.01551290406878
RANGE = 2016-10-10T17:55:00.000 166363753.56006527

ANGLE_1 = 2016-10-10T17:56:00.000 97.09340096510738
ANGLE_2 = 2016-10-10T17:56:00.000 37.21648715822615
RANGE = 2016-10-10T17:56:00.000 166364500.01660827

ANGLE_1 = 2016-10-10T17:57:00.000 96.96560640941313
ANGLE_2 = 2016-10-10T17:57:00.000 37.41812057349861
RANGE = 2016-10-10T17:57:00.000 166365246.5238662

ANGLE_1 = 2016-10-10T17:58:00.000 96.83842326456852
ANGLE_2 = 2016-10-10T17:58:00.000 37.61988749369012
RANGE = 2016-10-10T17:58:00.000 166365993.0642616

ANGLE_1 = 2016-10-10T17:59:00.000 96.7098734225168
ANGLE_2 = 2016-10-10T17:59:00.000 37.82208001027719
RANGE = 2016-10-10T17:59:00.000 166366739.6615262

ANGLE_1 = 2016-10-10T18:00:00.000 96.58265623945533
ANGLE_2 = 2016-10-10T18:00:00.000 38.023107699913574
RANGE = 2016-10-10T18:00:00.000 166367486.30123058

ANGLE_1 = 2016-10-10T18:01:00.000 96.45428038685591
ANGLE_2 = 2016-10-10T18:01:00.000 38.2246690963588
RANGE = 2016-10-10T18:01:00.000 166368232.9748207

ANGLE_1 = 2016-10-10T18:02:00.000 96.3256436627518
ANGLE_2 = 2016-10-10T18:02:00.000 38.42653589093864
RANGE = 2016-10-10T18:02:00.000 166368979.66061157

ANGLE_1 = 2016-10-10T18:03:00.000 96.19743345507027
ANGLE_2 = 2016-10-10T18:03:00.000 38.62817017921239
RANGE = 2016-10-10T18:03:00.000 166369726.43629688

ANGLE_1 = 2016-10-10T18:04:00.000 96.06792859165606
ANGLE_2 = 2016-10-10T18:04:00.000 38.82964303053435
RANGE = 2016-10-10T18:04:00.000 166370473.2423138

ANGLE_1 = 2016-10-10T18:05:00.000 95.93825955016155
ANGLE_2 = 2016-10-10T18:05:00.000 39.03176493325729
RANGE = 2016-10-10T18:05:00.000 166371220.0823943

ANGLE_1 = 2016-10-10T18:06:00.000 95.80971301249636
ANGLE_2 = 2016-10-10T18:06:00.000 39.233852446243525
RANGE = 2016-10-10T18:06:00.000 166371967.024014

ANGLE_1 = 2016-10-10T18:07:00.000 95.6800936564585
ANGLE_2 = 2016-10-10T18:07:00.000 39.435931939025345
RANGE = 2016-10-10T18:07:00.000 166372713.9497901

ANGLE_1 = 2016-10-10T18:08:00.000 95.54971064996595
ANGLE_2 = 2016-10-10T18:08:00.000 39.63760678950263
RANGE = 2016-10-10T18:08:00.000 166373460.89016384

ANGLE_1 = 2016-10-10T18:09:00.000 95.41993100840007
ANGLE_2 = 2016-10-10T18:09:00.000 39.83971702041817
RANGE = 2016-10-10T18:09:00.000 166374207.88898212

ANGLE_1 = 2016-10-10T18:10:00.000 95.2889819513005
ANGLE_2 = 2016-10-10T18:10:00.000 40.041368778696445
RANGE = 2016-10-10T18:10:00.000 166374954.99031582

ANGLE_1 = 2016-10-10T18:11:00.000 95.15816530956276
ANGLE_2 = 2016-10-10T18:11:00.000 40.244236583627305
RANGE = 2016-10-10T18:11:00.000 166375702.1109395

ANGLE_1 = 2016-10-10T18:12:00.000 95.0273959174848
ANGLE_2 = 2016-10-10T18:12:00.000 40.44665860601652
RANGE = 2016-10-10T18:12:00.000 166376449.26842833

ANGLE_1 = 2016-10-10T18:13:00.000 94.89565256140072
ANGLE_2 = 2016-10-10T18:13:00.000 40.64870140410409
RANGE = 2016-10-10T18:13:00.000 166377196.44981337

ANGLE_1 = 2016-10-10T18:14:00.000 94.76369288843912
ANGLE_2 = 2016-10-10T18:14:00.000 40.85045403270109
RANGE = 2016-10-10T18:14:00.000 166377943.76452926

ANGLE_1 = 2016-10-10T18:15:00.000 94.63147224900969
ANGLE_2 = 2016-10-10T18:15:00.000 41.05226106864592
RANGE = 2016-10-10T18:15:00.000 166378691.02068484

ANGLE_1 = 2016-10-10T18:16:00.000 94.50020967766316
ANGLE_2 = 2016-10-10T18:16:00.000 41.25536652604367
RANGE = 2016-10-10T18:16:00.000 166379438.3719359

ANGLE_1 = 2016-10-10T18:17:00.000 94.36733959887317
ANGLE_2 = 2016-10-10T18:17:00.000 41.45783548372896
RANGE = 2016-10-10T18:17:00.000 166380185.78593382

ANGLE_1 = 2016-10-10T18:18:00.000 94.23445266131206
ANGLE_2 = 2016-10-10T18:18:00.000 41.66044642337502
RANGE = 2016-10-10T18:18:00.000 166380933.2154871

ANGLE_1 = 2016-10-10T18:19:00.000 94.10119259932564
ANGLE_2 = 2016-10-10T18:19:00.000 41.86239627325026
RANGE = 2016-10-10T18:19:00.000 166381680.72917452

ANGLE_1 = 2016-10-10T18:20:00.000 93.96845992597832
ANGLE_2 = 2016-10-10T18:20:00.000 42.06469817814931
RANGE = 2016-10-10T18:20:00.000 166382428.28598586

ANGLE_1 = 2016-10-10T18:21:00.000 93.83360551898804
ANGLE_2 = 2016-10-10T18:21:00.000 42.26746856090258
RANGE = 2016-10-10T18:21:00.000 166383175.8765962

ANGLE_1 = 2016-10-10T18:22:00.000 93.69938298904638
ANGLE_2 = 2016-10-10T18:22:00.000 42.47025237946007
RANGE = 2016-10-10T18:22:00.000 166383923.53599894

ANGLE_1 = 2016-10-10T18:23:00.000 93.5651762946215
ANGLE_2 = 2016-10-10T18:23:00.000 42.67265564170104
RANGE = 2016-10-10T18:23:00.000 166384671.23564297

ANGLE_1 = 2016-10-10T18:24:00.000 93.43015681073105
ANGLE_2 = 2016-10-10T18:24:00.000 42.87474803173876
RANGE = 2016-10-10T18:24:00.000 166385418.97947976

ANGLE_1 = 2016-10-10T18:25:00.000 93.29471663674161
ANGLE_2 = 2016-10-10T18:25:00.000 43.07845764101702
RANGE = 2016-10-10T18:25:00.000 166386166.7578959

ANGLE_1 = 2016-10-10T18:26:00.000 93.15975383991176
ANGLE_2 = 2016-10-10T18:26:00.000 43.280358989278774
RANGE = 2016-10-10T18:26:00.000 166386914.63409352

ANGLE_1 = 2016-10-10T18:27:00.000 93.02363968397873
ANGLE_2 = 2016-10-10T18:27:00.000 43.483198029015675
RANGE = 2016-10-10T18:27:00.000 166387662.4796634

ANGLE_1 = 2016-10-10T18:28:00.000 92.88730236639137
ANGLE_2 = 2016-10-10T18:28:00.000 43.68606862781513
RANGE = 2016-10-10T18:28:00.000 166388410.44339818

ANGLE_1 = 2016-10-10T18:29:00.000 92.7499787178022
ANGLE_2 = 2016-10-10T18:29:00.000 43.888818855234504
RANGE = 2016-10-10T18:29:00.000 166389158.44577718

ANGLE_1 = 2016-10-10T18:30:00.000 92.61298545294281
ANGLE_2 = 2016-10-10T18:30:00.000 44.09117869501241
RANGE = 2016-10-10T18:30:00.000 166389906.51026577

ANGLE_1 = 2016-10-10T18:31:00.000 92.47522048197263
ANGLE_2 = 2016-10-10T18:31:00.000 44.29427997013054
RANGE = 2016-10-10T18:31:00.000 166390654.62842774

ANGLE_1 = 2016-10-10T18:32:00.000 92.33726005617173
ANGLE_2 = 2016-10-10T18:32:00.000 44.49691530175202
RANGE = 2016-10-10T18:32:00.000 166391402.74225178

ANGLE_1 = 2016-10-10T18:33:00.000 92.19893232202193
ANGLE_2 = 2016-10-10T18:33:00.000 44.699551039368004
RANGE = 2016-10-10T18:33:00.000 166392150.979858

ANGLE_1 = 2016-10-10T18:34:00.000 92.05975077768781
ANGLE_2 = 2016-10-10T18:34:00.000 44.90215957201743
RANGE = 2016-10-10T18:34:00.000 166392899.2457028

ANGLE_1 = 2016-10-10T18:35:00.000 91.9209842430377
ANGLE_2 = 2016-10-10T18:35:00.000 45.104898120929725
RANGE = 2016-10-10T18:35:00.000 166393647.5883751

ANGLE_1 = 2016-10-10T18:36:00.000 91.78014367754554
ANGLE_2 = 2016-10-10T18:36:00.000 45.308198903962335
RANGE = 2016-10-10T18:36:00.000 166394395.9914433

ANGLE_1 = 2016-10-10T18:37:00.000 91.64014153841107
ANGLE_2 = 2016-10-10T18:37:00.000 45.51082768025635
RANGE = 2016-10-10T18:37:00.000 166395144.3685269

ANGLE_1 = 2016-10-10T18:38:00.000 91.50034932082161
ANGLE_2 = 2016-10-10T18:38:00.000 45.713870028285704
RANGE = 2016-10-10T18:38:00.000 166395892.8649201

ANGLE_1 = 2016-10-10T18:39:00.000 91.35959575612549
ANGLE_2 = 2016-10-10T18:39:00.000 45.91720455432628
RANGE = 2016-10-10T18:39:00.000 166396641.40129626

ANGLE_1 = 2016-10-10T18:40:00.000 91.2170411521255
ANGLE_2 = 2016-10-10T18:40:00.000 46.119598635744744
RANGE = 2016-10-10T18:40:00.000 166397389.99659374

ANGLE_1 = 2016-10-10T18:41:00.000 91.07465276155821
ANGLE_2 = 2016-10-10T18:41:00.000 46.32262950417433
RANGE = 2016-10-10T18:41:00.000 166398138.65435234

ANGLE_1 = 2016-10-10T18:42:00.000 90.93315322088178
ANGLE_2 = 2016-10-10T18:42:00.000 46.525785665653
RANGE = 2016-10-10T18:42:00.000 166398887.32632923

ANGLE_1 = 2016-10-10T18:43:00.000 90.7898139104176
ANGLE_2 = 2016-10-10T18:43:00.000 46.72873557224781
RANGE = 2016-10-10T18:43:00.000 166399636.09057015

ANGLE_1 = 2016-10-10T18:44:00.000 90.64565927281568
ANGLE_2 = 2016-10-10T18:44:00.000 46.93134858787643
RANGE = 2016-10-10T18:44:00.000 166400384.92329857

ANGLE_1 = 2016-10-10T18:45:00.000 90.50130267967913
ANGLE_2 = 2016-10-10T18:45:00.000 47.134092487037854
RANGE = 2016-10-10T18:45:00.000 166401133.81534523

ANGLE_1 = 2016-10-10T18:46:00.000 90.35658549241101
ANGLE_2 = 2016-10-10T18:46:00.000 47.33715814572668
RANGE = 2016-10-10T18:46:00.000 166401882.71374282

ANGLE_1 = 2016-10-10T18:47:00.000 90.21144717707968
ANGLE_2 = 2016-10-10T18:47:00.000 47.54091596652309
RANGE = 2016-10-10T18:47:00.000 166402631.70755872

ANGLE_1 = 2016-10-10T18:48:00.000 90.06561228228377
ANGLE_2 = 2016-10-10T18:48:00.000 47.74397693110349
RANGE = 2016-10-10T18:48:00.000 166403380.75862357

ANGLE_1 = 2016-10-10T18:49:00.000 89.91936937083598
ANGLE_2 = 2016-10-10T18:49:00.000 47.946719026942255
RANGE = 2016-10-10T18:49:00.000 166404129.83568546

ANGLE_1 = 2016-10-10T18:50:00.000 89.7723693966856
ANGLE_2 = 2016-10-10T18:50:00.000 48.14923304926843
RANGE = 2016-10-10T18:50:00.000 166404879.0118165

ANGLE_1 = 2016-10-10T18:51:00.000 89.62513608218455
ANGLE_2 = 2016-10-10T18:51:00.000 48.352114784735456
RANGE = 2016-10-10T18:51:00.000 166405628.26299834

ANGLE_1 = 2016-10-10T18:52:00.000 89.47615425274518
ANGLE_2 = 2016-10-10T18:52:00.000 48.55570382793533
RANGE = 2016-10-10T18:52:00.000 166406377.5455198

ANGLE_1 = 2016-10-10T18:53:00.000 89.3283835568588
ANGLE_2 = 2016-10-10T18:53:00.000 48.75851554671449
RANGE = 2016-10-10T18:53:00.000 166407126.86177048

ANGLE_1 = 2016-10-10T18:54:00.000 89.17784469159241
ANGLE_2 = 2016-10-10T18:54:00.000 48.96092422747725
RANGE = 2016-10-10T18:54:00.000 166407876.259273

ANGLE_1 = 2016-10-10T18:55:00.000 89.02826156567815
ANGLE_2 = 2016-10-10T18:55:00.000 49.16413632907396
RANGE = 2016-10-10T18:55:00.000 166408625.70977837

ANGLE_1 = 2016-10-10T18:56:00.000 88.87759622519614
ANGLE_2 = 2016-10-10T18:56:00.000 49.366758394909446
RANGE = 2016-10-10T18:56:00.000 166409375.20699713

ANGLE_1 = 2016-10-10T18:57:00.000 88.72629221865641
ANGLE_2 = 2016-10-10T18:57:00.000 49.56966448745638
RANGE = 2016-10-10T18:57:00.000 166410124.7956753

ANGLE_1 = 2016-10-10T18:58:00.000 88.57526658502482
ANGLE_2 = 2016-10-10T18:58:00.000 49.772920139582304
RANGE = 2016-10-10T18:58:00.000 166410874.46980065

ANGLE_1 = 2016-10-10T18:59:00.000 88.42184492354548
ANGLE_2 = 2016-10-10T18:59:00.000 49.97638441770071
RANGE = 2016-10-10T18:59:00.000 166411624.1769866

ANGLE_1 = 2016-10-10T19:00:00.000 88.26831645947047
ANGLE_2 = 2016-10-10T19:00:00.000 50.17896898540048
RANGE = 2016-10-10T19:00:00.000 166412373.86890343

ANGLE_1 = 2016-10-10T19:01:00.000 88.11393622397256
ANGLE_2 = 2016-10-10T19:01:00.000 50.381268701149615
RANGE = 2016-10-10T19:01:00.000 166413123.72646874

ANGLE_1 = 2016-10-10T19:02:00.000 87.95982883380587
ANGLE_2 = 2016-10-10T19:02:00.000 50.584284382361034
RANGE = 2016-10-10T19:02:00.000 166413873.59141985

ANGLE_1 = 2016-10-10T19:03:00.000 87.80368160682313
ANGLE_2 = 2016-10-10T19:03:00.000 50.78762112085032
RANGE = 2016-10-10T19:03:00.000 166414623.5236996

ANGLE_1 = 2016-10-10T19:04:00.000 87.64782820268917
ANGLE_2 = 2016-10-10T19:04:00.000 50.99044980518801
RANGE = 2016-10-10T19:04:00.000 166415373.56245178

ANGLE_1 = 2016-10-10T19:05:00.000 87.49035578621178
ANGLE_2 = 2016-10-10T19:05:00.000 51.19251769194013
RANGE = 2016-10-10T19:05:00.000 166416123.59264046

ANGLE_1 = 2016-10-10T19:06:00.000 87.33331288848258
ANGLE_2 = 2016-10-10T19:06:00.000 51.3954568651269
RANGE = 2016-10-10T19:06:00.000 166416873.75911346

ANGLE_1 = 2016-10-10T19:07:00.000 87.17461420200583
ANGLE_2 = 2016-10-10T19:07:00.000 51.598382953818266
RANGE = 2016-10-10T19:07:00.000 166417623.94580576

ANGLE_1 = 2016-10-10T19:08:00.000 87.01443608392542
ANGLE_2 = 2016-10-10T19:08:00.000 51.80096907182638
RANGE = 2016-10-10T19:08:00.000 166418374.18577006

ANGLE_1 = 2016-10-10T19:09:00.000 86.85492369933918
ANGLE_2 = 2016-10-10T19:09:00.000 52.00359260072021
RANGE = 2016-10-10T19:09:00.000 166419124.53217295

ANGLE_1 = 2016-10-10T19:10:00.000 86.69356192801874
ANGLE_2 = 2016-10-10T19:10:00.000 52.20656074462271
RANGE = 2016-10-10T19:10:00.000 166419874.90453175

ANGLE_1 = 2016-10-10T19:11:00.000 86.53169238156244
ANGLE_2 = 2016-10-10T19:11:00.000 52.40894018460835
RANGE = 2016-10-10T19:11:00.000 166420625.37862265

ANGLE_1 = 2016-10-10T19:12:00.000 86.36873622147169
ANGLE_2 = 2016-10-10T19:12:00.000 52.6114437976466
RANGE = 2016-10-10T19:12:00.000 166421375.85593015

ANGLE_1 = 2016-10-10T19:13:00.000 86.20583310137025
ANGLE_2 = 2016-10-10T19:13:00.000 52.814562342921676
RANGE = 2016-10-10T19:13:00.000 166422126.43554348

ANGLE_1 = 2016-10-10T19:14:00.000 86.04115147136267
ANGLE_2 = 2016-10-10T19:14:00.000 53.01639701587853
RANGE = 2016-10-10T19:14:00.000 166422877.09219587

ANGLE_1 = 2016-10-10T19:15:00.000 85.87460356506615
ANGLE_2 = 2016-10-10T19:15:00.000 53.21916136307763
RANGE = 2016-10-10T19:15:00.000 166423627.80923054

ANGLE_1 = 2016-10-10T19:16:00.000 85.70827772859558
ANGLE_2 = 2016-10-10T19:16:00.000 53.42143702287733
RANGE = 2016-10-10T19:16:00.000 166424378.56373304

ANGLE_1 = 2016-10-10T19:17:00.000 85.54158409052573
ANGLE_2 = 2016-10-10T19:17:00.000 53.62376729622572
RANGE = 2016-10-10T19:17:00.000 166425129.3799513

ANGLE_1 = 2016-10-10T19:18:00.000 85.37254821916754
ANGLE_2 = 2016-10-10T19:18:00.000 53.82651097914056
RANGE = 2016-10-10T19:18:00.000 166425880.271075

ANGLE_1 = 2016-10-10T19:19:00.000 85.20383484249429
ANGLE_2 = 2016-10-10T19:19:00.000 54.028328277354866
RANGE = 2016-10-10T19:19:00.000 166426631.27039185

ANGLE_1 = 2016-10-10T19:20:00.000 85.0334111180431
ANGLE_2 = 2016-10-10T19:20:00.000 54.2310842207067
RANGE = 2016-10-10T19:20:00.000 166427382.305819

ANGLE_1 = 2016-10-10T19:21:00.000 84.8624244300638
ANGLE_2 = 2016-10-10T19:21:00.000 54.433174589377316
RANGE = 2016-10-10T19:21:00.000 166428133.40964973

ANGLE_1 = 2016-10-10T19:22:00.000 84.69054681650046
ANGLE_2 = 2016-10-10T19:22:00.000 54.63517807326437
RANGE = 2016-10-10T19:22:00.000 166428884.58335587

ANGLE_1 = 2016-10-10T19:23:00.000 84.51723365485353
ANGLE_2 = 2016-10-10T19:23:00.000 54.83742446736159
RANGE = 2016-10-10T19:23:00.000 166429635.8210291

ANGLE_1 = 2016-10-10T19:24:00.000 84.34202001345163
ANGLE_2 = 2016-10-10T19:24:00.000 55.03906511263254
RANGE = 2016-10-10T19:24:00.000 166430387.12055397

ANGLE_1 = 2016-10-10T19:25:00.000 84.16683413589432
ANGLE_2 = 2016-10-10T19:25:00.000 55.24133787482596
RANGE = 2016-10-10T19:25:00.000 166431138.49075377

ANGLE_1 = 2016-10-10T19:26:00.000 83.99034519527729
ANGLE_2 = 2016-10-10T19:26:00.000 55.44282366884024
RANGE = 2016-10-10T19:26:00.000 166431889.91212678

ANGLE_1 = 2016-10-10T19:27:00.000 83.812093560074
ANGLE_2 = 2016-10-10T19:27:00.000 55.64480185948448
RANGE = 2016-10-10T19:27:00.000 166432641.41243967

ANGLE_1 = 2016-10-10T19:28:00.000 83.63280344100924
ANGLE_2 = 2016-10-10T19:28:00.000 55.846372479366465
RANGE = 2016-10-10T19:28:00.000 166433392.99929968

ANGLE_1 = 2016-10-10T19:29:00.000 83.45255742466976
ANGLE_2 = 2016-10-10T19:29:00.000 56.04829778355826
RANGE = 2016-10-10T19:29:00.000 166434144.6440127

ANGLE_1 = 2016-10-10T19:30:00.000 83.2716166367955
ANGLE_2 = 2016-10-10T19:30:00.000 56.2496054786746
RANGE = 2016-10-10T19:30:00.000 166434896.34292608

ANGLE_1 = 2016-10-10T19:31:00.000 83.0893156512902
ANGLE_2 = 2016-10-10T19:31:00.000 56.45129974331896
RANGE = 2016-10-10T19:31:00.000 166435648.1334515

ANGLE_1 = 2016-10-10T19:32:00.000 82.90568984560102
ANGLE_2 = 2016-10-10T19:32:00.000 56.653265620366334
RANGE = 2016-10-10T19:32:00.000 166436399.96777847

ANGLE_1 = 2016-10-10T19:33:00.000 82.71967693192823
ANGLE_2 = 2016-10-10T19:33:00.000 56.853781479746125
RANGE = 2016-10-10T19:33:00.000 166437151.9259631

ANGLE_1 = 2016-10-10T19:34:00.000 82.53331795947577
ANGLE_2 = 2016-10-10T19:34:00.000 57.05607513569439
RANGE = 2016-10-10T19:34:00.000 166437903.92175183

ANGLE_1 = 2016-10-10T19:35:00.000 82.34637663645395
ANGLE_2 = 2016-10-10T19:35:00.000 57.257141150264374
RANGE = 2016-10-10T19:35:00.000 166438655.973541

ANGLE_1 = 2016-10-10T19:36:00.000 82.15653228150104
ANGLE_2 = 2016-10-10T19:36:00.000 57.45792805467189
RANGE = 2016-10-10T19:36:00.000 166439408.09857762

ANGLE_1 = 2016-10-10T19:37:00.000 81.96700873033525
ANGLE_2 = 2016-10-10T19:37:00.000 57.658964909782874
RANGE = 2016-10-10T19:37:00.000 166440160.2580417

ANGLE_1 = 2016-10-10T19:38:00.000 81.77400837137803
ANGLE_2 = 2016-10-10T19:38:00.000 57.86005756372287
RANGE = 2016-10-10T19:38:00.000 166440912.54954165

ANGLE_1 = 2016-10-10T19:39:00.000 81.58036174081067
ANGLE_2 = 2016-10-10T19:39:00.000 58.06035291950877
RANGE = 2016-10-10T19:39:00.000 166441664.87314156

ANGLE_1 = 2016-10-10T19:40:00.000 81.38637992366559
ANGLE_2 = 2016-10-10T19:40:00.000 58.261140205088445
RANGE = 2016-10-10T19:40:00.000 166442417.29149717

ANGLE_1 = 2016-10-10T19:41:00.000 81.1906982371463
ANGLE_2 = 2016-10-10T19:41:00.000 58.46273494127523
RANGE = 2016-10-10T19:41:00.000 166443169.79632366

ANGLE_1 = 2016-10-10T19:42:00.000 80.99224706198825
ANGLE_2 = 2016-10-10T19:42:00.000 58.662454524959486
RANGE = 2016-10-10T19:42:00.000 166443922.3619219

ANGLE_1 = 2016-10-10T19:43:00.000 80.7928097316466
ANGLE_2 = 2016-10-10T19:43:00.000 58.86263014998375
RANGE = 2016-10-10T19:43:00.000 166444674.98674476

ANGLE_1 = 2016-10-10T19:44:00.000 80.59225910918701
ANGLE_2 = 2016-10-10T19:44:00.000 59.06379228791707
RANGE = 2016-10-10T19:44:00.000 166445427.70662394

ANGLE_1 = 2016-10-10T19:45:00.000 80.38849609168572
ANGLE_2 = 2016-10-10T19:45:00.000 59.263631481269286
RANGE = 2016-10-10T19:45:00.000 166446180.43317094

ANGLE_1 = 2016-10-10T19:46:00.000 80.18504903808893
ANGLE_2 = 2016-10-10T19:46:00.000 59.463511637594735
RANGE = 2016-10-10T19:46:00.000 166446933.2883798

ANGLE_1 = 2016-10-10T19:47:00.000 79.97894944916628
ANGLE_2 = 2016-10-10T19:47:00.000 59.662969700232956
RANGE = 2016-10-10T19:47:00.000 166447686.20353758

ANGLE_1 = 2016-10-10T19:48:00.000 79.77137234286064
ANGLE_2 = 2016-10-10T19:48:00.000 59.86287571369357
RANGE = 2016-10-10T19:48:00.000 166448439.20479193

ANGLE_1 = 2016-10-10T19:49:00.000 79.56188338753962
ANGLE_2 = 2016-10-10T19:49:00.000 60.06289846090598
RANGE = 2016-10-10T19:49:00.000 166449192.2779273

ANGLE_1 = 2016-10-10T19:50:00.000 79.35071240508778
ANGLE_2 = 2016-10-10T19:50:00.000 60.26262376439548
RANGE = 2016-10-10T19:50:00.000 166449945.40310878

ANGLE_1 = 2016-10-10T19:51:00.000 79.1379895378213
ANGLE_2 = 2016-10-10T19:51:00.000 60.461933809653246
RANGE = 2016-10-10T19:51:00.000 166450698.64424506

ANGLE_1 = 2016-10-10T19:52:00.000 78.92279246410725
ANGLE_2 = 2016-10-10T19:52:00.000 60.66158842593021
RANGE = 2016-10-10T19:52:00.000 166451451.88974392

ANGLE_1 = 2016-10-10T19:53:00.000 78.70627620240573
ANGLE_2 = 2016-10-10T19:53:00.000 60.86004238427542
RANGE = 2016-10-10T19:53:00.000 166452205.25686124

ANGLE_1 = 2016-10-10T19:54:00.000 78.48768055733036
ANGLE_2 = 2016-10-10T19:54:00.000 61.05944533574738
RANGE = 2016-10-10T19:54:00.000 166452958.6810801

ANGLE_1 = 2016-10-10T19:55:00.000 78.26697536228735
ANGLE_2 = 2016-10-10T19:55:00.000 61.25808430975566
RANGE = 2016-10-10T19:55:00.000 166453712.18431678

ANGLE_1 = 2016-10-10T19:56:00.000 78.04395205311975
ANGLE_2 = 2016-10-10T19:56:00.000 61.4563718160957
RANGE = 2016-10-10T19:56:00.000 166454465.77672586

ANGLE_1 = 2016-10-10T19:57:00.000 77.81937156908562
ANGLE_2 = 2016-10-10T19:57:00.000 61.655393020927384
RANGE = 2016-10-10T19:57:00.000 166455219.41672894

ANGLE_1 = 2016-10-10T19:58:00.000 77.59305998080978
ANGLE_2 = 2016-10-10T19:58:00.000 61.853571036480815
RANGE = 2016-10-10T19:58:00.000 166455973.15977836

ANGLE_1 = 2016-10-10T19:59:00.000 77.36295061152589
ANGLE_2 = 2016-10-10T19:59:00.000 62.05183526712054
RANGE = 2016-10-10T19:59:00.000 166456726.93889624

ANGLE_1 = 2016-10-10T20:00:00.000 77.13252392385648
ANGLE_2 = 2016-10-10T20:00:00.000 62.249564814977646
RANGE = 2016-10-10T20:00:00.000 166457480.85626543

ANGLE_1 = 2016-10-10T20:01:00.000 76.8992604158194
ANGLE_2 = 2016-10-10T20:01:00.000 62.44804321409895
RANGE = 2016-10-10T20:01:00.000 166458234.79842854

ANGLE_1 = 2016-10-10T20:02:00.000 76.66258710435802
ANGLE_2 = 2016-10-10T20:02:00.000 62.64486093964612
RANGE = 2016-10-10T20:02:00.000 166458988.7947385

ANGLE_1 = 2016-10-10T20:03:00.000 76.42463916760961
ANGLE_2 = 2016-10-10T20:03:00.000 62.84195067461076
RANGE = 2016-10-10T20:03:00.000 166459742.92085895

ANGLE_1 = 2016-10-10T20:04:00.000 76.18432177567686
ANGLE_2 = 2016-10-10T20:04:00.000 63.03922261612335
RANGE = 2016-10-10T20:04:00.000 166460497.12685052

ANGLE_1 = 2016-10-10T20:05:00.000 75.94107434588032
ANGLE_2 = 2016-10-10T20:05:00.000 63.23635440553531
RANGE = 2016-10-10T20:05:00.000 166461251.3865353

ANGLE_1 = 2016-10-10T20:06:00.000 75.69616543587765
ANGLE_2 = 2016-10-10T20:06:00.000 63.43293795867707
RANGE = 2016-10-10T20:06:00.000 166462005.7079379

ANGLE_1 = 2016-10-10T20:07:00.000 75.44772245789133
ANGLE_2 = 2016-10-10T20:07:00.000 63.63031202040748
RANGE = 2016-10-10T20:07:00.000 166462760.13569418

ANGLE_1 = 2016-10-10T20:08:00.000 75.19749079036167
ANGLE_2 = 2016-10-10T20:08:00.000 63.82655366778244
RANGE = 2016-10-10T20:08:00.000 166463514.58370498

ANGLE_1 = 2016-10-10T20:09:00.000 74.94432416658643
ANGLE_2 = 2016-10-10T20:09:00.000 64.02191748759732
RANGE = 2016-10-10T20:09:00.000 166464269.17725754

ANGLE_1 = 2016-10-10T20:10:00.000 74.68766919592557
ANGLE_2 = 2016-10-10T20:10:00.000 64.21827131422874
RANGE = 2016-10-10T20:10:00.000 166465023.82390174

ANGLE_1 = 2016-10-10T20:11:00.000 74.4293751891528
ANGLE_2 = 2016-10-10T20:11:00.000 64.41372447152635
RANGE = 2016-10-10T20:11:00.000 166465778.521501

ANGLE_1 = 2016-10-10T20:12:00.000 74.16765390973339
ANGLE_2 = 2016-10-10T20:12:00.000 64.6095089497194
RANGE = 2016-10-10T20:12:00.000 166466533.32451692

ANGLE_1 = 2016-10-10T20:13:00.000 73.90356845525336
ANGLE_2 = 2016-10-10T20:13:00.000 64.80468803334587
RANGE = 2016-10-10T20:13:00.000 166467288.21489283

ANGLE_1 = 2016-10-10T20:14:00.000 73.63562319312763
ANGLE_2 = 2016-10-10T20:14:00.000 64.99923836056989
RANGE = 2016-10-10T20:14:00.000 166468043.15023556

ANGLE_1 = 2016-10-10T20:15:00.000 73.36526221418092
ANGLE_2 = 2016-10-10T20:15:00.000 65.19423817965557
RANGE = 2016-10-10T20:15:00.000 166468798.2188501

ANGLE_1 = 2016-10-10T20:16:00.000 73.09134850048872
ANGLE_2 = 2016-10-10T20:16:00.000 65.38851776461566
RANGE = 2016-10-10T20:16:00.000 166469553.319687

ANGLE_1 = 2016-10-10T20:17:00.000 72.81364711612014
ANGLE_2 = 2016-10-10T20:17:00.000 65.58272947879823
RANGE = 2016-10-10T20:17:00.000 166470308.5108694

ANGLE_1 = 2016-10-10T20:18:00.000 72.53393486898702
ANGLE_2 = 2016-10-10T20:18:00.000 65.77621294849642
RANGE = 2016-10-10T20:18:00.000 166471063.76618224

ANGLE_1 = 2016-10-10T20:19:00.000 72.25126569717392
ANGLE_2 = 2016-10-10T20:19:00.000 65.96950430733209
RANGE = 2016-10-10T20:19:00.000 166471819.11693037

ANGLE_1 = 2016-10-10T20:20:00.000 71.96350070931994
ANGLE_2 = 2016-10-10T20:20:00.000 66.16233005997485
RANGE = 2016-10-10T20:20:00.000 166472574.5575937

ANGLE_1 = 2016-10-10T20:21:00.000 71.67333870195779
ANGLE_2 = 2016-10-10T20:21:00.000 66.35564706190857
RANGE = 2016-10-10T20:21:00.000 166473330.04932362

ANGLE_1 = 2016-10-10T20:22:00.000 71.37928683560003
ANGLE_2 = 2016-10-10T20:22:00.000 66.54790529065279
RANGE = 2016-10-10T20:22:00.000 166474085.65141517

ANGLE_1 = 2016-10-10T20:23:00.000 71.08078922814407
ANGLE_2 = 2016-10-10T20:23:00.000 66.74048296208579
RANGE = 2016-10-10T20:23:00.000 166474841.3010235

ANGLE_1 = 2016-10-10T20:24:00.000 70.77963358878812
ANGLE_2 = 2016-10-10T20:24:00.000 66.93222565168696
RANGE = 2016-10-10T20:24:00.000 166475597.0621954

ANGLE_1 = 2016-10-10T20:25:00.000 70.4745854169258
ANGLE_2 = 2016-10-10T20:25:00.000 67.12312405859453
RANGE = 2016-10-10T20:25:00.000 166476352.8631065

ANGLE_1 = 2016-10-10T20:26:00.000 70.16555602898352
ANGLE_2 = 2016-10-10T20:26:00.000 67.31399074909243
RANGE = 2016-10-10T20:26:00.000 166477108.807335

ANGLE_1 = 2016-10-10T20:27:00.000 69.85188911092013
ANGLE_2 = 2016-10-10T20:27:00.000 67.50500374808203
RANGE = 2016-10-10T20:27:00.000 166477864.76923192

ANGLE_1 = 2016-10-10T20:28:00.000 69.53498326829836
ANGLE_2 = 2016-10-10T20:28:00.000 67.6957487208018
RANGE = 2016-10-10T20:28:00.000 166478620.8481813

ANGLE_1 = 2016-10-10T20:29:00.000 69.21325207436558
ANGLE_2 = 2016-10-10T20:29:00.000 67.88525642659539
RANGE = 2016-10-10T20:29:00.000 166479376.9788187

ANGLE_1 = 2016-10-10T20:30:00.000 68.88739096470822
ANGLE_2 = 2016-10-10T20:30:00.000 68.07485792097596
RANGE = 2016-10-10T20:30:00.000 166480133.2341472

ANGLE_1 = 2016-10-10T20:31:00.000 68.55742100717134
ANGLE_2 = 2016-10-10T20:31:00.000 68.2642966868116
RANGE = 2016-10-10T20:31:00.000 166480889.47272635

ANGLE_1 = 2016-10-10T20:32:00.000 68.22133733304517
ANGLE_2 = 2016-10-10T20:32:00.000 68.45330437062799
RANGE = 2016-10-10T20:32:00.000 166481645.89559674

ANGLE_1 = 2016-10-10T20:33:00.000 67.8823552947073
ANGLE_2 = 2016-10-10T20:33:00.000 68.64076476071413
RANGE = 2016-10-10T20:33:00.000 166482402.35545227

ANGLE_1 = 2016-10-10T20:34:00.000 67.53867640914868
ANGLE_2 = 2016-10-10T20:34:00.000 68.82907406434211
RANGE = 2016-10-10T20:34:00.000 166483158.8902471

ANGLE_1 = 2016-10-10T20:35:00.000 67.18910334325247
ANGLE_2 = 2016-10-10T20:35:00.000 69.01589024206845
RANGE = 2016-10-10T20:35:00.000 166483915.58255208

ANGLE_1 = 2016-10-10T20:36:00.000 66.83540867765892
ANGLE_2 = 2016-10-10T20:36:00.000 69.20341075849602
RANGE = 2016-10-10T20:36:00.000 166484672.26605216

ANGLE_1 = 2016-10-10T20:37:00.000 66.47592616074337
ANGLE_2 = 2016-10-10T20:37:00.000 69.38872018795382
RANGE = 2016-10-10T20:37:00.000 166485429.06495893

ANGLE_1 = 2016-10-10T20:38:00.000 66.11150167015639
ANGLE_2 = 2016-10-10T20:38:00.000 69.57534546211657
RANGE = 2016-10-10T20:38:00.000 166486185.91777724

ANGLE_1 = 2016-10-10T20:39:00.000 65.74156668394431
ANGLE_2 = 2016-10-10T20:39:00.000 69.7604746401109
RANGE = 2016-10-10T20:39:00.000 166486942.88863105

ANGLE_1 = 2016-10-10T20:40:00.000 65.36614220170759
ANGLE_2 = 2016-10-10T20:40:00.000 69.94574267767763
RANGE = 2016-10-10T20:40:00.000 166487699.92243755

ANGLE_1 = 2016-10-10T20:41:00.000 64.98473667759245
ANGLE_2 = 2016-10-10T20:41:00.000 70.12953364322529
RANGE = 2016-10-10T20:41:00.000 166488457.03780952

ANGLE_1 = 2016-10-10T20:42:00.000 64.59764607725992
ANGLE_2 = 2016-10-10T20:42:00.000 70.3132725046083
RANGE = 2016-10-10T20:42:00.000 166489214.25248045

ANGLE_1 = 2016-10-10T20:43:00.000 64.20540678663771
ANGLE_2 = 2016-10-10T20:43:00.000 70.49637271800805
RANGE = 2016-10-10T20:43:00.000 166489971.5470367

ANGLE_1 = 2016-10-10T20:44:00.000 63.80590092632429
ANGLE_2 = 2016-10-10T20:44:00.000 70.6785103978286
RANGE = 2016-10-10T20:44:00.000 166490728.87026307

ANGLE_1 = 2016-10-10T20:45:00.000 63.401298553782425
ANGLE_2 = 2016-10-10T20:45:00.000 70.86030120238469
RANGE = 2016-10-10T20:45:00.000 166491486.35890907

ANGLE_1 = 2016-10-10T20:46:00.000 62.98889423033352
ANGLE_2 = 2016-10-10T20:46:00.000 71.0414074772896
RANGE = 2016-10-10T20:46:00.000 166492243.9101133

ANGLE_1 = 2016-10-10T20:47:00.000 62.570915201345436
ANGLE_2 = 2016-10-10T20:47:00.000 71.221910154027
RANGE = 2016-10-10T20:47:00.000 166493001.50390524

ANGLE_1 = 2016-10-10T20:48:00.000 62.146746765843844
ANGLE_2 = 2016-10-10T20:48:00.000 71.40165098298642
RANGE = 2016-10-10T20:48:00.000 166493759.19201678

ANGLE_1 = 2016-10-10T20:49:00.000 61.71471371779806
ANGLE_2 = 2016-10-10T20:49:00.000 71.58164763599305
RANGE = 2016-10-10T20:49:00.000 166494516.9731425

ANGLE_1 = 2016-10-10T20:50:00.000 61.276169424182235
ANGLE_2 = 2016-10-10T20:50:00.000 71.75978555861599
RANGE = 2016-10-10T20:50:00.000 166495274.86281648

ANGLE_1 = 2016-10-10T20:51:00.000 60.82977867122388
ANGLE_2 = 2016-10-10T20:51:00.000 71.93629946181792
RANGE = 2016-10-10T20:51:00.000 166496032.76822287

ANGLE_1 = 2016-10-10T20:52:00.000 60.376697247398575
ANGLE_2 = 2016-10-10T20:52:00.000 72.11446475233068
RANGE = 2016-10-10T20:52:00.000 166496790.8414006

ANGLE_1 = 2016-10-10T20:53:00.000 59.9151750829213
ANGLE_2 = 2016-10-10T20:53:00.000 72.28991014148035
RANGE = 2016-10-10T20:53:00.000 166497548.9643267

ANGLE_1 = 2016-10-10T20:54:00.000 59.44644216101278
ANGLE_2 = 2016-10-10T20:54:00.000 72.46538336988432
RANGE = 2016-10-10T20:54:00.000 166498307.1435273

ANGLE_1 = 2016-10-10T20:55:00.000 58.968736059634075
ANGLE_2 = 2016-10-10T20:55:00.000 72.6393435948723
RANGE = 2016-10-10T20:55:00.000 166499065.40879405

ANGLE_1 = 2016-10-10T20:56:00.000 58.48334331138583
ANGLE_2 = 2016-10-10T20:56:00.000 72.81324275506132
RANGE = 2016-10-10T20:56:00.000 166499823.8304705

ANGLE_1 = 2016-10-10T20:57:00.000 57.989179113186026
ANGLE_2 = 2016-10-10T20:57:00.000 72.9851090874538
RANGE = 2016-10-10T20:57:00.000 166500582.27795053

ANGLE_1 = 2016-10-10T20:58:00.000 57.4872857935538
ANGLE_2 = 2016-10-10T20:58:00.000 73.15731821460611
RANGE = 2016-10-10T20:58:00.000 166501340.8240992

ANGLE_1 = 2016-10-10T20:59:00.000 56.975803812881544
ANGLE_2 = 2016-10-10T20:59:00.000 73.32782122776864
RANGE = 2016-10-10T20:59:00.000 166502099.41921422

ANGLE_1 = 2016-10-10T21:00:00.000 56.45539893514778
ANGLE_2 = 2016-10-10T21:00:00.000 73.49728090396525
RANGE = 2016-10-10T21:00:00.000 166502858.13736573

ANGLE_1 = 2016-10-10T21:01:00.000 55.9252959050205
ANGLE_2 = 2016-10-10T21:01:00.000 73.66570917983634
RANGE = 2016-10-10T21:01:00.000 166503616.9100627

ANGLE_1 = 2016-10-10T21:02:00.000 55.385716908065405
ANGLE_2 = 2016-10-10T21:02:00.000 73.8333371290365
RANGE = 2016-10-10T21:02:00.000 166504375.81232998

ANGLE_1 = 2016-10-10T21:03:00.000 54.83722607032462
ANGLE_2 = 2016-10-10T21:03:00.000 74.00066424831392
RANGE = 2016-10-10T21:03:00.000 166505134.76386458

ANGLE_1 = 2016-10-10T21:04:00.000 54.27745681980308
ANGLE_2 = 2016-10-10T21:04:00.000 74.16550373634807
RANGE = 2016-10-10T21:04:00.000 166505893.7788367

ANGLE_1 = 2016-10-10T21:05:00.000 53.707815437895555
ANGLE_2 = 2016-10-10T21:05:00.000 74.32962694592486
RANGE = 2016-10-10T21:05:00.000 166506652.95487064

ANGLE_1 = 2016-10-10T21:06:00.000 53.1278187623045
ANGLE_2 = 2016-10-10T21:06:00.000 74.49233679430135
RANGE = 2016-10-10T21:06:00.000 166507412.13225377

ANGLE_1 = 2016-10-10T21:07:00.000 52.53738059117766
ANGLE_2 = 2016-10-10T21:07:00.000 74.6544836642161
RANGE = 2016-10-10T21:07:00.000 166508171.45151585

ANGLE_1 = 2016-10-10T21:08:00.000 51.93499207745411
ANGLE_2 = 2016-10-10T21:08:00.000 74.81454509704254
RANGE = 2016-10-10T21:08:00.000 166508930.8531618

ANGLE_1 = 2016-10-10T21:09:00.000 51.32141378747908
ANGLE_2 = 2016-10-10T21:09:00.000 74.97375521245813
RANGE = 2016-10-10T21:09:00.000 166509690.2518456

ANGLE_1 = 2016-10-10T21:10:00.000 50.6964437006775
ANGLE_2 = 2016-10-10T21:10:00.000 75.1310248395056
RANGE = 2016-10-10T21:10:00.000 166510449.87098274

ANGLE_1 = 2016-10-10T21:11:00.000 50.059398470935875
ANGLE_2 = 2016-10-10T21:11:00.000 75.28774990033521
RANGE = 2016-10-10T21:11:00.000 166511209.46146342

ANGLE_1 = 2016-10-10T21:12:00.000 49.411343831393154
ANGLE_2 = 2016-10-10T21:12:00.000 75.44280972436616
RANGE = 2016-10-10T21:12:00.000 166511969.26495722

ANGLE_1 = 2016-10-10T21:13:00.000 48.74986583868866
ANGLE_2 = 2016-10-10T21:13:00.000 75.59594384888997
RANGE = 2016-10-10T21:13:00.000 166512729.04873878

ANGLE_1 = 2016-10-10T21:14:00.000 48.07548925767296
ANGLE_2 = 2016-10-10T21:14:00.000 75.74798019127172
RANGE = 2016-10-10T21:14:00.000 166513488.92242798

ANGLE_1 = 2016-10-10T21:15:00.000 47.388056352330544
ANGLE_2 = 2016-10-10T21:15:00.000 75.89795705222305
RANGE = 2016-10-10T21:15:00.000 166514248.93285468

ANGLE_1 = 2016-10-10T21:16:00.000 46.688718144485925
ANGLE_2 = 2016-10-10T21:16:00.000 76.04613084470863
RANGE = 2016-10-10T21:16:00.000 166515009.00793105

ANGLE_1 = 2016-10-10T21:17:00.000 45.974925096857355
ANGLE_2 = 2016-10-10T21:17:00.000 76.19322641411469
RANGE = 2016-10-10T21:17:00.000 166515769.13046938

ANGLE_1 = 2016-10-10T21:18:00.000 45.247162407628366
ANGLE_2 = 2016-10-10T21:18:00.000 76.33782223491588
RANGE = 2016-10-10T21:18:00.000 166516529.3956192

ANGLE_1 = 2016-10-10T21:19:00.000 44.50523907490468
ANGLE_2 = 2016-10-10T21:19:00.000 76.48131327131622
RANGE = 2016-10-10T21:19:00.000 166517289.69653848

ANGLE_1 = 2016-10-10T21:20:00.000 43.75039151860863
ANGLE_2 = 2016-10-10T21:20:00.000 76.62275946221918
RANGE = 2016-10-10T21:20:00.000 166518050.11978558

ANGLE_1 = 2016-10-10T21:21:00.000 42.97968434821883
ANGLE_2 = 2016-10-10T21:21:00.000 76.76207133281399
RANGE = 2016-10-10T21:21:00.000 166518810.6362419

ANGLE_1 = 2016-10-10T21:22:00.000 42.194054699872346
ANGLE_2 = 2016-10-10T21:22:00.000 76.8995127482252
RANGE = 2016-10-10T21:22:00.000 166519571.16438282

ANGLE_1 = 2016-10-10T21:23:00.000 41.39437422708201
ANGLE_2 = 2016-10-10T21:23:00.000 77.0344419479699
RANGE = 2016-10-10T21:23:00.000 166520331.85008365

ANGLE_1 = 2016-10-10T21:24:00.000 40.577763934497305
ANGLE_2 = 2016-10-10T21:24:00.000 77.16771480932918
RANGE = 2016-10-10T21:24:00.000 166521092.66124225

ANGLE_1 = 2016-10-10T21:25:00.000 39.74700263649303
ANGLE_2 = 2016-10-10T21:25:00.000 77.29889229517123
RANGE = 2016-10-10T21:25:00.000 166521853.4820082

ANGLE_1 = 2016-10-10T21:26:00.000 38.900388373191916
ANGLE_2 = 2016-10-10T21:26:00.000 77.42690084769366
RANGE = 2016-10-10T21:26:00.000 166522614.43247962

ANGLE_1 = 2016-10-10T21:27:00.000 38.03768740813971
ANGLE_2 = 2016-10-10T21:27:00.000 77.55356375711555
RANGE = 2016-10-10T21:27:00.000 166523375.4274075

ANGLE_1 = 2016-10-10T21:28:00.000 37.159440214652854
ANGLE_2 = 2016-10-10T21:28:00.000 77.67694532319875
RANGE = 2016-10-10T21:28:00.000 166524136.57008278

ANGLE_1 = 2016-10-10T21:29:00.000 36.26333932986743
ANGLE_2 = 2016-10-10T21:29:00.000 77.79813745775822
RANGE = 2016-10-10T21:29:00.000 166524897.7646014

ANGLE_1 = 2016-10-10T21:30:00.000 35.35165072269917
ANGLE_2 = 2016-10-10T21:30:00.000 77.91762424967698
RANGE = 2016-10-10T21:30:00.000 166525659.02186355

ANGLE_1 = 2016-10-10T21:31:00.000 34.42351408581413
ANGLE_2 = 2016-10-10T21:31:00.000 78.03320005026708
RANGE = 2016-10-10T21:31:00.000 166526420.3751836

ANGLE_1 = 2016-10-10T21:32:00.000 33.478201572868784
ANGLE_2 = 2016-10-10T21:32:00.000 78.14607365633253
RANGE = 2016-10-10T21:32:00.000 166527181.87579203

ANGLE_1 = 2016-10-10T21:33:00.000 32.51646328129907
ANGLE_2 = 2016-10-10T21:33:00.000 78.2574403909044
RANGE = 2016-10-10T21:33:00.000 166527943.38760763

ANGLE_1 = 2016-10-10T21:34:00.000 31.53849469603514
ANGLE_2 = 2016-10-10T21:34:00.000 78.3639618325997
RANGE = 2016-10-10T21:34:00.000 166528705.0208525

ANGLE_1 = 2016-10-10T21:35:00.000 30.54356874635268
ANGLE_2 = 2016-10-10T21:35:00.000 78.46920299248136
RANGE = 2016-10-10T21:35:00.000 166529466.71334353

ANGLE_1 = 2016-10-10T21:36:00.000 29.53228978967033
ANGLE_2 = 2016-10-10T21:36:00.000 78.57098483616794
RANGE = 2016-10-10T21:36:00.000 166530228.5193468

ANGLE_1 = 2016-10-10T21:37:00.000 28.503403395697358
ANGLE_2 = 2016-10-10T21:37:00.000 78.66910998483661
RANGE = 2016-10-10T21:37:00.000 166530990.4184927

ANGLE_1 = 2016-10-10T21:38:00.000 27.458432118155248
ANGLE_2 = 2016-10-10T21:38:00.000 78.76477439458299
RANGE = 2016-10-10T21:38:00.000 166531752.35887995

ANGLE_1 = 2016-10-10T21:39:00.000 26.397227440005643
ANGLE_2 = 2016-10-10T21:39:00.000 78.85589006617418
RANGE = 2016-10-10T21:39:00.000 166532514.47743252

ANGLE_1 = 2016-10-10T21:40:00.000 25.31990848617882
ANGLE_2 = 2016-10-10T21:40:00.000 78.9443656169541
RANGE = 2016-10-10T21:40:00.000 166533276.60144258

ANGLE_1 = 2016-10-10T21:41:00.000 24.226032528261946
ANGLE_2 = 2016-10-10T21:41:00.000 79.02989665002208
RANGE = 2016-10-10T21:41:00.000 166534038.84549817

ANGLE_1 = 2016-10-10T21:42:00.000 23.11700979687487
ANGLE_2 = 2016-10-10T21:42:00.000 79.1113553705455
RANGE = 2016-10-10T21:42:00.000 166534801.16975182

ANGLE_1 = 2016-10-10T21:43:00.000 21.992303796477568
ANGLE_2 = 2016-10-10T21:43:00.000 79.18899851710702
RANGE = 2016-10-10T21:43:00.000 166535563.55602536

ANGLE_1 = 2016-10-10T21:44:00.000 20.85260845342016
ANGLE_2 = 2016-10-10T21:44:00.000 79.26306885484509
RANGE = 2016-10-10T21:44:00.000 166536326.06939426

ANGLE_1 = 2016-10-10T21:45:00.000 19.69846441573778
ANGLE_2 = 2016-10-10T21:45:00.000 79.33391317341578
RANGE = 2016-10-10T21:45:00.000 166537088.6516274

ANGLE_1 = 2016-10-10T21:46:00.000 18.530337770176125
ANGLE_2 = 2016-10-10T21:46:00.000 79.39985796812033
RANGE = 2016-10-10T21:46:00.000 166537851.34920695

ANGLE_1 = 2016-10-10T21:47:00.000 17.349009420713212
ANGLE_2 = 2016-10-10T21:47:00.000 79.46248836992692
RANGE = 2016-10-10T21:47:00.000 166538614.09183365

ANGLE_1 = 2016-10-10T21:48:00.000 16.154545155925163
ANGLE_2 = 2016-10-10T21:48:00.000 79.52092031091048
RANGE = 2016-10-10T21:48:00.000 166539376.9778055

ANGLE_1 = 2016-10-10T21:49:00.000 14.94833911483036
ANGLE_2 = 2016-10-10T21:49:00.000 79.57502709047078
RANGE = 2016-10-10T21:49:00.000 166540139.89538613

ANGLE_1 = 2016-10-10T21:50:00.000 13.730469239832994
ANGLE_2 = 2016-10-10T21:50:00.000 79.62502401280145
RANGE = 2016-10-10T21:50:00.000 166540902.944305

ANGLE_1 = 2016-10-10T21:51:00.000 12.501846587424655
ANGLE_2 = 2016-10-10T21:51:00.000 79.67095970876466
RANGE = 2016-10-10T21:51:00.000 166541666.02163848

ANGLE_1 = 2016-10-10T21:52:00.000 11.262932779154967
ANGLE_2 = 2016-10-10T21:52:00.000 79.71301022099458
RANGE = 2016-10-10T21:52:00.000 166542429.20924255

ANGLE_1 = 2016-10-10T21:53:00.000 10.014477200567844
ANGLE_2 = 2016-10-10T21:53:00.000 79.75049626444199
RANGE = 2016-10-10T21:53:00.000 166543192.49566963

ANGLE_1 = 2016-10-10T21:54:00.000 8.758852106751643
ANGLE_2 = 2016-10-10T21:54:00.000 79.78321554482763
RANGE = 2016-10-10T21:54:00.000 166543955.8825699

ANGLE_1 = 2016-10-10T21:55:00.000 7.495919037822755
ANGLE_2 = 2016-10-10T21:55:00.000 79.81200334486488
RANGE = 2016-10-10T21:55:00.000 166544719.36546862

ANGLE_1 = 2016-10-10T21:56:00.000 6.227121128156311
ANGLE_2 = 2016-10-10T21:56:00.000 79.83637674872752
RANGE = 2016-10-10T21:56:00.000 166545482.8806337

ANGLE_1 = 2016-10-10T21:57:00.000 4.9522220985017205
ANGLE_2 = 2016-10-10T21:57:00.000 79.85553417751663
RANGE = 2016-10-10T21:57:00.000 166546246.5456119

ANGLE_1 = 2016-10-10T21:58:00.000 3.6736782601697593
ANGLE_2 = 2016-10-10T21:58:00.000 79.87086541378046
RANGE = 2016-10-10T21:58:00.000 166547010.24867013

ANGLE_1 = 2016-10-10T21:59:00.000 2.392056656657515
ANGLE_2 = 2016-10-10T21:59:00.000 79.88208785572702
RANGE = 2016-10-10T21:59:00.000 166547774.07942763

ANGLE_1 = 2016-10-10T22:00:00.000 1.1085078159138224
ANGLE_2 = 2016-10-10T22:00:00.000 79.88822299358196
RANGE = 2016-10-10T22:00:00.000 166548537.98224664

ANGLE_1 = 2016-10-10T22:01:00.000 359.82418764937665
ANGLE_2 = 2016-10-10T22:01:00.000 79.88981485820449
RANGE = 2016-10-10T22:01:00.000 166549301.94102445

ANGLE_1 = 2016-10-10T22:02:00.000 358.5395058386348
ANGLE_2 = 2016-10-10T22:02:00.000 79.88643979684848
RANGE = 2016-10-10T22:02:00.000 166550066.04747224

ANGLE_1 = 2016-10-10T22:03:00.000 357.25588662427344
ANGLE_2 = 2016-10-10T22:03:00.000 79.8792844369183
RANGE = 2016-10-10T22:03:00.000 166550830.21943125

ANGLE_1 = 2016-10-10T22:04:00.000 355.97564123070043
ANGLE_2 = 2016-10-10T22:04:00.000 79.86679706798311
RANGE = 2016-10-10T22:04:00.000 166551594.47156695

ANGLE_1 = 2016-10-10T22:05:00.000 354.69801458630633
ANGLE_2 = 2016-10-10T22:05:00.000 79.85083686942423
RANGE = 2016-10-10T22:05:00.000 166552358.81380564

ANGLE_1 = 2016-10-10T22:06:00.000 353.42514443921215
ANGLE_2 = 2016-10-10T22:06:00.000 79.82937935290933
RANGE = 2016-10-10T22:06:00.000 166553123.1971971

ANGLE_1 = 2016-10-10T22:07:00.000 352.15730854809254
ANGLE_2 = 2016-10-10T22:07:00.000 79.80342209827305
RANGE = 2016-10-10T22:07:00.000 166553887.75493458

ANGLE_1 = 2016-10-10T22:08:00.000 350.89703693616184
ANGLE_2 = 2016-10-10T22:08:00.000 79.77364636195206
RANGE = 2016-10-10T22:08:00.000 166554652.3195228

ANGLE_1 = 2016-10-10T22:09:00.000 349.6436855761782
ANGLE_2 = 2016-10-10T22:09:00.000 79.73950518284937
RANGE = 2016-10-10T22:09:00.000 166555417.0419942

ANGLE_1 = 2016-10-10T22:10:00.000 348.3983303269573
ANGLE_2 = 2016-10-10T22:10:00.000 79.70082675700999
RANGE = 2016-10-10T22:10:00.000 166556181.80188382

ANGLE_1 = 2016-10-10T22:11:00.000 347.1621826595289
ANGLE_2 = 2016-10-10T22:11:00.000 79.65816778988037
RANGE = 2016-10-10T22:11:00.000 166556946.69198158

ANGLE_1 = 2016-10-10T22:12:00.000 345.93731972334587
ANGLE_2 = 2016-10-10T22:12:00.000 79.61033125252098
RANGE = 2016-10-10T22:12:00.000 166557711.61151725

ANGLE_1 = 2016-10-10T22:13:00.000 344.7228586146645
ANGLE_2 = 2016-10-10T22:13:00.000 79.5589922590425
RANGE = 2016-10-10T22:13:00.000 166558476.6650785

ANGLE_1 = 2016-10-10T22:14:00.000 343.5190121428411
ANGLE_2 = 2016-10-10T22:14:00.000 79.50260461842055
RANGE = 2016-10-10T22:14:00.000 166559241.8103446

ANGLE_1 = 2016-10-10T22:15:00.000 342.32875832605384
ANGLE_2 = 2016-10-10T22:15:00.000 79.44427910524695
RANGE = 2016-10-10T22:15:00.000 166560007.0130152

ANGLE_1 = 2016-10-10T22:16:00.000 341.151663397133
ANGLE_2 = 2016-10-10T22:16:00.000 79.38017503140486
RANGE = 2016-10-10T22:16:00.000 166560772.34944144

ANGLE_1 = 2016-10-10T22:17:00.000 339.98761357679
ANGLE_2 = 2016-10-10T22:17:00.000 79.31195525710358
RANGE = 2016-10-10T22:17:00.000 166561537.72249815

ANGLE_1 = 2016-10-10T22:18:00.000 338.8379135042063
ANGLE_2 = 2016-10-10T22:18:00.000 79.24066350964031
RANGE = 2016-10-10T22:18:00.000 166562303.1575624

ANGLE_1 = 2016-10-10T22:19:00.000 337.70311543596966
ANGLE_2 = 2016-10-10T22:19:00.000 79.16572791512961
RANGE = 2016-10-10T22:19:00.000 166563068.7749509

ANGLE_1 = 2016-10-10T22:20:00.000 336.58240409468226
ANGLE_2 = 2016-10-10T22:20:00.000 79.0872294177375
RANGE = 2016-10-10T22:20:00.000 166563834.39952806

ANGLE_1 = 2016-10-10T22:21:00.000 335.47812880325927
ANGLE_2 = 2016-10-10T22:21:00.000 79.00413371933017
RANGE = 2016-10-10T22:21:00.000 166564600.13002333

ANGLE_1 = 2016-10-10T22:22:00.000 334.38921622911454
ANGLE_2 = 2016-10-10T22:22:00.000 78.91775115192061
RANGE = 2016-10-10T22:22:00.000 166565365.98453405

ANGLE_1 = 2016-10-10T22:23:00.000 333.3165813187569
ANGLE_2 = 2016-10-10T22:23:00.000 78.82835303571227
RANGE = 2016-10-10T22:23:00.000 166566131.8838907

ANGLE_1 = 2016-10-10T22:24:00.000 332.26063368728995
ANGLE_2 = 2016-10-10T22:24:00.000 78.73567805747342
RANGE = 2016-10-10T22:24:00.000 166566897.90176985

ANGLE_1 = 2016-10-10T22:25:00.000 331.22049717533196
ANGLE_2 = 2016-10-10T22:25:00.000 78.63945023133874
RANGE = 2016-10-10T22:25:00.000 166567664.00075832

ANGLE_1 = 2016-10-10T22:26:00.000 330.1964333595143
ANGLE_2 = 2016-10-10T22:26:00.000 78.54021250748004
RANGE = 2016-10-10T22:26:00.000 166568430.1549885

ANGLE_1 = 2016-10-10T22:27:00.000 329.1899392914953
ANGLE_2 = 2016-10-10T22:27:00.000 78.43752948375841
RANGE = 2016-10-10T22:27:00.000 166569196.4223741

ANGLE_1 = 2016-10-10T22:28:00.000 328.2005266596994
ANGLE_2 = 2016-10-10T22:28:00.000 78.33167332363773
RANGE = 2016-10-10T22:28:00.000 166569962.78082433

ANGLE_1 = 2016-10-10T22:29:00.000 327.22764181720754
ANGLE_2 = 2016-10-10T22:29:00.000 78.22401716765378
RANGE = 2016-10-10T22:29:00.000 166570729.17906708

ANGLE_1 = 2016-10-10T22:30:00.000 326.27107383816514
ANGLE_2 = 2016-10-10T22:30:00.000 78.11252233686209
RANGE = 2016-10-10T22:30:00.000 166571495.73106828

ANGLE_1 = 2016-10-10T22:31:00.000 325.3310130953114
ANGLE_2 = 2016-10-10T22:31:00.000 77.99806682636209
RANGE = 2016-10-10T22:31:00.000 166572262.3229214

ANGLE_1 = 2016-10-10T22:32:00.000 324.4082977652851
ANGLE_2 = 2016-10-10T22:32:00.000 77.88144600621409
RANGE = 2016-10-10T22:32:00.000 166573029.0587146

ANGLE_1 = 2016-10-10T22:33:00.000 323.50143486783065
ANGLE_2 = 2016-10-10T22:33:00.000 77.76166709349124
RANGE = 2016-10-10T22:33:00.000 166573795.80383432

ANGLE_1 = 2016-10-10T22:34:00.000 322.61135713276866
ANGLE_2 = 2016-10-10T22:34:00.000 77.6402979173938
RANGE = 2016-10-10T22:34:00.000 166574562.69879365

ANGLE_1 = 2016-10-10T22:35:00.000 321.73701232415215
ANGLE_2 = 2016-10-10T22:35:00.000 77.5151359862795
RANGE = 2016-10-10T22:35:00.000 166575329.6857837

ANGLE_1 = 2016-10-10T22:36:00.000 320.8791355453699
ANGLE_2 = 2016-10-10T22:36:00.000 77.38867306784168
RANGE = 2016-10-10T22:36:00.000 166576096.69070488

ANGLE_1 = 2016-10-10T22:37:00.000 320.0365426665399
ANGLE_2 = 2016-10-10T22:37:00.000 77.25908737742125
RANGE = 2016-10-10T22:37:00.000 166576863.844315

ANGLE_1 = 2016-10-10T22:38:00.000 319.21026828810193
ANGLE_2 = 2016-10-10T22:38:00.000 77.12781696115356
RANGE = 2016-10-10T22:38:00.000 166577631.03507626

ANGLE_1 = 2016-10-10T22:39:00.000 318.3991780909884
ANGLE_2 = 2016-10-10T22:39:00.000 76.99286156398384
RANGE = 2016-10-10T22:39:00.000 166578398.38203517

ANGLE_1 = 2016-10-10T22:40:00.000 317.60429423975273
