2nd Assignment - Navigation/tdm/MALARGUE_EXM_20161012T162708_20161013T032940.tdm

CCSDS_TDM_VERS = 2.0

COMMENT This TDM contains synthetic data, not from real observations

CREATION_DATE = 2021-11-26T14:48:28.612033
ORIGINATOR = POLIMI-DAER

META_START
TIME_SYSTEM = UTC
START_TIME = 2016-10-12T16:27:08.786
STOP_TIME = 2016-10-13T03:29:40.441
PARTICIPANT_1 = MALARGUE
PARTICIPANT_2 = EXM
MODE = SEQUENTIAL
PATH = 1,2,1
RANGE_UNITS = km
ANGLE_TYPE = AZEL
META_STOP

DATA_START

ANGLE_1 = 2016-10-12T16:27:08.786 107.58251126646871
ANGLE_2 = 2016-10-12T16:27:08.786 19.99961309318415
RANGE = 2016-10-12T16:27:08.786 168494097.1587211

ANGLE_1 = 2016-10-12T16:28:00.000 107.4765174831681
ANGLE_2 = 2016-10-12T16:28:00.000 20.165126518686005
RANGE = 2016-10-12T16:28:00.000 168494728.87236127

ANGLE_1 = 2016-10-12T16:29:00.000 107.3527414581555
ANGLE_2 = 2016-10-12T16:29:00.000 20.35890482639383
RANGE = 2016-10-12T16:29:00.000 168495469.00533262

ANGLE_1 = 2016-10-12T16:30:00.000 107.2287237511378
ANGLE_2 = 2016-10-12T16:30:00.000 20.5524896845122
RANGE = 2016-10-12T16:30:00.000 168496209.13874823

ANGLE_1 = 2016-10-12T16:31:00.000 107.10526551620418
ANGLE_2 = 2016-10-12T16:31:00.000 20.746334112271757
RANGE = 2016-10-12T16:31:00.000 168496949.25332153

ANGLE_1 = 2016-10-12T16:32:00.000 106.98144843331025
ANGLE_2 = 2016-10-12T16:32:00.000 20.94032969540848
RANGE = 2016-10-12T16:32:00.000 168497689.43040958

ANGLE_1 = 2016-10-12T16:33:00.000 106.85829111338994
ANGLE_2 = 2016-10-12T16:33:00.000 21.135175343497608
RANGE = 2016-10-12T16:33:00.000 168498429.598687

ANGLE_1 = 2016-10-12T16:34:00.000 106.73461828751977
ANGLE_2 = 2016-10-12T16:34:00.000 21.329662625103765
RANGE = 2016-10-12T16:34:00.000 168499169.77831352

ANGLE_1 = 2016-10-12T16:35:00.000 106.61147271964012
ANGLE_2 = 2016-10-12T16:35:00.000 21.523087079813557
RANGE = 2016-10-12T16:35:00.000 168499909.93366382

ANGLE_1 = 2016-10-12T16:36:00.000 106.48804535951116
ANGLE_2 = 2016-10-12T16:36:00.000 21.717902345966966
RANGE = 2016-10-12T16:36:00.000 168500650.1075194

ANGLE_1 = 2016-10-12T16:37:00.000 106.36386620720418
ANGLE_2 = 2016-10-12T16:37:00.000 21.912761645731987
RANGE = 2016-10-12T16:37:00.000 168501390.33161822

ANGLE_1 = 2016-10-12T16:38:00.000 106.2412118837129
ANGLE_2 = 2016-10-12T16:38:00.000 22.10749760118749
RANGE = 2016-10-12T16:38:00.000 168502130.55096477

ANGLE_1 = 2016-10-12T16:39:00.000 106.11748403700358
ANGLE_2 = 2016-10-12T16:39:00.000 22.302479083589123
RANGE = 2016-10-12T16:39:00.000 168502870.784986

ANGLE_1 = 2016-10-12T16:40:00.000 105.99425324004666
ANGLE_2 = 2016-10-12T16:40:00.000 22.497768145521587
RANGE = 2016-10-12T16:40:00.000 168503611.0524448

ANGLE_1 = 2016-10-12T16:41:00.000 105.87168003303152
ANGLE_2 = 2016-10-12T16:41:00.000 22.692478204625093
RANGE = 2016-10-12T16:41:00.000 168504351.2884902

ANGLE_1 = 2016-10-12T16:42:00.000 105.74774720756967
ANGLE_2 = 2016-10-12T16:42:00.000 22.887560790683274
RANGE = 2016-10-12T16:42:00.000 168505091.60504946

ANGLE_1 = 2016-10-12T16:43:00.000 105.62542316455522
ANGLE_2 = 2016-10-12T16:43:00.000 23.083242178733872
RANGE = 2016-10-12T16:43:00.000 168505831.86202255

ANGLE_1 = 2016-10-12T16:44:00.000 105.5013300422212
ANGLE_2 = 2016-10-12T16:44:00.000 23.278786056475155
RANGE = 2016-10-12T16:44:00.000 168506572.19206962

ANGLE_1 = 2016-10-12T16:45:00.000 105.37933430906575
ANGLE_2 = 2016-10-12T16:45:00.000 23.474509209818684
RANGE = 2016-10-12T16:45:00.000 168507312.5020908

ANGLE_1 = 2016-10-12T16:46:00.000 105.2563290312699
ANGLE_2 = 2016-10-12T16:46:00.000 23.669694757043203
RANGE = 2016-10-12T16:46:00.000 168508052.82722232

ANGLE_1 = 2016-10-12T16:47:00.000 105.13285825178868
ANGLE_2 = 2016-10-12T16:47:00.000 23.86588287577424
RANGE = 2016-10-12T16:47:00.000 168508793.2017089

ANGLE_1 = 2016-10-12T16:48:00.000 105.01073467523072
ANGLE_2 = 2016-10-12T16:48:00.000 24.061893491955214
RANGE = 2016-10-12T16:48:00.000 168509533.59046495

ANGLE_1 = 2016-10-12T16:49:00.000 104.88805227388265
ANGLE_2 = 2016-10-12T16:49:00.000 24.25811302130425
RANGE = 2016-10-12T16:49:00.000 168510273.9745876

ANGLE_1 = 2016-10-12T16:50:00.000 104.7650460957807
ANGLE_2 = 2016-10-12T16:50:00.000 24.453919172809044
RANGE = 2016-10-12T16:50:00.000 168511014.38623512

ANGLE_1 = 2016-10-12T16:51:00.000 104.64171561868656
ANGLE_2 = 2016-10-12T16:51:00.000 24.650721654303215
RANGE = 2016-10-12T16:51:00.000 168511754.8269458

ANGLE_1 = 2016-10-12T16:52:00.000 104.51901287487424
ANGLE_2 = 2016-10-12T16:52:00.000 24.847513612142315
RANGE = 2016-10-12T16:52:00.000 168512495.27402604

ANGLE_1 = 2016-10-12T16:53:00.000 104.39651849560039
ANGLE_2 = 2016-10-12T16:53:00.000 25.043435166138497
RANGE = 2016-10-12T16:53:00.000 168513235.70976824

ANGLE_1 = 2016-10-12T16:54:00.000 104.2734075105313
ANGLE_2 = 2016-10-12T16:54:00.000 25.240545149070737
RANGE = 2016-10-12T16:54:00.000 168513976.22355136

ANGLE_1 = 2016-10-12T16:55:00.000 104.15090572921946
ANGLE_2 = 2016-10-12T16:55:00.000 25.43693403091589
RANGE = 2016-10-12T16:55:00.000 168514716.7319695

ANGLE_1 = 2016-10-12T16:56:00.000 104.02869554290568
ANGLE_2 = 2016-10-12T16:56:00.000 25.634213253658977
RANGE = 2016-10-12T16:56:00.000 168515457.271538

ANGLE_1 = 2016-10-12T16:57:00.000 103.90505852798337
ANGLE_2 = 2016-10-12T16:57:00.000 25.830863984517805
RANGE = 2016-10-12T16:57:00.000 168516197.7990335

ANGLE_1 = 2016-10-12T16:58:00.000 103.78224304719565
ANGLE_2 = 2016-10-12T16:58:00.000 26.02810754452343
RANGE = 2016-10-12T16:58:00.000 168516938.37312114

ANGLE_1 = 2016-10-12T16:59:00.000 103.66049135621887
ANGLE_2 = 2016-10-12T16:59:00.000 26.225539274456036
RANGE = 2016-10-12T16:59:00.000 168517678.95281473

ANGLE_1 = 2016-10-12T17:00:00.000 103.53780233706419
ANGLE_2 = 2016-10-12T17:00:00.000 26.42213557016993
RANGE = 2016-10-12T17:00:00.000 168518419.55905363

ANGLE_1 = 2016-10-12T17:01:00.000 103.41453837662343
ANGLE_2 = 2016-10-12T17:01:00.000 26.619706553964164
RANGE = 2016-10-12T17:01:00.000 168519160.19922072

ANGLE_1 = 2016-10-12T17:02:00.000 103.29171222054462
ANGLE_2 = 2016-10-12T17:02:00.000 26.817114182477884
RANGE = 2016-10-12T17:02:00.000 168519900.86240527

ANGLE_1 = 2016-10-12T17:03:00.000 103.16941070072265
ANGLE_2 = 2016-10-12T17:03:00.000 27.014998028893487
RANGE = 2016-10-12T17:03:00.000 168520641.52467597

ANGLE_1 = 2016-10-12T17:04:00.000 103.04639238600613
ANGLE_2 = 2016-10-12T17:04:00.000 27.21283025193224
RANGE = 2016-10-12T17:04:00.000 168521382.28053603

ANGLE_1 = 2016-10-12T17:05:00.000 102.9233293108928
ANGLE_2 = 2016-10-12T17:05:00.000 27.410282607354457
RANGE = 2016-10-12T17:05:00.000 168522122.95985296

ANGLE_1 = 2016-10-12T17:06:00.000 102.80021856643222
ANGLE_2 = 2016-10-12T17:06:00.000 27.608319934563234
RANGE = 2016-10-12T17:06:00.000 168522863.74463156

ANGLE_1 = 2016-10-12T17:07:00.000 102.67707237603277
ANGLE_2 = 2016-10-12T17:07:00.000 27.80634402189175
RANGE = 2016-10-12T17:07:00.000 168523604.5177405

ANGLE_1 = 2016-10-12T17:08:00.000 102.55521835700742
ANGLE_2 = 2016-10-12T17:08:00.000 28.00422858554689
RANGE = 2016-10-12T17:08:00.000 168524345.30234003

ANGLE_1 = 2016-10-12T17:09:00.000 102.43261763228413
ANGLE_2 = 2016-10-12T17:09:00.000 28.202506598279584
RANGE = 2016-10-12T17:09:00.000 168525086.10073578

ANGLE_1 = 2016-10-12T17:10:00.000 102.30914651790624
ANGLE_2 = 2016-10-12T17:10:00.000 28.400398770823678
RANGE = 2016-10-12T17:10:00.000 168525826.95770034

ANGLE_1 = 2016-10-12T17:11:00.000 102.18565682213894
ANGLE_2 = 2016-10-12T17:11:00.000 28.59925739147015
RANGE = 2016-10-12T17:11:00.000 168526567.8340073

ANGLE_1 = 2016-10-12T17:12:00.000 102.06290009126587
ANGLE_2 = 2016-10-12T17:12:00.000 28.797792244290253
RANGE = 2016-10-12T17:12:00.000 168527308.76714304

ANGLE_1 = 2016-10-12T17:13:00.000 101.93994744446466
ANGLE_2 = 2016-10-12T17:13:00.000 28.995623299399693
RANGE = 2016-10-12T17:13:00.000 168528049.68783203

ANGLE_1 = 2016-10-12T17:14:00.000 101.8168832739935
ANGLE_2 = 2016-10-12T17:14:00.000 29.19443046375024
RANGE = 2016-10-12T17:14:00.000 168528790.6257664

ANGLE_1 = 2016-10-12T17:15:00.000 101.69365808286477
ANGLE_2 = 2016-10-12T17:15:00.000 29.39330163108802
RANGE = 2016-10-12T17:15:00.000 168529531.61008367

ANGLE_1 = 2016-10-12T17:16:00.000 101.57053867351286
ANGLE_2 = 2016-10-12T17:16:00.000 29.59237882833414
RANGE = 2016-10-12T17:16:00.000 168530272.6342367

ANGLE_1 = 2016-10-12T17:17:00.000 101.44673164300944
ANGLE_2 = 2016-10-12T17:17:00.000 29.790739996527122
RANGE = 2016-10-12T17:17:00.000 168531013.65925986

ANGLE_1 = 2016-10-12T17:18:00.000 101.32332578375176
ANGLE_2 = 2016-10-12T17:18:00.000 29.98939272846699
RANGE = 2016-10-12T17:18:00.000 168531754.71072975

ANGLE_1 = 2016-10-12T17:19:00.000 101.2003659355683
ANGLE_2 = 2016-10-12T17:19:00.000 30.18891907881417
RANGE = 2016-10-12T17:19:00.000 168532495.83130872

ANGLE_1 = 2016-10-12T17:20:00.000 101.07789963726836
ANGLE_2 = 2016-10-12T17:20:00.000 30.388499148033826
RANGE = 2016-10-12T17:20:00.000 168533236.92645785

ANGLE_1 = 2016-10-12T17:21:00.000 100.9541591427561
ANGLE_2 = 2016-10-12T17:21:00.000 30.587154712158235
RANGE = 2016-10-12T17:21:00.000 168533978.0857947

ANGLE_1 = 2016-10-12T17:22:00.000 100.83010884910777
ANGLE_2 = 2016-10-12T17:22:00.000 30.786849303263157
RANGE = 2016-10-12T17:22:00.000 168534719.27417046

ANGLE_1 = 2016-10-12T17:23:00.000 100.70615060297077
ANGLE_2 = 2016-10-12T17:23:00.000 30.985968588928003
RANGE = 2016-10-12T17:23:00.000 168535460.5232481

ANGLE_1 = 2016-10-12T17:24:00.000 100.58244941941737
ANGLE_2 = 2016-10-12T17:24:00.000 31.18568653011069
RANGE = 2016-10-12T17:24:00.000 168536201.7246409

ANGLE_1 = 2016-10-12T17:25:00.000 100.45898482821715
ANGLE_2 = 2016-10-12T17:25:00.000 31.38557825977397
RANGE = 2016-10-12T17:25:00.000 168536943.0328519

ANGLE_1 = 2016-10-12T17:26:00.000 100.33484439792207
ANGLE_2 = 2016-10-12T17:26:00.000 31.584760274571057
RANGE = 2016-10-12T17:26:00.000 168537684.3100718

ANGLE_1 = 2016-10-12T17:27:00.000 100.21090151439459
ANGLE_2 = 2016-10-12T17:27:00.000 31.784213543069246
RANGE = 2016-10-12T17:27:00.000 168538425.67474464

ANGLE_1 = 2016-10-12T17:28:00.000 100.08707622585769
ANGLE_2 = 2016-10-12T17:28:00.000 31.983989653564148
RANGE = 2016-10-12T17:28:00.000 168539167.04034188

ANGLE_1 = 2016-10-12T17:29:00.000 99.96247792451524
ANGLE_2 = 2016-10-12T17:29:00.000 32.18402580725217
RANGE = 2016-10-12T17:29:00.000 168539908.4717114

ANGLE_1 = 2016-10-12T17:30:00.000 99.83899914492906
ANGLE_2 = 2016-10-12T17:30:00.000 32.38437700596845
RANGE = 2016-10-12T17:30:00.000 168540649.8986175

ANGLE_1 = 2016-10-12T17:31:00.000 99.71424117508384
ANGLE_2 = 2016-10-12T17:31:00.000 32.58325812200883
RANGE = 2016-10-12T17:31:00.000 168541391.29227832

ANGLE_1 = 2016-10-12T17:32:00.000 99.58919481879875
ANGLE_2 = 2016-10-12T17:32:00.000 32.78399206423657
RANGE = 2016-10-12T17:32:00.000 168542132.82610333

ANGLE_1 = 2016-10-12T17:33:00.000 99.4647828350454
ANGLE_2 = 2016-10-12T17:33:00.000 32.98442944927147
RANGE = 2016-10-12T17:33:00.000 168542874.38039315

ANGLE_1 = 2016-10-12T17:34:00.000 99.34005522649304
ANGLE_2 = 2016-10-12T17:34:00.000 33.18467741181376
RANGE = 2016-10-12T17:34:00.000 168543615.92945498

ANGLE_1 = 2016-10-12T17:35:00.000 99.21487523790347
ANGLE_2 = 2016-10-12T17:35:00.000 33.3850094208469
RANGE = 2016-10-12T17:35:00.000 168544357.5493546

ANGLE_1 = 2016-10-12T17:36:00.000 99.08993510830665
ANGLE_2 = 2016-10-12T17:36:00.000 33.58538320210446
RANGE = 2016-10-12T17:36:00.000 168545099.17216107

ANGLE_1 = 2016-10-12T17:37:00.000 98.96526906581698
ANGLE_2 = 2016-10-12T17:37:00.000 33.785750975640596
RANGE = 2016-10-12T17:37:00.000 168545840.8320606

ANGLE_1 = 2016-10-12T17:38:00.000 98.84016598355967
ANGLE_2 = 2016-10-12T17:38:00.000 33.98603603673069
RANGE = 2016-10-12T17:38:00.000 168546582.57842183

ANGLE_1 = 2016-10-12T17:39:00.000 98.7142296592646
ANGLE_2 = 2016-10-12T17:39:00.000 34.186107020282265
RANGE = 2016-10-12T17:39:00.000 168547324.30927145

ANGLE_1 = 2016-10-12T17:40:00.000 98.58852217398763
ANGLE_2 = 2016-10-12T17:40:00.000 34.38729916961334
RANGE = 2016-10-12T17:40:00.000 168548066.08273566

ANGLE_1 = 2016-10-12T17:41:00.000 98.46364687887439
ANGLE_2 = 2016-10-12T17:41:00.000 34.588263224426534
RANGE = 2016-10-12T17:41:00.000 168548807.91716027

ANGLE_1 = 2016-10-12T17:42:00.000 98.33734095471847
ANGLE_2 = 2016-10-12T17:42:00.000 34.7890419539364
RANGE = 2016-10-12T17:42:00.000 168549549.78529945

ANGLE_1 = 2016-10-12T17:43:00.000 98.21104156084921
ANGLE_2 = 2016-10-12T17:43:00.000 34.98969941660858
RANGE = 2016-10-12T17:43:00.000 168550291.65120375

ANGLE_1 = 2016-10-12T17:44:00.000 98.08517642438349
ANGLE_2 = 2016-10-12T17:44:00.000 35.19119187814346
RANGE = 2016-10-12T17:44:00.000 168551033.6090005

ANGLE_1 = 2016-10-12T17:45:00.000 97.95897566003762
ANGLE_2 = 2016-10-12T17:45:00.000 35.391415152185516
RANGE = 2016-10-12T17:45:00.000 168551775.57961744

ANGLE_1 = 2016-10-12T17:46:00.000 97.83258069694806
ANGLE_2 = 2016-10-12T17:46:00.000 35.59320519314267
RANGE = 2016-10-12T17:46:00.000 168552517.56502312

ANGLE_1 = 2016-10-12T17:47:00.000 97.70530231542513
ANGLE_2 = 2016-10-12T17:47:00.000 35.79372844293074
RANGE = 2016-10-12T17:47:00.000 168553259.63457376

ANGLE_1 = 2016-10-12T17:48:00.000 97.57940359380866
ANGLE_2 = 2016-10-12T17:48:00.000 35.99543349764571
RANGE = 2016-10-12T17:48:00.000 168554001.7337325

ANGLE_1 = 2016-10-12T17:49:00.000 97.45200007866923
ANGLE_2 = 2016-10-12T17:49:00.000 36.19610745788204
RANGE = 2016-10-12T17:49:00.000 168554743.8284486

ANGLE_1 = 2016-10-12T17:50:00.000 97.32492193097345
ANGLE_2 = 2016-10-12T17:50:00.000 36.39748740240839
RANGE = 2016-10-12T17:50:00.000 168555486.02192

ANGLE_1 = 2016-10-12T17:51:00.000 97.19763674975061
ANGLE_2 = 2016-10-12T17:51:00.000 36.59904708628783
RANGE = 2016-10-12T17:51:00.000 168556228.20112264

ANGLE_1 = 2016-10-12T17:52:00.000 97.07033149478262
ANGLE_2 = 2016-10-12T17:52:00.000 36.80052894625899
RANGE = 2016-10-12T17:52:00.000 168556970.4928663

ANGLE_1 = 2016-10-12T17:53:00.000 96.94260234765358
ANGLE_2 = 2016-10-12T17:53:00.000 37.002446182800526
RANGE = 2016-10-12T17:53:00.000 168557712.7229205

ANGLE_1 = 2016-10-12T17:54:00.000 96.81414895025118
ANGLE_2 = 2016-10-12T17:54:00.000 37.20341875724681
RANGE = 2016-10-12T17:54:00.000 168558455.0561747

ANGLE_1 = 2016-10-12T17:55:00.000 96.68581322793406
ANGLE_2 = 2016-10-12T17:55:00.000 37.40467715653228
RANGE = 2016-10-12T17:55:00.000 168559197.43599114

ANGLE_1 = 2016-10-12T17:56:00.000 96.55791979206609
ANGLE_2 = 2016-10-12T17:56:00.000 37.60624237387566
RANGE = 2016-10-12T17:56:00.000 168559939.84989184

ANGLE_1 = 2016-10-12T17:57:00.000 96.42949635577497
ANGLE_2 = 2016-10-12T17:57:00.000 37.80760778443962
RANGE = 2016-10-12T17:57:00.000 168560682.2734129

ANGLE_1 = 2016-10-12T17:58:00.000 96.29996505708318
ANGLE_2 = 2016-10-12T17:58:00.000 38.00903523413351
RANGE = 2016-10-12T17:58:00.000 168561424.82669094

ANGLE_1 = 2016-10-12T17:59:00.000 96.17162499108521
ANGLE_2 = 2016-10-12T17:59:00.000 38.21174276551096
RANGE = 2016-10-12T17:59:00.000 168562167.36397877

ANGLE_1 = 2016-10-12T18:00:00.000 96.0417570869275
ANGLE_2 = 2016-10-12T18:00:00.000 38.41294107865034
RANGE = 2016-10-12T18:00:00.000 168562909.9101155

ANGLE_1 = 2016-10-12T18:01:00.000 95.91244493018216
ANGLE_2 = 2016-10-12T18:01:00.000 38.614759536367885
RANGE = 2016-10-12T18:01:00.000 168563652.54633778

ANGLE_1 = 2016-10-12T18:02:00.000 95.78293557436272
ANGLE_2 = 2016-10-12T18:02:00.000 38.81752643623554
RANGE = 2016-10-12T18:02:00.000 168564395.214227

ANGLE_1 = 2016-10-12T18:03:00.000 95.65252208933202
ANGLE_2 = 2016-10-12T18:03:00.000 39.01860515494851
RANGE = 2016-10-12T18:03:00.000 168565137.92539057

ANGLE_1 = 2016-10-12T18:04:00.000 95.52256249712421
ANGLE_2 = 2016-10-12T18:04:00.000 39.220808798298656
RANGE = 2016-10-12T18:04:00.000 168565880.69170126

ANGLE_1 = 2016-10-12T18:05:00.000 95.39118392558122
ANGLE_2 = 2016-10-12T18:05:00.000 39.423090404878224
RANGE = 2016-10-12T18:05:00.000 168566623.48868483

ANGLE_1 = 2016-10-12T18:06:00.000 95.260320055093
ANGLE_2 = 2016-10-12T18:06:00.000 39.62556315040177
RANGE = 2016-10-12T18:06:00.000 168567366.352458

ANGLE_1 = 2016-10-12T18:07:00.000 95.13044757902576
ANGLE_2 = 2016-10-12T18:07:00.000 39.827306182341
RANGE = 2016-10-12T18:07:00.000 168568109.22318003

ANGLE_1 = 2016-10-12T18:08:00.000 94.9989031104956
ANGLE_2 = 2016-10-12T18:08:00.000 40.029368161817686
RANGE = 2016-10-12T18:08:00.000 168568852.16404667

ANGLE_1 = 2016-10-12T18:09:00.000 94.86643313179678
ANGLE_2 = 2016-10-12T18:09:00.000 40.23192043610043
RANGE = 2016-10-12T18:09:00.000 168569595.1585339

ANGLE_1 = 2016-10-12T18:10:00.000 94.73525846508383
ANGLE_2 = 2016-10-12T18:10:00.000 40.43399371269602
RANGE = 2016-10-12T18:10:00.000 168570338.17283925

ANGLE_1 = 2016-10-12T18:11:00.000 94.6020898798975
ANGLE_2 = 2016-10-12T18:11:00.000 40.63595471082073
RANGE = 2016-10-12T18:11:00.000 168571081.26583424

ANGLE_1 = 2016-10-12T18:12:00.000 94.47011672077237
ANGLE_2 = 2016-10-12T18:12:00.000 40.83889057345648
RANGE = 2016-10-12T18:12:00.000 168571824.42184487

ANGLE_1 = 2016-10-12T18:13:00.000 94.3369891837449
ANGLE_2 = 2016-10-12T18:13:00.000 41.04086277183704
RANGE = 2016-10-12T18:13:00.000 168572567.5584099

ANGLE_1 = 2016-10-12T18:14:00.000 94.20399523606905
ANGLE_2 = 2016-10-12T18:14:00.000 41.24378346115174
RANGE = 2016-10-12T18:14:00.000 168573310.78375062

ANGLE_1 = 2016-10-12T18:15:00.000 94.0701346916301
ANGLE_2 = 2016-10-12T18:15:00.000 41.44594451094193
RANGE = 2016-10-12T18:15:00.000 168574054.0592855

ANGLE_1 = 2016-10-12T18:16:00.000 93.93688221735779
ANGLE_2 = 2016-10-12T18:16:00.000 41.64813726370429
RANGE = 2016-10-12T18:16:00.000 168574797.3872619

ANGLE_1 = 2016-10-12T18:17:00.000 93.80247673956923
ANGLE_2 = 2016-10-12T18:17:00.000 41.85128356739804
RANGE = 2016-10-12T18:17:00.000 168575540.75843707

ANGLE_1 = 2016-10-12T18:18:00.000 93.66816725885788
ANGLE_2 = 2016-10-12T18:18:00.000 42.053320049699515
RANGE = 2016-10-12T18:18:00.000 168576284.15720725

ANGLE_1 = 2016-10-12T18:19:00.000 93.53259340009134
ANGLE_2 = 2016-10-12T18:19:00.000 42.25604171263105
RANGE = 2016-10-12T18:19:00.000 168577027.60847786

ANGLE_1 = 2016-10-12T18:20:00.000 93.39805484253664
ANGLE_2 = 2016-10-12T18:20:00.000 42.458269772876605
RANGE = 2016-10-12T18:20:00.000 168577771.14806238

ANGLE_1 = 2016-10-12T18:21:00.000 93.26259897826685
ANGLE_2 = 2016-10-12T18:21:00.000 42.661509157651295
RANGE = 2016-10-12T18:21:00.000 168578514.7001549

ANGLE_1 = 2016-10-12T18:22:00.000 93.12692374521309
ANGLE_2 = 2016-10-12T18:22:00.000 42.863560995134215
RANGE = 2016-10-12T18:22:00.000 168579258.3466576

ANGLE_1 = 2016-10-12T18:23:00.000 92.99079489383288
ANGLE_2 = 2016-10-12T18:23:00.000 43.066223501066595
RANGE = 2016-10-12T18:23:00.000 168580002.00158605

ANGLE_1 = 2016-10-12T18:24:00.000 92.85407031016939
ANGLE_2 = 2016-10-12T18:24:00.000 43.26901503144237
RANGE = 2016-10-12T18:24:00.000 168580745.6992691

ANGLE_1 = 2016-10-12T18:25:00.000 92.71704483090197
ANGLE_2 = 2016-10-12T18:25:00.000 43.47164251319861
RANGE = 2016-10-12T18:25:00.000 168581489.50416103

ANGLE_1 = 2016-10-12T18:26:00.000 92.579530759768
ANGLE_2 = 2016-10-12T18:26:00.000 43.67475741246159
RANGE = 2016-10-12T18:26:00.000 168582233.32585037

ANGLE_1 = 2016-10-12T18:27:00.000 92.44105628226227
ANGLE_2 = 2016-10-12T18:27:00.000 43.87661688532457
RANGE = 2016-10-12T18:27:00.000 168582977.20058224

ANGLE_1 = 2016-10-12T18:28:00.000 92.30315059468613
ANGLE_2 = 2016-10-12T18:28:00.000 44.08057011799233
RANGE = 2016-10-12T18:28:00.000 168583721.09904847

ANGLE_1 = 2016-10-12T18:29:00.000 92.16442750437146
ANGLE_2 = 2016-10-12T18:29:00.000 44.28299581013859
RANGE = 2016-10-12T18:29:00.000 168584465.05769092

ANGLE_1 = 2016-10-12T18:30:00.000 92.02481862932584
ANGLE_2 = 2016-10-12T18:30:00.000 44.485634148887065
RANGE = 2016-10-12T18:30:00.000 168585209.08939698

ANGLE_1 = 2016-10-12T18:31:00.000 91.88596187423823
ANGLE_2 = 2016-10-12T18:31:00.000 44.68891455739919
RANGE = 2016-10-12T18:31:00.000 168585953.19216546

ANGLE_1 = 2016-10-12T18:32:00.000 91.74595576793544
ANGLE_2 = 2016-10-12T18:32:00.000 44.89172639181766
RANGE = 2016-10-12T18:32:00.000 168586697.31934246

ANGLE_1 = 2016-10-12T18:33:00.000 91.6056039350672
ANGLE_2 = 2016-10-12T18:33:00.000 45.094315441272244
RANGE = 2016-10-12T18:33:00.000 168587441.53216127

ANGLE_1 = 2016-10-12T18:34:00.000 91.46412605664442
ANGLE_2 = 2016-10-12T18:34:00.000 45.29776502022041
RANGE = 2016-10-12T18:34:00.000 168588185.78330526

ANGLE_1 = 2016-10-12T18:35:00.000 91.32287136351661
ANGLE_2 = 2016-10-12T18:35:00.000 45.49981667400235
RANGE = 2016-10-12T18:35:00.000 168588930.06373557

ANGLE_1 = 2016-10-12T18:36:00.000 91.18130345118189
ANGLE_2 = 2016-10-12T18:36:00.000 45.7032012012735
RANGE = 2016-10-12T18:36:00.000 168589674.4442819

ANGLE_1 = 2016-10-12T18:37:00.000 91.03931660130361
ANGLE_2 = 2016-10-12T18:37:00.000 45.90639390383546
RANGE = 2016-10-12T18:37:00.000 168590418.85966346

ANGLE_1 = 2016-10-12T18:38:00.000 90.89703446593586
ANGLE_2 = 2016-10-12T18:38:00.000 46.109101886362595
RANGE = 2016-10-12T18:38:00.000 168591163.30972362

ANGLE_1 = 2016-10-12T18:39:00.000 90.75300443290226
ANGLE_2 = 2016-10-12T18:39:00.000 46.31203567058953
RANGE = 2016-10-12T18:39:00.000 168591907.8301056

ANGLE_1 = 2016-10-12T18:40:00.000 90.6086428053269
ANGLE_2 = 2016-10-12T18:40:00.000 46.51522825895887
RANGE = 2016-10-12T18:40:00.000 168592652.4118544

ANGLE_1 = 2016-10-12T18:41:00.000 90.46465690399191
ANGLE_2 = 2016-10-12T18:41:00.000 46.71805314476107
RANGE = 2016-10-12T18:41:00.000 168593397.0145896

ANGLE_1 = 2016-10-12T18:42:00.000 90.3200349913957
ANGLE_2 = 2016-10-12T18:42:00.000 46.920520892516215
RANGE = 2016-10-12T18:42:00.000 168594141.71014878

ANGLE_1 = 2016-10-12T18:43:00.000 90.17475125797968
ANGLE_2 = 2016-10-12T18:43:00.000 47.123236072213956
RANGE = 2016-10-12T18:43:00.000 168594886.44430804

ANGLE_1 = 2016-10-12T18:44:00.000 90.02823202450458
ANGLE_2 = 2016-10-12T18:44:00.000 47.32679001079155
RANGE = 2016-10-12T18:44:00.000 168595631.30614153

ANGLE_1 = 2016-10-12T18:45:00.000 89.88169129935548
ANGLE_2 = 2016-10-12T18:45:00.000 47.529652514170124
RANGE = 2016-10-12T18:45:00.000 168596376.13067183

ANGLE_1 = 2016-10-12T18:46:00.000 89.73473677980894
ANGLE_2 = 2016-10-12T18:46:00.000 47.7322000328484
RANGE = 2016-10-12T18:46:00.000 168597121.02984074

ANGLE_1 = 2016-10-12T18:47:00.000 89.58663477987746
ANGLE_2 = 2016-10-12T18:47:00.000 47.93527233046028
RANGE = 2016-10-12T18:47:00.000 168597866.05007672

ANGLE_1 = 2016-10-12T18:48:00.000 89.43839910584192
ANGLE_2 = 2016-10-12T18:48:00.000 48.138575242463816
RANGE = 2016-10-12T18:48:00.000 168598611.0773547

ANGLE_1 = 2016-10-12T18:49:00.000 89.28959873597378
ANGLE_2 = 2016-10-12T18:49:00.000 48.341680679433686
RANGE = 2016-10-12T18:49:00.000 168599356.16890067

ANGLE_1 = 2016-10-12T18:50:00.000 89.14006457981321
ANGLE_2 = 2016-10-12T18:50:00.000 48.54465242703622
RANGE = 2016-10-12T18:50:00.000 168600101.34802747

ANGLE_1 = 2016-10-12T18:51:00.000 88.99016521285537
ANGLE_2 = 2016-10-12T18:51:00.000 48.747678758287584
RANGE = 2016-10-12T18:51:00.000 168600846.5406456

ANGLE_1 = 2016-10-12T18:52:00.000 88.8400810773665
ANGLE_2 = 2016-10-12T18:52:00.000 48.95050737297107
RANGE = 2016-10-12T18:52:00.000 168601591.7995327

ANGLE_1 = 2016-10-12T18:53:00.000 88.68731694128553
ANGLE_2 = 2016-10-12T18:53:00.000 49.15329326245546
RANGE = 2016-10-12T18:53:00.000 168602337.11135522

ANGLE_1 = 2016-10-12T18:54:00.000 88.53598682375276
ANGLE_2 = 2016-10-12T18:54:00.000 49.35624010224925
RANGE = 2016-10-12T18:54:00.000 168603082.51717782

ANGLE_1 = 2016-10-12T18:55:00.000 88.3835479319749
ANGLE_2 = 2016-10-12T18:55:00.000 49.559574694679426
RANGE = 2016-10-12T18:55:00.000 168603827.96832284

ANGLE_1 = 2016-10-12T18:56:00.000 88.22972339014426
ANGLE_2 = 2016-10-12T18:56:00.000 49.76249468353032
RANGE = 2016-10-12T18:56:00.000 168604573.49312583

ANGLE_1 = 2016-10-12T18:57:00.000 88.07603519078489
ANGLE_2 = 2016-10-12T18:57:00.000 49.965005174682425
RANGE = 2016-10-12T18:57:00.000 168605319.06983104

ANGLE_1 = 2016-10-12T18:58:00.000 87.92125834406441
ANGLE_2 = 2016-10-12T18:58:00.000 50.16757077657726
RANGE = 2016-10-12T18:58:00.000 168606064.711901

ANGLE_1 = 2016-10-12T18:59:00.000 87.76509494747206
ANGLE_2 = 2016-10-12T18:59:00.000 50.37079051224335
RANGE = 2016-10-12T18:59:00.000 168606810.38190934

ANGLE_1 = 2016-10-12T19:00:00.000 87.60826345185063
ANGLE_2 = 2016-10-12T19:00:00.000 50.57278888507746
RANGE = 2016-10-12T19:00:00.000 168607556.12302732

ANGLE_1 = 2016-10-12T19:01:00.000 87.45218229352498
ANGLE_2 = 2016-10-12T19:01:00.000 50.77645456004532
RANGE = 2016-10-12T19:01:00.000 168608301.97614175

ANGLE_1 = 2016-10-12T19:02:00.000 87.29401500115335
ANGLE_2 = 2016-10-12T19:02:00.000 50.97916011542746
RANGE = 2016-10-12T19:02:00.000 168609047.8500638

ANGLE_1 = 2016-10-12T19:03:00.000 87.13576398768616
ANGLE_2 = 2016-10-12T19:03:00.000 51.18129020667772
RANGE = 2016-10-12T19:03:00.000 168609793.7758974

ANGLE_1 = 2016-10-12T19:04:00.000 86.97579524347566
ANGLE_2 = 2016-10-12T19:04:00.000 51.384210415212635
RANGE = 2016-10-12T19:04:00.000 168610539.81136462

ANGLE_1 = 2016-10-12T19:05:00.000 86.81632864959491
ANGLE_2 = 2016-10-12T19:05:00.000 51.587190110142416
RANGE = 2016-10-12T19:05:00.000 168611285.8463813

ANGLE_1 = 2016-10-12T19:06:00.000 86.65478679603271
ANGLE_2 = 2016-10-12T19:06:00.000 51.78928962485115
RANGE = 2016-10-12T19:06:00.000 168612032.03830612

ANGLE_1 = 2016-10-12T19:07:00.000 86.49310628706691
ANGLE_2 = 2016-10-12T19:07:00.000 51.99240774908102
RANGE = 2016-10-12T19:07:00.000 168612778.1974809

ANGLE_1 = 2016-10-12T19:08:00.000 86.33030137950644
ANGLE_2 = 2016-10-12T19:08:00.000 52.19436268105736
RANGE = 2016-10-12T19:08:00.000 168613524.45603728

ANGLE_1 = 2016-10-12T19:09:00.000 86.16701033817019
ANGLE_2 = 2016-10-12T19:09:00.000 52.39747572943753
RANGE = 2016-10-12T19:09:00.000 168614270.79021868

ANGLE_1 = 2016-10-12T19:10:00.000 86.00208622759675
ANGLE_2 = 2016-10-12T19:10:00.000 52.60013924397601
RANGE = 2016-10-12T19:10:00.000 168615017.15767282

ANGLE_1 = 2016-10-12T19:11:00.000 85.83685924279406
ANGLE_2 = 2016-10-12T19:11:00.000 52.802327946781766
RANGE = 2016-10-12T19:11:00.000 168615763.64232406

ANGLE_1 = 2016-10-12T19:12:00.000 85.66992615435294
ANGLE_2 = 2016-10-12T19:12:00.000 53.0044153550838
RANGE = 2016-10-12T19:12:00.000 168616510.1305085

ANGLE_1 = 2016-10-12T19:13:00.000 85.50351412007569
ANGLE_2 = 2016-10-12T19:13:00.000 53.20686744935169
RANGE = 2016-10-12T19:13:00.000 168617256.73208728

ANGLE_1 = 2016-10-12T19:14:00.000 85.33515782232233
ANGLE_2 = 2016-10-12T19:14:00.000 53.409475447399714
RANGE = 2016-10-12T19:14:00.000 168618003.3499261

ANGLE_1 = 2016-10-12T19:15:00.000 85.1658390530458
ANGLE_2 = 2016-10-12T19:15:00.000 53.61154317382298
RANGE = 2016-10-12T19:15:00.000 168618750.09021384

ANGLE_1 = 2016-10-12T19:16:00.000 84.99548882293179
ANGLE_2 = 2016-10-12T19:16:00.000 53.81448676208783
RANGE = 2016-10-12T19:16:00.000 168619496.8852061

ANGLE_1 = 2016-10-12T19:17:00.000 84.8251025472445
ANGLE_2 = 2016-10-12T19:17:00.000 54.01610549829195
RANGE = 2016-10-12T19:17:00.000 168620243.71923196

ANGLE_1 = 2016-10-12T19:18:00.000 84.65307634914257
ANGLE_2 = 2016-10-12T19:18:00.000 54.218207309045
RANGE = 2016-10-12T19:18:00.000 168620990.6463087

ANGLE_1 = 2016-10-12T19:19:00.000 84.47936738088136
ANGLE_2 = 2016-10-12T19:19:00.000 54.41994501009137
RANGE = 2016-10-12T19:19:00.000 168621737.62225914

ANGLE_1 = 2016-10-12T19:20:00.000 84.30561925038664
ANGLE_2 = 2016-10-12T19:20:00.000 54.62230466682104
RANGE = 2016-10-12T19:20:00.000 168622484.64080042

ANGLE_1 = 2016-10-12T19:21:00.000 84.13060354008178
ANGLE_2 = 2016-10-12T19:21:00.000 54.82432486814479
RANGE = 2016-10-12T19:21:00.000 168623231.7826098

ANGLE_1 = 2016-10-12T19:22:00.000 83.9537452890516
ANGLE_2 = 2016-10-12T19:22:00.000 55.026596586691895
RANGE = 2016-10-12T19:22:00.000 168623978.99762344

ANGLE_1 = 2016-10-12T19:23:00.000 83.77644592797749
ANGLE_2 = 2016-10-12T19:23:00.000 55.22761726264538
RANGE = 2016-10-12T19:23:00.000 168624726.23091686

ANGLE_1 = 2016-10-12T19:24:00.000 83.59701327005237
ANGLE_2 = 2016-10-12T19:24:00.000 55.429320181496024
RANGE = 2016-10-12T19:24:00.000 168625473.54239658

ANGLE_1 = 2016-10-12T19:25:00.000 83.4179453968632
ANGLE_2 = 2016-10-12T19:25:00.000 55.631574661330625
RANGE = 2016-10-12T19:25:00.000 168626220.9221721

ANGLE_1 = 2016-10-12T19:26:00.000 83.23661840184884
ANGLE_2 = 2016-10-12T19:26:00.000 55.832651487386386
RANGE = 2016-10-12T19:26:00.000 168626968.39620277

ANGLE_1 = 2016-10-12T19:27:00.000 83.05464807660843
ANGLE_2 = 2016-10-12T19:27:00.000 56.03390139649381
RANGE = 2016-10-12T19:27:00.000 168627715.8905324

ANGLE_1 = 2016-10-12T19:28:00.000 82.87159415050546
ANGLE_2 = 2016-10-12T19:28:00.000 56.23582879434702
RANGE = 2016-10-12T19:28:00.000 168628463.46232393

ANGLE_1 = 2016-10-12T19:29:00.000 82.6861888491107
ANGLE_2 = 2016-10-12T19:29:00.000 56.43741320109898
RANGE = 2016-10-12T19:29:00.000 168629211.15935192

ANGLE_1 = 2016-10-12T19:30:00.000 82.50036588962027
ANGLE_2 = 2016-10-12T19:30:00.000 56.63867318203026
RANGE = 2016-10-12T19:30:00.000 168629958.89237848

ANGLE_1 = 2016-10-12T19:31:00.000 82.31367648856614
ANGLE_2 = 2016-10-12T19:31:00.000 56.83940448654217
RANGE = 2016-10-12T19:31:00.000 168630706.72751895

ANGLE_1 = 2016-10-12T19:32:00.000 82.12426011873367
ANGLE_2 = 2016-10-12T19:32:00.000 57.040645877579564
RANGE = 2016-10-12T19:32:00.000 168631454.55835974

ANGLE_1 = 2016-10-12T19:33:00.000 81.93399774579981
ANGLE_2 = 2016-10-12T19:33:00.000 57.241926963104454
RANGE = 2016-10-12T19:33:00.000 168632202.49316022

ANGLE_1 = 2016-10-12T19:34:00.000 81.7429822683247
ANGLE_2 = 2016-10-12T19:34:00.000 57.44278455627671
RANGE = 2016-10-12T19:34:00.000 168632950.49783242

ANGLE_1 = 2016-10-12T19:35:00.000 81.55009515688367
ANGLE_2 = 2016-10-12T19:35:00.000 57.64359246216165
RANGE = 2016-10-12T19:35:00.000 168633698.5941584

ANGLE_1 = 2016-10-12T19:36:00.000 81.35599640619978
ANGLE_2 = 2016-10-12T19:36:00.000 57.84440279242023
RANGE = 2016-10-12T19:36:00.000 168634446.745887

ANGLE_1 = 2016-10-12T19:37:00.000 81.16027462915106
ANGLE_2 = 2016-10-12T19:37:00.000 58.04445273575748
RANGE = 2016-10-12T19:37:00.000 168635194.9720629

ANGLE_1 = 2016-10-12T19:38:00.000 80.96367863337076
ANGLE_2 = 2016-10-12T19:38:00.000 58.24537156047495
RANGE = 2016-10-12T19:38:00.000 168635943.23476654

ANGLE_1 = 2016-10-12T19:39:00.000 80.7647692140596
ANGLE_2 = 2016-10-12T19:39:00.000 58.44581892262661
RANGE = 2016-10-12T19:39:00.000 168636691.61024

ANGLE_1 = 2016-10-12T19:40:00.000 80.56411172888971
ANGLE_2 = 2016-10-12T19:40:00.000 58.64548466917905
RANGE = 2016-10-12T19:40:00.000 168637440.0608871

ANGLE_1 = 2016-10-12T19:41:00.000 80.3625391637347
ANGLE_2 = 2016-10-12T19:41:00.000 58.84555838491007
RANGE = 2016-10-12T19:41:00.000 168638188.5544178

ANGLE_1 = 2016-10-12T19:42:00.000 80.15884632374312
ANGLE_2 = 2016-10-12T19:42:00.000 59.04635265272465
RANGE = 2016-10-12T19:42:00.000 168638937.1713788

ANGLE_1 = 2016-10-12T19:43:00.000 79.95375059532512
ANGLE_2 = 2016-10-12T19:43:00.000 59.2458915537491
RANGE = 2016-10-12T19:43:00.000 168639685.80089822

ANGLE_1 = 2016-10-12T19:44:00.000 79.74744171686602
ANGLE_2 = 2016-10-12T19:44:00.000 59.445624627287735
RANGE = 2016-10-12T19:44:00.000 168640434.5148642

ANGLE_1 = 2016-10-12T19:45:00.000 79.53935461259935
ANGLE_2 = 2016-10-12T19:45:00.000 59.64589525771412
RANGE = 2016-10-12T19:45:00.000 168641183.3056097

ANGLE_1 = 2016-10-12T19:46:00.000 79.32854589098051
ANGLE_2 = 2016-10-12T19:46:00.000 59.84482775997407
RANGE = 2016-10-12T19:46:00.000 168641932.20791587

ANGLE_1 = 2016-10-12T19:47:00.000 79.11718681016448
ANGLE_2 = 2016-10-12T19:47:00.000 60.044745492638036
RANGE = 2016-10-12T19:47:00.000 168642681.15867227

ANGLE_1 = 2016-10-12T19:48:00.000 78.90266545002419
ANGLE_2 = 2016-10-12T19:48:00.000 60.24386875345009
RANGE = 2016-10-12T19:48:00.000 168643430.15848947

ANGLE_1 = 2016-10-12T19:49:00.000 78.68704990503846
ANGLE_2 = 2016-10-12T19:49:00.000 60.44298951850899
RANGE = 2016-10-12T19:49:00.000 168644179.24036267

ANGLE_1 = 2016-10-12T19:50:00.000 78.46919859416307
ANGLE_2 = 2016-10-12T19:50:00.000 60.64177302223624
RANGE = 2016-10-12T19:50:00.000 168644928.43489927

ANGLE_1 = 2016-10-12T19:51:00.000 78.24947743220912
ANGLE_2 = 2016-10-12T19:51:00.000 60.84090846100107
RANGE = 2016-10-12T19:51:00.000 168645677.68444052

ANGLE_1 = 2016-10-12T19:52:00.000 78.02881453593139
ANGLE_2 = 2016-10-12T19:52:00.000 61.038830086643614
RANGE = 2016-10-12T19:52:00.000 168646426.9867786

ANGLE_1 = 2016-10-12T19:53:00.000 77.80502967556032
ANGLE_2 = 2016-10-12T19:53:00.000 61.237830007728164
RANGE = 2016-10-12T19:53:00.000 168647176.3538796

ANGLE_1 = 2016-10-12T19:54:00.000 77.57999683477512
ANGLE_2 = 2016-10-12T19:54:00.000 61.43628299404713
RANGE = 2016-10-12T19:54:00.000 168647925.84045842

ANGLE_1 = 2016-10-12T19:55:00.000 77.35138634096997
ANGLE_2 = 2016-10-12T19:55:00.000 61.63351993254849
RANGE = 2016-10-12T19:55:00.000 168648675.3709954

ANGLE_1 = 2016-10-12T19:56:00.000 77.12201386513644
ANGLE_2 = 2016-10-12T19:56:00.000 61.83204853022839
RANGE = 2016-10-12T19:56:00.000 168649424.99974823

ANGLE_1 = 2016-10-12T19:57:00.000 76.88948147875043
ANGLE_2 = 2016-10-12T19:57:00.000 62.02979474473285
RANGE = 2016-10-12T19:57:00.000 168650174.6719491

ANGLE_1 = 2016-10-12T19:58:00.000 76.6558608748169
ANGLE_2 = 2016-10-12T19:58:00.000 62.22758722137352
RANGE = 2016-10-12T19:58:00.000 168650924.43765986

ANGLE_1 = 2016-10-12T19:59:00.000 76.41912488018171
ANGLE_2 = 2016-10-12T19:59:00.000 62.42519640430372
RANGE = 2016-10-12T19:59:00.000 168651674.27908558

ANGLE_1 = 2016-10-12T20:00:00.000 76.18017009400117
ANGLE_2 = 2016-10-12T20:00:00.000 62.62230600170293
RANGE = 2016-10-12T20:00:00.000 168652424.19117302

ANGLE_1 = 2016-10-12T20:01:00.000 75.939264998486
ANGLE_2 = 2016-10-12T20:01:00.000 62.81904255036413
RANGE = 2016-10-12T20:01:00.000 168653174.1657504

ANGLE_1 = 2016-10-12T20:02:00.000 75.69555187641181
ANGLE_2 = 2016-10-12T20:02:00.000 63.01552146431699
RANGE = 2016-10-12T20:02:00.000 168653924.2087433

ANGLE_1 = 2016-10-12T20:03:00.000 75.44938197483354
ANGLE_2 = 2016-10-12T20:03:00.000 63.212138666032075
RANGE = 2016-10-12T20:03:00.000 168654674.40477946

ANGLE_1 = 2016-10-12T20:04:00.000 75.20098278768782
ANGLE_2 = 2016-10-12T20:04:00.000 63.40876697380393
RANGE = 2016-10-12T20:04:00.000 168655424.5955407

ANGLE_1 = 2016-10-12T20:05:00.000 74.94897945145891
ANGLE_2 = 2016-10-12T20:05:00.000 63.60509824893999
RANGE = 2016-10-12T20:05:00.000 168656174.91976818

ANGLE_1 = 2016-10-12T20:06:00.000 74.69511452497406
ANGLE_2 = 2016-10-12T20:06:00.000 63.80068684440532
RANGE = 2016-10-12T20:06:00.000 168656925.3043833

ANGLE_1 = 2016-10-12T20:07:00.000 74.43806026918848
ANGLE_2 = 2016-10-12T20:07:00.000 63.99604712489238
RANGE = 2016-10-12T20:07:00.000 168657675.74330497

ANGLE_1 = 2016-10-12T20:08:00.000 74.17840573740564
ANGLE_2 = 2016-10-12T20:08:00.000 64.19189957129365
RANGE = 2016-10-12T20:08:00.000 168658426.2726518

ANGLE_1 = 2016-10-12T20:09:00.000 73.91635737697109
ANGLE_2 = 2016-10-12T20:09:00.000 64.38678767384134
RANGE = 2016-10-12T20:09:00.000 168659176.9029446

ANGLE_1 = 2016-10-12T20:10:00.000 73.65150372641962
ANGLE_2 = 2016-10-12T20:10:00.000 64.58186308549115
RANGE = 2016-10-12T20:10:00.000 168659927.5837192

ANGLE_1 = 2016-10-12T20:11:00.000 73.38344642068259
ANGLE_2 = 2016-10-12T20:11:00.000 64.77682144174867
RANGE = 2016-10-12T20:11:00.000 168660678.32064793

ANGLE_1 = 2016-10-12T20:12:00.000 73.11210400987073
ANGLE_2 = 2016-10-12T20:12:00.000 64.97056825057479
RANGE = 2016-10-12T20:12:00.000 168661429.19057238

ANGLE_1 = 2016-10-12T20:13:00.000 72.8375860871897
ANGLE_2 = 2016-10-12T20:13:00.000 65.1648580882668
RANGE = 2016-10-12T20:13:00.000 168662180.08897802

ANGLE_1 = 2016-10-12T20:14:00.000 72.5603353737197
ANGLE_2 = 2016-10-12T20:14:00.000 65.35828685701765
RANGE = 2016-10-12T20:14:00.000 168662931.0802274

ANGLE_1 = 2016-10-12T20:15:00.000 72.27908928377168
ANGLE_2 = 2016-10-12T20:15:00.000 65.55195582511088
RANGE = 2016-10-12T20:15:00.000 168663682.1628435

ANGLE_1 = 2016-10-12T20:16:00.000 71.99633625650627
ANGLE_2 = 2016-10-12T20:16:00.000 65.74493896389279
RANGE = 2016-10-12T20:16:00.000 168664433.31502908

ANGLE_1 = 2016-10-12T20:17:00.000 71.70903479836807
ANGLE_2 = 2016-10-12T20:17:00.000 65.93774900961039
RANGE = 2016-10-12T20:17:00.000 168665184.57172662

ANGLE_1 = 2016-10-12T20:18:00.000 71.41778950691054
ANGLE_2 = 2016-10-12T20:18:00.000 66.13047607765255
RANGE = 2016-10-12T20:18:00.000 168665935.87493038

ANGLE_1 = 2016-10-12T20:19:00.000 71.12336855899156
ANGLE_2 = 2016-10-12T20:19:00.000 66.3235663870235
RANGE = 2016-10-12T20:19:00.000 168666687.30743787

ANGLE_1 = 2016-10-12T20:20:00.000 70.82555444643238
ANGLE_2 = 2016-10-12T20:20:00.000 66.51473498326163
RANGE = 2016-10-12T20:20:00.000 168667438.7379874

ANGLE_1 = 2016-10-12T20:21:00.000 70.52356426335794
ANGLE_2 = 2016-10-12T20:21:00.000 66.70552043433254
RANGE = 2016-10-12T20:21:00.000 168668190.27813336

ANGLE_1 = 2016-10-12T20:22:00.000 70.21775267386606
ANGLE_2 = 2016-10-12T20:22:00.000 66.89742905459862
RANGE = 2016-10-12T20:22:00.000 168668941.93327326

ANGLE_1 = 2016-10-12T20:23:00.000 69.90837540750863
ANGLE_2 = 2016-10-12T20:23:00.000 67.08806655704232
RANGE = 2016-10-12T20:23:00.000 168669693.6317813

ANGLE_1 = 2016-10-12T20:24:00.000 69.59496751896539
ANGLE_2 = 2016-10-12T20:24:00.000 67.27840072207411
RANGE = 2016-10-12T20:24:00.000 168670445.41676006

ANGLE_1 = 2016-10-12T20:25:00.000 69.27707639893744
ANGLE_2 = 2016-10-12T20:25:00.000 67.4687514008786
RANGE = 2016-10-12T20:25:00.000 168671197.28562003

ANGLE_1 = 2016-10-12T20:26:00.000 68.955312277098
ANGLE_2 = 2016-10-12T20:26:00.000 67.65814399511098
RANGE = 2016-10-12T20:26:00.000 168671949.21242023

ANGLE_1 = 2016-10-12T20:27:00.000 68.62924578413194
ANGLE_2 = 2016-10-12T20:27:00.000 67.84779787454883
RANGE = 2016-10-12T20:27:00.000 168672701.2643779

ANGLE_1 = 2016-10-12T20:28:00.000 68.2987298834632
ANGLE_2 = 2016-10-12T20:28:00.000 68.03655895373174
RANGE = 2016-10-12T20:28:00.000 168673453.39547732

ANGLE_1 = 2016-10-12T20:29:00.000 67.96384430247879
ANGLE_2 = 2016-10-12T20:29:00.000 68.22472100766187
RANGE = 2016-10-12T20:29:00.000 168674205.59331438

ANGLE_1 = 2016-10-12T20:30:00.000 67.62521175811234
ANGLE_2 = 2016-10-12T20:30:00.000 68.41189998130213
RANGE = 2016-10-12T20:30:00.000 168674957.8865476

ANGLE_1 = 2016-10-12T20:31:00.000 67.28114389873468
ANGLE_2 = 2016-10-12T20:31:00.000 68.59987115777034
RANGE = 2016-10-12T20:31:00.000 168675710.24190193

ANGLE_1 = 2016-10-12T20:32:00.000 66.93196969829684
ANGLE_2 = 2016-10-12T20:32:00.000 68.78707614948189
RANGE = 2016-10-12T20:32:00.000 168676462.70223767

ANGLE_1 = 2016-10-12T20:33:00.000 66.5778687503042
ANGLE_2 = 2016-10-12T20:33:00.000 68.97295019988165
RANGE = 2016-10-12T20:33:00.000 168677215.16182712

ANGLE_1 = 2016-10-12T20:34:00.000 66.21935723028523
ANGLE_2 = 2016-10-12T20:34:00.000 69.15913370354674
RANGE = 2016-10-12T20:34:00.000 168677967.76754862

ANGLE_1 = 2016-10-12T20:35:00.000 65.85502727366209
ANGLE_2 = 2016-10-12T20:35:00.000 69.34438100115626
RANGE = 2016-10-12T20:35:00.000 168678720.47005245

ANGLE_1 = 2016-10-12T20:36:00.000 65.48539171538326
ANGLE_2 = 2016-10-12T20:36:00.000 69.52996572971065
RANGE = 2016-10-12T20:36:00.000 168679473.22462055

ANGLE_1 = 2016-10-12T20:37:00.000 65.11061325197116
ANGLE_2 = 2016-10-12T20:37:00.000 69.71419334645084
RANGE = 2016-10-12T20:37:00.000 168680226.09816408

ANGLE_1 = 2016-10-12T20:38:00.000 64.73052704692628
ANGLE_2 = 2016-10-12T20:38:00.000 69.8978959126777
RANGE = 2016-10-12T20:38:00.000 168680979.01103318

ANGLE_1 = 2016-10-12T20:39:00.000 64.34462199621949
ANGLE_2 = 2016-10-12T20:39:00.000 70.08134561260717
RANGE = 2016-10-12T20:39:00.000 168681731.9925697

ANGLE_1 = 2016-10-12T20:40:00.000 63.95288589746403
ANGLE_2 = 2016-10-12T20:40:00.000 70.26438026131292
RANGE = 2016-10-12T20:40:00.000 168682485.08219564

ANGLE_1 = 2016-10-12T20:41:00.000 63.554258665833984
ANGLE_2 = 2016-10-12T20:41:00.000 70.44606426443382
RANGE = 2016-10-12T20:41:00.000 168683238.28281334

ANGLE_1 = 2016-10-12T20:42:00.000 63.15059393768702
ANGLE_2 = 2016-10-12T20:42:00.000 70.6273139209684
RANGE = 2016-10-12T20:42:00.000 168683991.52637097

ANGLE_1 = 2016-10-12T20:43:00.000 62.74048444706762
ANGLE_2 = 2016-10-12T20:43:00.000 70.8078103585103
RANGE = 2016-10-12T20:43:00.000 168684744.852658

ANGLE_1 = 2016-10-12T20:44:00.000 62.32357055471323
ANGLE_2 = 2016-10-12T20:44:00.000 70.98797590898619
RANGE = 2016-10-12T20:44:00.000 168685498.3122788

ANGLE_1 = 2016-10-12T20:45:00.000 61.89955390633824
ANGLE_2 = 2016-10-12T20:45:00.000 71.1675793042615
RANGE = 2016-10-12T20:45:00.000 168686251.8432585

ANGLE_1 = 2016-10-12T20:46:00.000 61.46916486642672
ANGLE_2 = 2016-10-12T20:46:00.000 71.34684911826889
RANGE = 2016-10-12T20:46:00.000 168687005.41425368

ANGLE_1 = 2016-10-12T20:47:00.000 61.032346756382594
ANGLE_2 = 2016-10-12T20:47:00.000 71.52489230648092
RANGE = 2016-10-12T20:47:00.000 168687759.0749492

ANGLE_1 = 2016-10-12T20:48:00.000 60.588010769543025
ANGLE_2 = 2016-10-12T20:48:00.000 71.7014971224954
RANGE = 2016-10-12T20:48:00.000 168688512.82912877

ANGLE_1 = 2016-10-12T20:49:00.000 60.136998985076104
ANGLE_2 = 2016-10-12T20:49:00.000 71.87829575975222
RANGE = 2016-10-12T20:49:00.000 168689266.67191786

ANGLE_1 = 2016-10-12T20:50:00.000 59.677236162216644
ANGLE_2 = 2016-10-12T20:50:00.000 72.05362812790489
RANGE = 2016-10-12T20:50:00.000 168690020.60256165

ANGLE_1 = 2016-10-12T20:51:00.000 59.2109521321163
ANGLE_2 = 2016-10-12T20:51:00.000 72.22854645803271
RANGE = 2016-10-12T20:51:00.000 168690774.6186947

ANGLE_1 = 2016-10-12T20:52:00.000 58.73634766949747
ANGLE_2 = 2016-10-12T20:52:00.000 72.4017443157826
RANGE = 2016-10-12T20:52:00.000 168691528.6969506

ANGLE_1 = 2016-10-12T20:53:00.000 58.25390357423864
ANGLE_2 = 2016-10-12T20:53:00.000 72.57508368471402
RANGE = 2016-10-12T20:53:00.000 168692282.85777837

ANGLE_1 = 2016-10-12T20:54:00.000 57.76262024883376
ANGLE_2 = 2016-10-12T20:54:00.000 72.74696686043694
RANGE = 2016-10-12T20:54:00.000 168693037.1332747

ANGLE_1 = 2016-10-12T20:55:00.000 57.263109964153195
ANGLE_2 = 2016-10-12T20:55:00.000 72.91819202058436
RANGE = 2016-10-12T20:55:00.000 168693791.45682058

ANGLE_1 = 2016-10-12T20:56:00.000 56.75524970913075
ANGLE_2 = 2016-10-12T20:56:00.000 73.08920970694855
RANGE = 2016-10-12T20:56:00.000 168694545.88277847

ANGLE_1 = 2016-10-12T20:57:00.000 56.23758335103875
ANGLE_2 = 2016-10-12T20:57:00.000 73.25750914051054
RANGE = 2016-10-12T20:57:00.000 168695300.44754303

ANGLE_1 = 2016-10-12T20:58:00.000 55.71152998950129
ANGLE_2 = 2016-10-12T20:58:00.000 73.42617315608913
RANGE = 2016-10-12T20:58:00.000 168696055.0128727

ANGLE_1 = 2016-10-12T20:59:00.000 55.17666201550659
ANGLE_2 = 2016-10-12T20:59:00.000 73.59310714404035
RANGE = 2016-10-12T20:59:00.000 168696809.6745301

ANGLE_1 = 2016-10-12T21:00:00.000 54.63117980549332
ANGLE_2 = 2016-10-12T21:00:00.000 73.75908525364643
RANGE = 2016-10-12T21:00:00.000 168697564.4705907

ANGLE_1 = 2016-10-12T21:01:00.000 54.07663908495881
ANGLE_2 = 2016-10-12T21:01:00.000 73.92417121466244
RANGE = 2016-10-12T21:01:00.000 168698319.3135198

ANGLE_1 = 2016-10-12T21:02:00.000 53.511695710441046
ANGLE_2 = 2016-10-12T21:02:00.000 74.08782380947983
RANGE = 2016-10-12T21:02:00.000 168699074.2477672

ANGLE_1 = 2016-10-12T21:03:00.000 52.936730618322024
ANGLE_2 = 2016-10-12T21:03:00.000 74.25080031895907
RANGE = 2016-10-12T21:03:00.000 168699829.26418364

ANGLE_1 = 2016-10-12T21:04:00.000 52.35108009191501
ANGLE_2 = 2016-10-12T21:04:00.000 74.41226048750265
RANGE = 2016-10-12T21:04:00.000 168700584.3772045

ANGLE_1 = 2016-10-12T21:05:00.000 51.754780214810694
ANGLE_2 = 2016-10-12T21:05:00.000 74.57186579719057
RANGE = 2016-10-12T21:05:00.000 168701339.5768999

ANGLE_1 = 2016-10-12T21:06:00.000 51.147695578497604
ANGLE_2 = 2016-10-12T21:06:00.000 74.73072286352208
RANGE = 2016-10-12T21:06:00.000 168702094.86188683

ANGLE_1 = 2016-10-12T21:07:00.000 50.52887285614093
ANGLE_2 = 2016-10-12T21:07:00.000 74.88800932415002
RANGE = 2016-10-12T21:07:00.000 168702850.22238976

ANGLE_1 = 2016-10-12T21:08:00.000 49.89836657375831
ANGLE_2 = 2016-10-12T21:08:00.000 75.04359808283695
RANGE = 2016-10-12T21:08:00.000 168703605.6479682

ANGLE_1 = 2016-10-12T21:09:00.000 49.2571585000229
ANGLE_2 = 2016-10-12T21:09:00.000 75.1983678494655
RANGE = 2016-10-12T21:09:00.000 168704361.21296382

ANGLE_1 = 2016-10-12T21:10:00.000 48.60278530612648
ANGLE_2 = 2016-10-12T21:10:00.000 75.35136601139187
RANGE = 2016-10-12T21:10:00.000 168705116.79705012

ANGLE_1 = 2016-10-12T21:11:00.000 47.93656240916666
ANGLE_2 = 2016-10-12T21:11:00.000 75.50249258504152
RANGE = 2016-10-12T21:11:00.000 168705872.51583585

ANGLE_1 = 2016-10-12T21:12:00.000 47.257567282844676
ANGLE_2 = 2016-10-12T21:12:00.000 75.65257557905869
RANGE = 2016-10-12T21:12:00.000 168706628.33611858

ANGLE_1 = 2016-10-12T21:13:00.000 46.56665383081032
ANGLE_2 = 2016-10-12T21:13:00.000 75.80027372693651
RANGE = 2016-10-12T21:13:00.000 168707384.23093182

ANGLE_1 = 2016-10-12T21:14:00.000 45.86088483262151
ANGLE_2 = 2016-10-12T21:14:00.000 75.94725888278475
RANGE = 2016-10-12T21:14:00.000 168708140.14833847

ANGLE_1 = 2016-10-12T21:15:00.000 45.14414212710781
ANGLE_2 = 2016-10-12T21:15:00.000 76.09212366785646
RANGE = 2016-10-12T21:15:00.000 168708896.19498354

ANGLE_1 = 2016-10-12T21:16:00.000 44.412620991871314
ANGLE_2 = 2016-10-12T21:16:00.000 76.23528609461006
RANGE = 2016-10-12T21:16:00.000 168709652.35578504

ANGLE_1 = 2016-10-12T21:17:00.000 43.66675769847526
ANGLE_2 = 2016-10-12T21:17:00.000 76.37599389058606
RANGE = 2016-10-12T21:17:00.000 168710408.56653398

ANGLE_1 = 2016-10-12T21:18:00.000 42.90730359778879
ANGLE_2 = 2016-10-12T21:18:00.000 76.51525754248006
RANGE = 2016-10-12T21:18:00.000 168711164.85858557

ANGLE_1 = 2016-10-12T21:19:00.000 42.13350570098749
ANGLE_2 = 2016-10-12T21:19:00.000 76.65227152669404
RANGE = 2016-10-12T21:19:00.000 168711921.26689157

ANGLE_1 = 2016-10-12T21:20:00.000 41.345021968279305
ANGLE_2 = 2016-10-12T21:20:00.000 76.78716330716604
RANGE = 2016-10-12T21:20:00.000 168712677.73485264

ANGLE_1 = 2016-10-12T21:21:00.000 40.54184263620535
ANGLE_2 = 2016-10-12T21:21:00.000 76.92032241285362
RANGE = 2016-10-12T21:21:00.000 168713434.33069187

ANGLE_1 = 2016-10-12T21:22:00.000 39.72403958206068
ANGLE_2 = 2016-10-12T21:22:00.000 77.05058393949938
RANGE = 2016-10-12T21:22:00.000 168714190.97902098

ANGLE_1 = 2016-10-12T21:23:00.000 38.89088537568823
ANGLE_2 = 2016-10-12T21:23:00.000 77.17966335688864
RANGE = 2016-10-12T21:23:00.000 168714947.71333164

ANGLE_1 = 2016-10-12T21:24:00.000 38.042406225359855
ANGLE_2 = 2016-10-12T21:24:00.000 77.30633515825296
RANGE = 2016-10-12T21:24:00.000 168715704.54985753

ANGLE_1 = 2016-10-12T21:25:00.000 37.17912117174033
ANGLE_2 = 2016-10-12T21:25:00.000 77.43026216433033
RANGE = 2016-10-12T21:25:00.000 168716461.47789258

ANGLE_1 = 2016-10-12T21:26:00.000 36.29896989142563
ANGLE_2 = 2016-10-12T21:26:00.000 77.55070585124797
RANGE = 2016-10-12T21:26:00.000 168717218.47319347

ANGLE_1 = 2016-10-12T21:27:00.000 35.40408913449326
ANGLE_2 = 2016-10-12T21:27:00.000 77.66960890153644
RANGE = 2016-10-12T21:27:00.000 168717975.52454993

ANGLE_1 = 2016-10-12T21:28:00.000 34.49268739958184
ANGLE_2 = 2016-10-12T21:28:00.000 77.78671881756074
RANGE = 2016-10-12T21:28:00.000 168718732.7214137

ANGLE_1 = 2016-10-12T21:29:00.000 33.56439717310486
ANGLE_2 = 2016-10-12T21:29:00.000 77.89940771322038
RANGE = 2016-10-12T21:29:00.000 168719490.00176316

ANGLE_1 = 2016-10-12T21:30:00.000 32.62109713371323
ANGLE_2 = 2016-10-12T21:30:00.000 78.01059683692017
RANGE = 2016-10-12T21:30:00.000 168720247.31931457

ANGLE_1 = 2016-10-12T21:31:00.000 31.66167419120126
ANGLE_2 = 2016-10-12T21:31:00.000 78.11840600298146
RANGE = 2016-10-12T21:31:00.000 168721004.73547384

ANGLE_1 = 2016-10-12T21:32:00.000 30.685786391932552
ANGLE_2 = 2016-10-12T21:32:00.000 78.22339187686201
RANGE = 2016-10-12T21:32:00.000 168721762.27462447

ANGLE_1 = 2016-10-12T21:33:00.000 29.693485767437235
ANGLE_2 = 2016-10-12T21:33:00.000 78.32536390222023
RANGE = 2016-10-12T21:33:00.000 168722519.9130322

ANGLE_1 = 2016-10-12T21:34:00.000 28.686146296690243
ANGLE_2 = 2016-10-12T21:34:00.000 78.42424028841992
RANGE = 2016-10-12T21:34:00.000 168723277.61929142

ANGLE_1 = 2016-10-12T21:35:00.000 27.66136046435344
ANGLE_2 = 2016-10-12T21:35:00.000 78.52016740579585
RANGE = 2016-10-12T21:35:00.000 168724035.36981636

ANGLE_1 = 2016-10-12T21:36:00.000 26.62229431828269
ANGLE_2 = 2016-10-12T21:36:00.000 78.61277305665581
RANGE = 2016-10-12T21:36:00.000 168724793.25957566

ANGLE_1 = 2016-10-12T21:37:00.000 25.567583401807234
ANGLE_2 = 2016-10-12T21:37:00.000 78.70160220605344
RANGE = 2016-10-12T21:37:00.000 168725551.19684863

ANGLE_1 = 2016-10-12T21:38:00.000 24.496011526658833
ANGLE_2 = 2016-10-12T21:38:00.000 78.78808499950406
RANGE = 2016-10-12T21:38:00.000 168726309.2484048

ANGLE_1 = 2016-10-12T21:39:00.000 23.41040371437471
ANGLE_2 = 2016-10-12T21:39:00.000 78.86935710964809
RANGE = 2016-10-12T21:39:00.000 168727067.36425498

ANGLE_1 = 2016-10-12T21:40:00.000 22.30975885108847
ANGLE_2 = 2016-10-12T21:40:00.000 78.94954357891126
RANGE = 2016-10-12T21:40:00.000 168727825.59162235

ANGLE_1 = 2016-10-12T21:41:00.000 21.194152261874095
ANGLE_2 = 2016-10-12T21:41:00.000 79.02376327301553
RANGE = 2016-10-12T21:41:00.000 168728583.90966508

ANGLE_1 = 2016-10-12T21:42:00.000 20.06549506026071
ANGLE_2 = 2016-10-12T21:42:00.000 79.0955492857843
RANGE = 2016-10-12T21:42:00.000 168729342.31507096

ANGLE_1 = 2016-10-12T21:43:00.000 18.921816844078492
ANGLE_2 = 2016-10-12T21:43:00.000 79.1629863015117
RANGE = 2016-10-12T21:43:00.000 168730100.82822213

ANGLE_1 = 2016-10-12T21:44:00.000 17.766552207626596
ANGLE_2 = 2016-10-12T21:44:00.000 79.22738572781317
RANGE = 2016-10-12T21:44:00.000 168730859.38787135

ANGLE_1 = 2016-10-12T21:45:00.000 16.597436807336393
ANGLE_2 = 2016-10-12T21:45:00.000 79.28748129744203
RANGE = 2016-10-12T21:45:00.000 168731618.02770373

ANGLE_1 = 2016-10-12T21:46:00.000 15.417757792144549
ANGLE_2 = 2016-10-12T21:46:00.000 79.3428672181048
RANGE = 2016-10-12T21:46:00.000 168732376.74399886

ANGLE_1 = 2016-10-12T21:47:00.000 14.225927577710303
ANGLE_2 = 2016-10-12T21:47:00.000 79.39458747469565
RANGE = 2016-10-12T21:47:00.000 168733135.60153142

ANGLE_1 = 2016-10-12T21:48:00.000 13.023030261796642
ANGLE_2 = 2016-10-12T21:48:00.000 79.44212707089234
RANGE = 2016-10-12T21:48:00.000 168733894.53362423

ANGLE_1 = 2016-10-12T21:49:00.000 11.810616135997428
ANGLE_2 = 2016-10-12T21:49:00.000 79.48609542482747
RANGE = 2016-10-12T21:49:00.000 168734653.55827424

ANGLE_1 = 2016-10-12T21:50:00.000 10.589108240803506
ANGLE_2 = 2016-10-12T21:50:00.000 79.52592777708946
RANGE = 2016-10-12T21:50:00.000 168735412.60874206

ANGLE_1 = 2016-10-12T21:51:00.000 9.359865912710118
ANGLE_2 = 2016-10-12T21:51:00.000 79.56058636561015
RANGE = 2016-10-12T21:51:00.000 168736171.80242252

ANGLE_1 = 2016-10-12T21:52:00.000 8.121657874326493
ANGLE_2 = 2016-10-12T21:52:00.000 79.5910332577715
RANGE = 2016-10-12T21:52:00.000 168736931.07715222

ANGLE_1 = 2016-10-12T21:53:00.000 6.878726407724667
ANGLE_2 = 2016-10-12T21:53:00.000 79.6176630465599
RANGE = 2016-10-12T21:53:00.000 168737690.44163677

ANGLE_1 = 2016-10-12T21:54:00.000 5.630342618988251
ANGLE_2 = 2016-10-12T21:54:00.000 79.63952127332739
RANGE = 2016-10-12T21:54:00.000 168738449.86724156

ANGLE_1 = 2016-10-12T21:55:00.000 4.377040476067081
ANGLE_2 = 2016-10-12T21:55:00.000 79.65760451520133
RANGE = 2016-10-12T21:55:00.000 168739209.41050202

ANGLE_1 = 2016-10-12T21:56:00.000 3.119361652930923
ANGLE_2 = 2016-10-12T21:56:00.000 79.67055031522531
RANGE = 2016-10-12T21:56:00.000 168739969.07937136

ANGLE_1 = 2016-10-12T21:57:00.000 1.8597298512991094
ANGLE_2 = 2016-10-12T21:57:00.000 79.6790082401013
RANGE = 2016-10-12T21:57:00.000 168740728.75843468

ANGLE_1 = 2016-10-12T21:58:00.000 0.5985515296280034
ANGLE_2 = 2016-10-12T21:58:00.000 79.68327163116179
RANGE = 2016-10-12T21:58:00.000 168741488.5833205

ANGLE_1 = 2016-10-12T21:59:00.000 359.33750199841
ANGLE_2 = 2016-10-12T21:59:00.000 79.68429139210251
RANGE = 2016-10-12T21:59:00.000 168742248.47073463

ANGLE_1 = 2016-10-12T22:00:00.000 358.0760980084729
ANGLE_2 = 2016-10-12T22:00:00.000 79.67867256621983
RANGE = 2016-10-12T22:00:00.000 168743008.43156555

ANGLE_1 = 2016-10-12T22:01:00.000 356.8175828052249
ANGLE_2 = 2016-10-12T22:01:00.000 79.66934973900119
RANGE = 2016-10-12T22:01:00.000 168743768.50701013

ANGLE_1 = 2016-10-12T22:02:00.000 355.559825204108
ANGLE_2 = 2016-10-12T22:02:00.000 79.65602921682975
RANGE = 2016-10-12T22:02:00.000 168744528.68604273

ANGLE_1 = 2016-10-12T22:03:00.000 354.30745064207986
ANGLE_2 = 2016-10-12T22:03:00.000 79.63778247882485
RANGE = 2016-10-12T22:03:00.000 168745288.90672803

ANGLE_1 = 2016-10-12T22:04:00.000 353.0586937876201
ANGLE_2 = 2016-10-12T22:04:00.000 79.61545150124847
RANGE = 2016-10-12T22:04:00.000 168746049.20832908

ANGLE_1 = 2016-10-12T22:05:00.000 351.81549208068054
ANGLE_2 = 2016-10-12T22:05:00.000 79.58911119167917
RANGE = 2016-10-12T22:05:00.000 168746809.61279613

ANGLE_1 = 2016-10-12T22:06:00.000 350.5791625363209
ANGLE_2 = 2016-10-12T22:06:00.000 79.55791160538136
RANGE = 2016-10-12T22:06:00.000 168747570.09637284

ANGLE_1 = 2016-10-12T22:07:00.000 349.3507760318982
ANGLE_2 = 2016-10-12T22:07:00.000 79.52200686644781
RANGE = 2016-10-12T22:07:00.000 168748330.6921407

ANGLE_1 = 2016-10-12T22:08:00.000 348.12993550456684
ANGLE_2 = 2016-10-12T22:08:00.000 79.48266405838699
RANGE = 2016-10-12T22:08:00.000 168749091.389043

ANGLE_1 = 2016-10-12T22:09:00.000 346.91853589384806
ANGLE_2 = 2016-10-12T22:09:00.000 79.43922308854876
RANGE = 2016-10-12T22:09:00.000 168749852.17820415

ANGLE_1 = 2016-10-12T22:10:00.000 345.7162206842539
ANGLE_2 = 2016-10-12T22:10:00.000 79.39068600762282
RANGE = 2016-10-12T22:10:00.000 168750612.99573112

ANGLE_1 = 2016-10-12T22:11:00.000 344.52508692981996
ANGLE_2 = 2016-10-12T22:11:00.000 79.33904897864751
RANGE = 2016-10-12T22:11:00.000 168751373.91111028

ANGLE_1 = 2016-10-12T22:12:00.000 343.3456131013207
ANGLE_2 = 2016-10-12T22:12:00.000 79.28203098882557
RANGE = 2016-10-12T22:12:00.000 168752135.00257593

ANGLE_1 = 2016-10-12T22:13:00.000 342.1784692002263
ANGLE_2 = 2016-10-12T22:13:00.000 79.22138202580587
RANGE = 2016-10-12T22:13:00.000 168752896.09833482

ANGLE_1 = 2016-10-12T22:14:00.000 341.0235599676274
ANGLE_2 = 2016-10-12T22:14:00.000 79.15775758199352
RANGE = 2016-10-12T22:14:00.000 168753657.28073287

ANGLE_1 = 2016-10-12T22:15:00.000 339.88172245743374
ANGLE_2 = 2016-10-12T22:15:00.000 79.08942877113016
RANGE = 2016-10-12T22:15:00.000 168754418.56287685

ANGLE_1 = 2016-10-12T22:16:00.000 338.75308376422413
ANGLE_2 = 2016-10-12T22:16:00.000 79.01792726737982
RANGE = 2016-10-12T22:16:00.000 168755179.94835648

ANGLE_1 = 2016-10-12T22:17:00.000 337.63957916018956
ANGLE_2 = 2016-10-12T22:17:00.000 78.94279993149605
RANGE = 2016-10-12T22:17:00.000 168755941.40514702

ANGLE_1 = 2016-10-12T22:18:00.000 336.5402438616042
ANGLE_2 = 2016-10-12T22:18:00.000 78.86308355285466
RANGE = 2016-10-12T22:18:00.000 168756702.97774658

ANGLE_1 = 2016-10-12T22:19:00.000 335.4549653854255
ANGLE_2 = 2016-10-12T22:19:00.000 78.78048765000197
RANGE = 2016-10-12T22:19:00.000 168757464.61875066

ANGLE_1 = 2016-10-12T22:20:00.000 334.3855639252807
ANGLE_2 = 2016-10-12T22:20:00.000 78.69487867380667
RANGE = 2016-10-12T22:20:00.000 168758226.36393192

ANGLE_1 = 2016-10-12T22:21:00.000 333.33211808018575
ANGLE_2 = 2016-10-12T22:21:00.000 78.60519035605786
RANGE = 2016-10-12T22:21:00.000 168758988.15808225

ANGLE_1 = 2016-10-12T22:22:00.000 332.29295753036723
ANGLE_2 = 2016-10-12T22:22:00.000 78.51234601334731
RANGE = 2016-10-12T22:22:00.000 168759750.0528953

ANGLE_1 = 2016-10-12T22:23:00.000 331.27076944866934
ANGLE_2 = 2016-10-12T22:23:00.000 78.41662458291923
RANGE = 2016-10-12T22:23:00.000 168760512.01540485

ANGLE_1 = 2016-10-12T22:24:00.000 330.2637883578476
ANGLE_2 = 2016-10-12T22:24:00.000 78.31705804754114
RANGE = 2016-10-12T22:24:00.000 168761274.13030365

ANGLE_1 = 2016-10-12T22:25:00.000 329.2735282478042
ANGLE_2 = 2016-10-12T22:25:00.000 78.21505082077987
RANGE = 2016-10-12T22:25:00.000 168762036.27214116

ANGLE_1 = 2016-10-12T22:26:00.000 328.2991124890794
ANGLE_2 = 2016-10-12T22:26:00.000 78.109816242585
RANGE = 2016-10-12T22:26:00.000 168762798.52267107

ANGLE_1 = 2016-10-12T22:27:00.000 327.3410435570656
ANGLE_2 = 2016-10-12T22:27:00.000 78.00150133033873
RANGE = 2016-10-12T22:27:00.000 168763560.88002843

ANGLE_1 = 2016-10-12T22:28:00.000 326.39902351122623
ANGLE_2 = 2016-10-12T22:28:00.000 77.89028917186756
RANGE = 2016-10-12T22:28:00.000 168764323.27586573

ANGLE_1 = 2016-10-12T22:29:00.000 325.4724434561283
ANGLE_2 = 2016-10-12T22:29:00.000 77.77661078271963
RANGE = 2016-10-12T22:29:00.000 168765085.79045254

ANGLE_1 = 2016-10-12T22:30:00.000 324.5620886036053
ANGLE_2 = 2016-10-12T22:30:00.000 77.65959299445493
RANGE = 2016-10-12T22:30:00.000 168765848.38507748

ANGLE_1 = 2016-10-12T22:31:00.000 323.6684732068753
ANGLE_2 = 2016-10-12T22:31:00.000 77.54107048502398
RANGE = 2016-10-12T22:31:00.000 168766611.07815504

ANGLE_1 = 2016-10-12T22:32:00.000 322.7900254195634
ANGLE_2 = 2016-10-12T22:32:00.000 77.42000898216848
RANGE = 2016-10-12T22:32:00.000 168767373.81108797

ANGLE_1 = 2016-10-12T22:33:00.000 321.9269018915979
ANGLE_2 = 2016-10-12T22:33:00.000 77.29599714139422
RANGE = 2016-10-12T22:33:00.000 168768136.73590142

ANGLE_1 = 2016-10-12T22:34:00.000 321.0798267497369
ANGLE_2 = 2016-10-12T22:34:00.000 77.16883603320908
RANGE = 2016-10-12T22:34:00.000 168768899.65576234

ANGLE_1 = 2016-10-12T22:35:00.000 320.2476619696833
ANGLE_2 = 2016-10-12T22:35:00.000 77.04030257048757
RANGE = 2016-10-12T22:35:00.000 168769662.70702198

ANGLE_1 = 2016-10-12T22:36:00.000 319.43135225667015
ANGLE_2 = 2016-10-12T22:36:00.000 76.91001474590118
RANGE = 2016-10-12T22:36:00.000 168770425.804986

ANGLE_1 = 2016-10-12T22:37:00.000 318.6289266451368
ANGLE_2 = 2016-10-12T22:37:00.000 76.77623627078144
RANGE = 2016-10-12T22:37:00.000 168771189.05474007

ANGLE_1 = 2016-10-12T22:38:00.000 317.84182479611894
ANGLE_2 = 2016-10-12T22:38:00.000 76.64059277430064
RANGE = 2016-10-12T22:38:00.000 168771952.30115837

ANGLE_1 = 2016-10-12T22:39:00.000 317.06975951029426
