2nd Assignment - Navigation/tdm/NEW_NORCIA_EXM_20161010T041435_20161010T150333.tdm

CCSDS_TDM_VERS = 2.0

COMMENT This TDM contains synthetic data, not from real observations

CREATION_DATE = 2021-11-26T14:48:46.503758
ORIGINATOR = POLIMI-DAER

META_START
TIME_SYSTEM = UTC
START_TIME = 2016-10-10T04:14:35.509
STOP_TIME = 2016-10-10T15:03:33.227
PARTICIPANT_1 = NEW_NORCIA
PARTICIPANT_2 = EXM
MODE = SEQUENTIAL
PATH = 1,2,1
RANGE_UNITS = km
ANGLE_TYPE = AZEL
META_STOP

DATA_START

ANGLE_1 = 2016-10-10T04:14:35.509 108.68193189235136
ANGLE_2 = 2016-10-10T04:14:35.509 19.99994407763068
RANGE = 2016-10-10T04:14:35.509 165737858.67483208

ANGLE_1 = 2016-10-10T04:15:00.000 108.63885698869237
ANGLE_2 = 2016-10-10T04:15:00.000 20.082915629993643
RANGE = 2016-10-10T04:15:00.000 165738162.47725555

ANGLE_1 = 2016-10-10T04:16:00.000 108.53437505567665
ANGLE_2 = 2016-10-10T04:16:00.000 20.286041916103983
RANGE = 2016-10-10T04:16:00.000 165738906.73821387

ANGLE_1 = 2016-10-10T04:17:00.000 108.4306722596562
ANGLE_2 = 2016-10-10T04:17:00.000 20.48952381867325
RANGE = 2016-10-10T04:17:00.000 165739650.99593282

ANGLE_1 = 2016-10-10T04:18:00.000 108.32717239699082
ANGLE_2 = 2016-10-10T04:18:00.000 20.692457233157736
RANGE = 2016-10-10T04:18:00.000 165740395.2447381

ANGLE_1 = 2016-10-10T04:19:00.000 108.22414566651236
ANGLE_2 = 2016-10-10T04:19:00.000 20.89588824714374
RANGE = 2016-10-10T04:19:00.000 165741139.5380515

ANGLE_1 = 2016-10-10T04:20:00.000 108.11999034248082
ANGLE_2 = 2016-10-10T04:20:00.000 21.1000607706019
RANGE = 2016-10-10T04:20:00.000 165741883.8339411

ANGLE_1 = 2016-10-10T04:21:00.000 108.01704091635261
ANGLE_2 = 2016-10-10T04:21:00.000 21.30358627835625
RANGE = 2016-10-10T04:21:00.000 165742628.19705153

ANGLE_1 = 2016-10-10T04:22:00.000 107.91391458700515
ANGLE_2 = 2016-10-10T04:22:00.000 21.507093738853353
RANGE = 2016-10-10T04:22:00.000 165743372.51517305

ANGLE_1 = 2016-10-10T04:23:00.000 107.81092288141427
ANGLE_2 = 2016-10-10T04:23:00.000 21.71110511976332
RANGE = 2016-10-10T04:23:00.000 165744116.84384686

ANGLE_1 = 2016-10-10T04:24:00.000 107.7077572100261
ANGLE_2 = 2016-10-10T04:24:00.000 21.91556515778701
RANGE = 2016-10-10T04:24:00.000 165744861.23781902

ANGLE_1 = 2016-10-10T04:25:00.000 107.6045015466471
ANGLE_2 = 2016-10-10T04:25:00.000 22.1196696576417
RANGE = 2016-10-10T04:25:00.000 165745605.65207964

ANGLE_1 = 2016-10-10T04:26:00.000 107.50276896222576
ANGLE_2 = 2016-10-10T04:26:00.000 22.324424758729045
RANGE = 2016-10-10T04:26:00.000 165746350.0093646

ANGLE_1 = 2016-10-10T04:27:00.000 107.40063661977874
ANGLE_2 = 2016-10-10T04:27:00.000 22.52883078689565
RANGE = 2016-10-10T04:27:00.000 165747094.44970188

ANGLE_1 = 2016-10-10T04:28:00.000 107.2978772589695
ANGLE_2 = 2016-10-10T04:28:00.000 22.7334389328091
RANGE = 2016-10-10T04:28:00.000 165747838.86225894

ANGLE_1 = 2016-10-10T04:29:00.000 107.19460177978536
ANGLE_2 = 2016-10-10T04:29:00.000 22.937574578444238
RANGE = 2016-10-10T04:29:00.000 165748583.29886588

ANGLE_1 = 2016-10-10T04:30:00.000 107.09326733485929
ANGLE_2 = 2016-10-10T04:30:00.000 23.14221414745954
RANGE = 2016-10-10T04:30:00.000 165749327.80104262

ANGLE_1 = 2016-10-10T04:31:00.000 106.99084141735833
ANGLE_2 = 2016-10-10T04:31:00.000 23.34781283454023
RANGE = 2016-10-10T04:31:00.000 165750072.3193909

ANGLE_1 = 2016-10-10T04:32:00.000 106.88848364831415
ANGLE_2 = 2016-10-10T04:32:00.000 23.552839273138673
RANGE = 2016-10-10T04:32:00.000 165750816.80680847

ANGLE_1 = 2016-10-10T04:33:00.000 106.78595787928839
ANGLE_2 = 2016-10-10T04:33:00.000 23.75818956301586
RANGE = 2016-10-10T04:33:00.000 165751561.34563255

ANGLE_1 = 2016-10-10T04:34:00.000 106.68516422230202
ANGLE_2 = 2016-10-10T04:34:00.000 23.96373851476025
RANGE = 2016-10-10T04:34:00.000 165752305.91941515

ANGLE_1 = 2016-10-10T04:35:00.000 106.58292414926835
ANGLE_2 = 2016-10-10T04:35:00.000 24.16891885466826
RANGE = 2016-10-10T04:35:00.000 165753050.46767035

ANGLE_1 = 2016-10-10T04:36:00.000 106.48124483865662
ANGLE_2 = 2016-10-10T04:36:00.000 24.373980478559034
RANGE = 2016-10-10T04:36:00.000 165753795.05754748

ANGLE_1 = 2016-10-10T04:37:00.000 106.38012508054683
ANGLE_2 = 2016-10-10T04:37:00.000 24.57987148787695
RANGE = 2016-10-10T04:37:00.000 165754539.6815872

ANGLE_1 = 2016-10-10T04:38:00.000 106.27830934634541
ANGLE_2 = 2016-10-10T04:38:00.000 24.78505084201537
RANGE = 2016-10-10T04:38:00.000 165755284.32733604

ANGLE_1 = 2016-10-10T04:39:00.000 106.17707358765009
ANGLE_2 = 2016-10-10T04:39:00.000 24.991480430021756
RANGE = 2016-10-10T04:39:00.000 165756029.00727278

ANGLE_1 = 2016-10-10T04:40:00.000 106.07586261762503
ANGLE_2 = 2016-10-10T04:40:00.000 25.19723852430604
RANGE = 2016-10-10T04:40:00.000 165756773.70936286

ANGLE_1 = 2016-10-10T04:41:00.000 105.97438330532435
ANGLE_2 = 2016-10-10T04:41:00.000 25.40297254458116
RANGE = 2016-10-10T04:41:00.000 165757518.40327522

ANGLE_1 = 2016-10-10T04:42:00.000 105.87295708140952
ANGLE_2 = 2016-10-10T04:42:00.000 25.609029343603154
RANGE = 2016-10-10T04:42:00.000 165758263.08273515

ANGLE_1 = 2016-10-10T04:43:00.000 105.7729179794451
ANGLE_2 = 2016-10-10T04:43:00.000 25.815643859590825
RANGE = 2016-10-10T04:43:00.000 165759007.86028537

ANGLE_1 = 2016-10-10T04:44:00.000 105.67162035484422
ANGLE_2 = 2016-10-10T04:44:00.000 26.021657551318246
RANGE = 2016-10-10T04:44:00.000 165759752.6332461

ANGLE_1 = 2016-10-10T04:45:00.000 105.57130032400251
ANGLE_2 = 2016-10-10T04:45:00.000 26.22853983815874
RANGE = 2016-10-10T04:45:00.000 165760497.43129945

ANGLE_1 = 2016-10-10T04:46:00.000 105.47048655690118
ANGLE_2 = 2016-10-10T04:46:00.000 26.434702442547536
RANGE = 2016-10-10T04:46:00.000 165761242.26718506

ANGLE_1 = 2016-10-10T04:47:00.000 105.37030597058428
ANGLE_2 = 2016-10-10T04:47:00.000 26.641772240138177
RANGE = 2016-10-10T04:47:00.000 165761987.12266332

ANGLE_1 = 2016-10-10T04:48:00.000 105.26953635203547
ANGLE_2 = 2016-10-10T04:48:00.000 26.847957114006704
RANGE = 2016-10-10T04:48:00.000 165762732.02916092

ANGLE_1 = 2016-10-10T04:49:00.000 105.1686752652726
ANGLE_2 = 2016-10-10T04:49:00.000 27.054367270429662
RANGE = 2016-10-10T04:49:00.000 165763476.92742276

ANGLE_1 = 2016-10-10T04:50:00.000 105.06877989566567
ANGLE_2 = 2016-10-10T04:50:00.000 27.261109041858248
RANGE = 2016-10-10T04:50:00.000 165764221.880667

ANGLE_1 = 2016-10-10T04:51:00.000 104.96737472335283
ANGLE_2 = 2016-10-10T04:51:00.000 27.468550109274247
RANGE = 2016-10-10T04:51:00.000 165764966.81348065

ANGLE_1 = 2016-10-10T04:52:00.000 104.86740131761884
ANGLE_2 = 2016-10-10T04:52:00.000 27.675997565587352
RANGE = 2016-10-10T04:52:00.000 165765711.8058132

ANGLE_1 = 2016-10-10T04:53:00.000 104.76755747081768
ANGLE_2 = 2016-10-10T04:53:00.000 27.882713222629
RANGE = 2016-10-10T04:53:00.000 165766456.84268993

ANGLE_1 = 2016-10-10T04:54:00.000 104.66704351453805
ANGLE_2 = 2016-10-10T04:54:00.000 28.09020800733171
RANGE = 2016-10-10T04:54:00.000 165767201.8875667

ANGLE_1 = 2016-10-10T04:55:00.000 104.56706895303392
ANGLE_2 = 2016-10-10T04:55:00.000 28.297746980625718
RANGE = 2016-10-10T04:55:00.000 165767946.94333848

ANGLE_1 = 2016-10-10T04:56:00.000 104.46671003079861
ANGLE_2 = 2016-10-10T04:56:00.000 28.504980846566358
RANGE = 2016-10-10T04:56:00.000 165768692.04732573

ANGLE_1 = 2016-10-10T04:57:00.000 104.36747700601407
ANGLE_2 = 2016-10-10T04:57:00.000 28.713075964489057
RANGE = 2016-10-10T04:57:00.000 165769437.18796584

ANGLE_1 = 2016-10-10T04:58:00.000 104.26694337066108
ANGLE_2 = 2016-10-10T04:58:00.000 28.920286196210792
RANGE = 2016-10-10T04:58:00.000 165770182.3448825

ANGLE_1 = 2016-10-10T04:59:00.000 104.16715806685887
ANGLE_2 = 2016-10-10T04:59:00.000 29.127957971035304
RANGE = 2016-10-10T04:59:00.000 165770927.54577217

ANGLE_1 = 2016-10-10T05:00:00.000 104.06780566067494
ANGLE_2 = 2016-10-10T05:00:00.000 29.336197644745678
RANGE = 2016-10-10T05:00:00.000 165771672.7684772

ANGLE_1 = 2016-10-10T05:01:00.000 103.96757999219857
ANGLE_2 = 2016-10-10T05:01:00.000 29.544718175789924
RANGE = 2016-10-10T05:01:00.000 165772417.96843943

ANGLE_1 = 2016-10-10T05:02:00.000 103.86796349361815
ANGLE_2 = 2016-10-10T05:02:00.000 29.752213845726303
RANGE = 2016-10-10T05:02:00.000 165773163.29276776

ANGLE_1 = 2016-10-10T05:03:00.000 103.76818182455327
ANGLE_2 = 2016-10-10T05:03:00.000 29.96004959268942
RANGE = 2016-10-10T05:03:00.000 165773908.62738442

ANGLE_1 = 2016-10-10T05:04:00.000 103.66833217828999
ANGLE_2 = 2016-10-10T05:04:00.000 30.168909407326527
RANGE = 2016-10-10T05:04:00.000 165774653.9692362

ANGLE_1 = 2016-10-10T05:05:00.000 103.56860724717907
ANGLE_2 = 2016-10-10T05:05:00.000 30.377309004009767
RANGE = 2016-10-10T05:05:00.000 165775399.3236666

ANGLE_1 = 2016-10-10T05:06:00.000 103.4685831727786
ANGLE_2 = 2016-10-10T05:06:00.000 30.585103882673057
RANGE = 2016-10-10T05:06:00.000 165776144.75650987

ANGLE_1 = 2016-10-10T05:07:00.000 103.36904961669451
ANGLE_2 = 2016-10-10T05:07:00.000 30.79331855425223
RANGE = 2016-10-10T05:07:00.000 165776890.18390742

ANGLE_1 = 2016-10-10T05:08:00.000 103.26944009127787
ANGLE_2 = 2016-10-10T05:08:00.000 31.00223178141375
RANGE = 2016-10-10T05:08:00.000 165777635.68119186

ANGLE_1 = 2016-10-10T05:09:00.000 103.17039106892241
ANGLE_2 = 2016-10-10T05:09:00.000 31.21121212977545
RANGE = 2016-10-10T05:09:00.000 165778381.1988282

ANGLE_1 = 2016-10-10T05:10:00.000 103.07114540459919
ANGLE_2 = 2016-10-10T05:10:00.000 31.419966863368384
RANGE = 2016-10-10T05:10:00.000 165779126.773073

ANGLE_1 = 2016-10-10T05:11:00.000 102.97089012691697
ANGLE_2 = 2016-10-10T05:11:00.000 31.62841835530407
RANGE = 2016-10-10T05:11:00.000 165779872.3324169

ANGLE_1 = 2016-10-10T05:12:00.000 102.87180389314952
ANGLE_2 = 2016-10-10T05:12:00.000 31.83753392667743
RANGE = 2016-10-10T05:12:00.000 165780617.98099136

ANGLE_1 = 2016-10-10T05:13:00.000 102.77187836158642
ANGLE_2 = 2016-10-10T05:13:00.000 32.04627236137268
RANGE = 2016-10-10T05:13:00.000 165781363.62045968

ANGLE_1 = 2016-10-10T05:14:00.000 102.67263629990758
ANGLE_2 = 2016-10-10T05:14:00.000 32.25573699070705
RANGE = 2016-10-10T05:14:00.000 165782109.29701346

ANGLE_1 = 2016-10-10T05:15:00.000 102.57336637572838
ANGLE_2 = 2016-10-10T05:15:00.000 32.46457376617164
RANGE = 2016-10-10T05:15:00.000 165782855.05966607

ANGLE_1 = 2016-10-10T05:16:00.000 102.47376895888713
ANGLE_2 = 2016-10-10T05:16:00.000 32.67374729670382
RANGE = 2016-10-10T05:16:00.000 165783600.79448456

ANGLE_1 = 2016-10-10T05:17:00.000 102.37425778044476
ANGLE_2 = 2016-10-10T05:17:00.000 32.88307944340295
RANGE = 2016-10-10T05:17:00.000 165784346.5731463

ANGLE_1 = 2016-10-10T05:18:00.000 102.27544013854202
ANGLE_2 = 2016-10-10T05:18:00.000 33.09248332675976
RANGE = 2016-10-10T05:18:00.000 165785092.42915887

ANGLE_1 = 2016-10-10T05:19:00.000 102.17551268769812
ANGLE_2 = 2016-10-10T05:19:00.000 33.302049830349326
RANGE = 2016-10-10T05:19:00.000 165785838.28697845

ANGLE_1 = 2016-10-10T05:20:00.000 102.07594490026865
ANGLE_2 = 2016-10-10T05:20:00.000 33.51215937975576
RANGE = 2016-10-10T05:20:00.000 165786584.24899346

ANGLE_1 = 2016-10-10T05:21:00.000 101.97605819540686
ANGLE_2 = 2016-10-10T05:21:00.000 33.72121266533933
RANGE = 2016-10-10T05:21:00.000 165787330.1888343

ANGLE_1 = 2016-10-10T05:22:00.000 101.87762770534898
ANGLE_2 = 2016-10-10T05:22:00.000 33.931222417404584
RANGE = 2016-10-10T05:22:00.000 165788076.18356386

ANGLE_1 = 2016-10-10T05:23:00.000 101.77779923006622
ANGLE_2 = 2016-10-10T05:23:00.000 34.140342728839194
RANGE = 2016-10-10T05:23:00.000 165788822.21511582

ANGLE_1 = 2016-10-10T05:24:00.000 101.6783083343304
ANGLE_2 = 2016-10-10T05:24:00.000 34.35073858552114
RANGE = 2016-10-10T05:24:00.000 165789568.2468088

ANGLE_1 = 2016-10-10T05:25:00.000 101.57905810011502
ANGLE_2 = 2016-10-10T05:25:00.000 34.56077919126894
RANGE = 2016-10-10T05:25:00.000 165790314.34576103

ANGLE_1 = 2016-10-10T05:26:00.000 101.4794716518568
ANGLE_2 = 2016-10-10T05:26:00.000 34.77043210858254
RANGE = 2016-10-10T05:26:00.000 165791060.54825824

ANGLE_1 = 2016-10-10T05:27:00.000 101.37985154032465
ANGLE_2 = 2016-10-10T05:27:00.000 34.98094513864783
RANGE = 2016-10-10T05:27:00.000 165791806.72857806

ANGLE_1 = 2016-10-10T05:28:00.000 101.28016305813983
ANGLE_2 = 2016-10-10T05:28:00.000 35.19039338193531
RANGE = 2016-10-10T05:28:00.000 165792552.9668539

ANGLE_1 = 2016-10-10T05:29:00.000 101.18124361285312
ANGLE_2 = 2016-10-10T05:29:00.000 35.40121296016183
RANGE = 2016-10-10T05:29:00.000 165793299.24969712

ANGLE_1 = 2016-10-10T05:30:00.000 101.08109731389095
ANGLE_2 = 2016-10-10T05:30:00.000 35.611443734639344
RANGE = 2016-10-10T05:30:00.000 165794045.54910806

ANGLE_1 = 2016-10-10T05:31:00.000 100.98164541653307
ANGLE_2 = 2016-10-10T05:31:00.000 35.82167391207428
RANGE = 2016-10-10T05:31:00.000 165794791.89275625

ANGLE_1 = 2016-10-10T05:32:00.000 100.8813062968796
ANGLE_2 = 2016-10-10T05:32:00.000 36.032504941718614
RANGE = 2016-10-10T05:32:00.000 165795538.32271358

ANGLE_1 = 2016-10-10T05:33:00.000 100.78179524868636
ANGLE_2 = 2016-10-10T05:33:00.000 36.24274678548696
RANGE = 2016-10-10T05:33:00.000 165796284.75096226

ANGLE_1 = 2016-10-10T05:34:00.000 100.68254418408533
ANGLE_2 = 2016-10-10T05:34:00.000 36.453139797602155
RANGE = 2016-10-10T05:34:00.000 165797031.21948123

ANGLE_1 = 2016-10-10T05:35:00.000 100.58259962222446
ANGLE_2 = 2016-10-10T05:35:00.000 36.663831228264684
RANGE = 2016-10-10T05:35:00.000 165797777.78359234

ANGLE_1 = 2016-10-10T05:36:00.000 100.48253854932067
ANGLE_2 = 2016-10-10T05:36:00.000 36.87473184112736
RANGE = 2016-10-10T05:36:00.000 165798524.38037372

ANGLE_1 = 2016-10-10T05:37:00.000 100.38203557095592
ANGLE_2 = 2016-10-10T05:37:00.000 37.08509293193521
RANGE = 2016-10-10T05:37:00.000 165799270.94341296

ANGLE_1 = 2016-10-10T05:38:00.000 100.28342803969475
ANGLE_2 = 2016-10-10T05:38:00.000 37.29649180232661
RANGE = 2016-10-10T05:38:00.000 165800017.65361378

ANGLE_1 = 2016-10-10T05:39:00.000 100.1828796777302
ANGLE_2 = 2016-10-10T05:39:00.000 37.50724570272133
RANGE = 2016-10-10T05:39:00.000 165800764.36482766

ANGLE_1 = 2016-10-10T05:40:00.000 100.08296063868578
ANGLE_2 = 2016-10-10T05:40:00.000 37.718146228486624
RANGE = 2016-10-10T05:40:00.000 165801511.1044807

ANGLE_1 = 2016-10-10T05:41:00.000 99.98229590274049
ANGLE_2 = 2016-10-10T05:41:00.000 37.92927123399533
RANGE = 2016-10-10T05:41:00.000 165802257.89891455

ANGLE_1 = 2016-10-10T05:42:00.000 99.88246331213728
ANGLE_2 = 2016-10-10T05:42:00.000 38.140172953810506
RANGE = 2016-10-10T05:42:00.000 165803004.71576515

ANGLE_1 = 2016-10-10T05:43:00.000 99.78179098098808
ANGLE_2 = 2016-10-10T05:43:00.000 38.35096089383039
RANGE = 2016-10-10T05:43:00.000 165803751.63207003

ANGLE_1 = 2016-10-10T05:44:00.000 99.68214650700827
ANGLE_2 = 2016-10-10T05:44:00.000 38.562893930900266
RANGE = 2016-10-10T05:44:00.000 165804498.6013518

ANGLE_1 = 2016-10-10T05:45:00.000 99.58086678304439
ANGLE_2 = 2016-10-10T05:45:00.000 38.774701534840034
RANGE = 2016-10-10T05:45:00.000 165805245.6009507

ANGLE_1 = 2016-10-10T05:46:00.000 99.48041214849188
ANGLE_2 = 2016-10-10T05:46:00.000 38.98562097774353
RANGE = 2016-10-10T05:46:00.000 165805992.6158039

ANGLE_1 = 2016-10-10T05:47:00.000 99.38085973476127
ANGLE_2 = 2016-10-10T05:47:00.000 39.19680067543093
RANGE = 2016-10-10T05:47:00.000 165806739.70921496

ANGLE_1 = 2016-10-10T05:48:00.000 99.27934311920629
ANGLE_2 = 2016-10-10T05:48:00.000 39.40808513881786
RANGE = 2016-10-10T05:48:00.000 165807486.82737654

ANGLE_1 = 2016-10-10T05:49:00.000 99.17901023247356
ANGLE_2 = 2016-10-10T05:49:00.000 39.620160721754814
RANGE = 2016-10-10T05:49:00.000 165808233.9874987

ANGLE_1 = 2016-10-10T05:50:00.000 99.07818647723221
ANGLE_2 = 2016-10-10T05:50:00.000 39.83198770783614
RANGE = 2016-10-10T05:50:00.000 165808981.27739322

ANGLE_1 = 2016-10-10T05:51:00.000 98.9771141101251
ANGLE_2 = 2016-10-10T05:51:00.000 40.04317910494628
RANGE = 2016-10-10T05:51:00.000 165809728.52096933

ANGLE_1 = 2016-10-10T05:52:00.000 98.87597353187745
ANGLE_2 = 2016-10-10T05:52:00.000 40.25574435441518
RANGE = 2016-10-10T05:52:00.000 165810475.85480562

ANGLE_1 = 2016-10-10T05:53:00.000 98.77493279080078
ANGLE_2 = 2016-10-10T05:53:00.000 40.46681649911655
RANGE = 2016-10-10T05:53:00.000 165811223.2419274

ANGLE_1 = 2016-10-10T05:54:00.000 98.67413065935362
ANGLE_2 = 2016-10-10T05:54:00.000 40.67902237715449
RANGE = 2016-10-10T05:54:00.000 165811970.63578463

ANGLE_1 = 2016-10-10T05:55:00.000 98.57131642098412
ANGLE_2 = 2016-10-10T05:55:00.000 40.890572000442525
RANGE = 2016-10-10T05:55:00.000 165812718.13962868

ANGLE_1 = 2016-10-10T05:56:00.000 98.4710474361187
ANGLE_2 = 2016-10-10T05:56:00.000 41.10244974339289
RANGE = 2016-10-10T05:56:00.000 165813465.68379223

ANGLE_1 = 2016-10-10T05:57:00.000 98.36909576306502
ANGLE_2 = 2016-10-10T05:57:00.000 41.314786567295855
RANGE = 2016-10-10T05:57:00.000 165814213.28144613

ANGLE_1 = 2016-10-10T05:58:00.000 98.26728793035566
ANGLE_2 = 2016-10-10T05:58:00.000 41.52695877006052
RANGE = 2016-10-10T05:58:00.000 165814960.83368525

ANGLE_1 = 2016-10-10T05:59:00.000 98.16531386294555
ANGLE_2 = 2016-10-10T05:59:00.000 41.73896739511656
RANGE = 2016-10-10T05:59:00.000 165815708.56105098

ANGLE_1 = 2016-10-10T06:00:00.000 98.06355650233323
ANGLE_2 = 2016-10-10T06:00:00.000 41.95154248743027
RANGE = 2016-10-10T06:00:00.000 165816456.34287956

ANGLE_1 = 2016-10-10T06:01:00.000 97.9613333743099
ANGLE_2 = 2016-10-10T06:01:00.000 42.16330519447143
RANGE = 2016-10-10T06:01:00.000 165817204.07480097

ANGLE_1 = 2016-10-10T06:02:00.000 97.85883210659095
ANGLE_2 = 2016-10-10T06:02:00.000 42.37590015584996
RANGE = 2016-10-10T06:02:00.000 165817951.911791

ANGLE_1 = 2016-10-10T06:03:00.000 97.75652540125157
ANGLE_2 = 2016-10-10T06:03:00.000 42.58827803281065
RANGE = 2016-10-10T06:03:00.000 165818699.85223794

ANGLE_1 = 2016-10-10T06:04:00.000 97.653312672456
ANGLE_2 = 2016-10-10T06:04:00.000 42.80060531248767
RANGE = 2016-10-10T06:04:00.000 165819447.8056134

ANGLE_1 = 2016-10-10T06:05:00.000 97.55047039935883
ANGLE_2 = 2016-10-10T06:05:00.000 43.01301184861288
RANGE = 2016-10-10T06:05:00.000 165820195.83690584

ANGLE_1 = 2016-10-10T06:06:00.000 97.44740768826725
ANGLE_2 = 2016-10-10T06:06:00.000 43.22473246895104
RANGE = 2016-10-10T06:06:00.000 165820943.86247444

ANGLE_1 = 2016-10-10T06:07:00.000 97.34472275189268
ANGLE_2 = 2016-10-10T06:07:00.000 43.43785798193798
RANGE = 2016-10-10T06:07:00.000 165821691.99022883

ANGLE_1 = 2016-10-10T06:08:00.000 97.24196123073598
ANGLE_2 = 2016-10-10T06:08:00.000 43.65123487705562
RANGE = 2016-10-10T06:08:00.000 165822440.14703673

ANGLE_1 = 2016-10-10T06:09:00.000 97.13816097628899
ANGLE_2 = 2016-10-10T06:09:00.000 43.86294635951771
RANGE = 2016-10-10T06:09:00.000 165823188.3808834

ANGLE_1 = 2016-10-10T06:10:00.000 97.03451800815746
ANGLE_2 = 2016-10-10T06:10:00.000 44.07585498697491
RANGE = 2016-10-10T06:10:00.000 165823936.64817524

ANGLE_1 = 2016-10-10T06:11:00.000 96.93065816564184
ANGLE_2 = 2016-10-10T06:11:00.000 44.28863900028506
RANGE = 2016-10-10T06:11:00.000 165824684.98690152

ANGLE_1 = 2016-10-10T06:12:00.000 96.82692427793009
ANGLE_2 = 2016-10-10T06:12:00.000 44.50164771093858
RANGE = 2016-10-10T06:12:00.000 165825433.38472265

ANGLE_1 = 2016-10-10T06:13:00.000 96.72262575472128
ANGLE_2 = 2016-10-10T06:13:00.000 44.714602882276836
RANGE = 2016-10-10T06:13:00.000 165826181.85797086

ANGLE_1 = 2016-10-10T06:14:00.000 96.61830232469107
ANGLE_2 = 2016-10-10T06:14:00.000 44.92698489648119
RANGE = 2016-10-10T06:14:00.000 165826930.34127572

ANGLE_1 = 2016-10-10T06:15:00.000 96.51377657445913
ANGLE_2 = 2016-10-10T06:15:00.000 45.14080149337236
RANGE = 2016-10-10T06:15:00.000 165827678.8949015

ANGLE_1 = 2016-10-10T06:16:00.000 96.4085256845187
ANGLE_2 = 2016-10-10T06:16:00.000 45.35281591798848
RANGE = 2016-10-10T06:16:00.000 165828427.53581402

ANGLE_1 = 2016-10-10T06:17:00.000 96.30375976933776
ANGLE_2 = 2016-10-10T06:17:00.000 45.566354719565254
RANGE = 2016-10-10T06:17:00.000 165829176.19763654

ANGLE_1 = 2016-10-10T06:18:00.000 96.1986271474967
ANGLE_2 = 2016-10-10T06:18:00.000 45.779520968083474
RANGE = 2016-10-10T06:18:00.000 165829924.9265598

ANGLE_1 = 2016-10-10T06:19:00.000 96.09309016752029
ANGLE_2 = 2016-10-10T06:19:00.000 45.99273751998275
RANGE = 2016-10-10T06:19:00.000 165830673.75717998

ANGLE_1 = 2016-10-10T06:20:00.000 95.98707974105122
ANGLE_2 = 2016-10-10T06:20:00.000 46.205575400040544
RANGE = 2016-10-10T06:20:00.000 165831422.56182563

ANGLE_1 = 2016-10-10T06:21:00.000 95.88176559581845
ANGLE_2 = 2016-10-10T06:21:00.000 46.41846781107092
RANGE = 2016-10-10T06:21:00.000 165832171.5243453

ANGLE_1 = 2016-10-10T06:22:00.000 95.7751445408623
ANGLE_2 = 2016-10-10T06:22:00.000 46.6324192651038
RANGE = 2016-10-10T06:22:00.000 165832920.4792263

ANGLE_1 = 2016-10-10T06:23:00.000 95.66814853781118
ANGLE_2 = 2016-10-10T06:23:00.000 46.84511784756955
RANGE = 2016-10-10T06:23:00.000 165833669.53527594

ANGLE_1 = 2016-10-10T06:24:00.000 95.56194246504597
ANGLE_2 = 2016-10-10T06:24:00.000 47.05862489611773
RANGE = 2016-10-10T06:24:00.000 165834418.6419625

ANGLE_1 = 2016-10-10T06:25:00.000 95.45546139829212
ANGLE_2 = 2016-10-10T06:25:00.000 47.27200267290093
RANGE = 2016-10-10T06:25:00.000 165835167.7657211

ANGLE_1 = 2016-10-10T06:26:00.000 95.34789485134519
ANGLE_2 = 2016-10-10T06:26:00.000 47.48576048707604
RANGE = 2016-10-10T06:26:00.000 165835916.9802191

ANGLE_1 = 2016-10-10T06:27:00.000 95.2408254738756
ANGLE_2 = 2016-10-10T06:27:00.000 47.69916941777015
RANGE = 2016-10-10T06:27:00.000 165836666.2655119

ANGLE_1 = 2016-10-10T06:28:00.000 95.1325337557698
ANGLE_2 = 2016-10-10T06:28:00.000 47.91258777873932
RANGE = 2016-10-10T06:28:00.000 165837415.6185574

ANGLE_1 = 2016-10-10T06:29:00.000 95.02420041327636
ANGLE_2 = 2016-10-10T06:29:00.000 48.12620181995522
RANGE = 2016-10-10T06:29:00.000 165838164.99482504

ANGLE_1 = 2016-10-10T06:30:00.000 94.91660225992865
ANGLE_2 = 2016-10-10T06:30:00.000 48.338980816925286
RANGE = 2016-10-10T06:30:00.000 165838914.45278516

ANGLE_1 = 2016-10-10T06:31:00.000 94.8078393672567
ANGLE_2 = 2016-10-10T06:31:00.000 48.55273579089501
RANGE = 2016-10-10T06:31:00.000 165839664.0205269

ANGLE_1 = 2016-10-10T06:32:00.000 94.69879594705684
ANGLE_2 = 2016-10-10T06:32:00.000 48.766548302064834
RANGE = 2016-10-10T06:32:00.000 165840413.58435193

ANGLE_1 = 2016-10-10T06:33:00.000 94.58939573952553
ANGLE_2 = 2016-10-10T06:33:00.000 48.98090091336773
RANGE = 2016-10-10T06:33:00.000 165841163.20689458

ANGLE_1 = 2016-10-10T06:34:00.000 94.47935609887901
ANGLE_2 = 2016-10-10T06:34:00.000 49.19326714213742
RANGE = 2016-10-10T06:34:00.000 165841912.94941148

ANGLE_1 = 2016-10-10T06:35:00.000 94.3701039692957
ANGLE_2 = 2016-10-10T06:35:00.000 49.4076306513621
RANGE = 2016-10-10T06:35:00.000 165842662.69301808

ANGLE_1 = 2016-10-10T06:36:00.000 94.25982346245645
ANGLE_2 = 2016-10-10T06:36:00.000 49.62107513427615
RANGE = 2016-10-10T06:36:00.000 165843412.5717931

ANGLE_1 = 2016-10-10T06:37:00.000 94.14916670973328
ANGLE_2 = 2016-10-10T06:37:00.000 49.835301078925575
RANGE = 2016-10-10T06:37:00.000 165844162.46346697

ANGLE_1 = 2016-10-10T06:38:00.000 94.0382609943204
ANGLE_2 = 2016-10-10T06:38:00.000 50.0488637155308
RANGE = 2016-10-10T06:38:00.000 165844912.4458256

ANGLE_1 = 2016-10-10T06:39:00.000 93.92688741223732
ANGLE_2 = 2016-10-10T06:39:00.000 50.262718212794766
RANGE = 2016-10-10T06:39:00.000 165845662.46389243

ANGLE_1 = 2016-10-10T06:40:00.000 93.81499161625389
ANGLE_2 = 2016-10-10T06:40:00.000 50.47606847043781
RANGE = 2016-10-10T06:40:00.000 165846412.58135337

ANGLE_1 = 2016-10-10T06:41:00.000 93.70332918554664
ANGLE_2 = 2016-10-10T06:41:00.000 50.69056132637622
RANGE = 2016-10-10T06:41:00.000 165847162.7275299

ANGLE_1 = 2016-10-10T06:42:00.000 93.5899510748357
ANGLE_2 = 2016-10-10T06:42:00.000 50.90414988449594
RANGE = 2016-10-10T06:42:00.000 165847912.9720084

ANGLE_1 = 2016-10-10T06:43:00.000 93.4775907711975
ANGLE_2 = 2016-10-10T06:43:00.000 51.11862683841151
RANGE = 2016-10-10T06:43:00.000 165848663.2557987

ANGLE_1 = 2016-10-10T06:44:00.000 93.36450021395656
ANGLE_2 = 2016-10-10T06:44:00.000 51.332345408911
RANGE = 2016-10-10T06:44:00.000 165849413.62144646

ANGLE_1 = 2016-10-10T06:45:00.000 93.25116275412007
ANGLE_2 = 2016-10-10T06:45:00.000 51.5469155772829
RANGE = 2016-10-10T06:45:00.000 165850164.05920243

ANGLE_1 = 2016-10-10T06:46:00.000 93.1374874241485
ANGLE_2 = 2016-10-10T06:46:00.000 51.759574004596914
RANGE = 2016-10-10T06:46:00.000 165850914.53440136

ANGLE_1 = 2016-10-10T06:47:00.000 93.02181705782321
ANGLE_2 = 2016-10-10T06:47:00.000 51.97430459752438
RANGE = 2016-10-10T06:47:00.000 165851665.08279905

ANGLE_1 = 2016-10-10T06:48:00.000 92.90781724911163
ANGLE_2 = 2016-10-10T06:48:00.000 52.18806995519411
RANGE = 2016-10-10T06:48:00.000 165852415.71793908

ANGLE_1 = 2016-10-10T06:49:00.000 92.7922370073724
ANGLE_2 = 2016-10-10T06:49:00.000 52.402639893277815
RANGE = 2016-10-10T06:49:00.000 165853166.42008674

ANGLE_1 = 2016-10-10T06:50:00.000 92.67702289839612
ANGLE_2 = 2016-10-10T06:50:00.000 52.61647395926133
RANGE = 2016-10-10T06:50:00.000 165853917.20505133

ANGLE_1 = 2016-10-10T06:51:00.000 92.56000863494906
ANGLE_2 = 2016-10-10T06:51:00.000 52.83044890972625
RANGE = 2016-10-10T06:51:00.000 165854668.04874146

ANGLE_1 = 2016-10-10T06:52:00.000 92.44327785594217
ANGLE_2 = 2016-10-10T06:52:00.000 53.04491990910742
RANGE = 2016-10-10T06:52:00.000 165855418.95353147

ANGLE_1 = 2016-10-10T06:53:00.000 92.32598843470834
ANGLE_2 = 2016-10-10T06:53:00.000 53.25905561632723
RANGE = 2016-10-10T06:53:00.000 165856169.90815455

ANGLE_1 = 2016-10-10T06:54:00.000 92.20850344388231
ANGLE_2 = 2016-10-10T06:54:00.000 53.47319464006891
RANGE = 2016-10-10T06:54:00.000 165856920.94159618

ANGLE_1 = 2016-10-10T06:55:00.000 92.0898687503453
ANGLE_2 = 2016-10-10T06:55:00.000 53.68690617915785
RANGE = 2016-10-10T06:55:00.000 165857672.04910603

ANGLE_1 = 2016-10-10T06:56:00.000 91.9710043946039
ANGLE_2 = 2016-10-10T06:56:00.000 53.90131024118444
RANGE = 2016-10-10T06:56:00.000 165858423.20869094

ANGLE_1 = 2016-10-10T06:57:00.000 91.85144210585771
ANGLE_2 = 2016-10-10T06:57:00.000 54.115635505063324
RANGE = 2016-10-10T06:57:00.000 165859174.4785554

ANGLE_1 = 2016-10-10T06:58:00.000 91.73238934301703
ANGLE_2 = 2016-10-10T06:58:00.000 54.32997820008015
RANGE = 2016-10-10T06:58:00.000 165859925.7368004

ANGLE_1 = 2016-10-10T06:59:00.000 91.6115278166217
ANGLE_2 = 2016-10-10T06:59:00.000 54.544229940416365
RANGE = 2016-10-10T06:59:00.000 165860677.16473842

ANGLE_1 = 2016-10-10T07:00:00.000 91.49002457062016
ANGLE_2 = 2016-10-10T07:00:00.000 54.75803703546798
RANGE = 2016-10-10T07:00:00.000 165861428.62061596

ANGLE_1 = 2016-10-10T07:01:00.000 91.369161604379
ANGLE_2 = 2016-10-10T07:01:00.000 54.972722673752756
RANGE = 2016-10-10T07:01:00.000 165862180.13400263

ANGLE_1 = 2016-10-10T07:02:00.000 91.24692088467934
ANGLE_2 = 2016-10-10T07:02:00.000 55.18721923591381
RANGE = 2016-10-10T07:02:00.000 165862931.7622748

ANGLE_1 = 2016-10-10T07:03:00.000 91.12473625065508
ANGLE_2 = 2016-10-10T07:03:00.000 55.4009368420337
RANGE = 2016-10-10T07:03:00.000 165863683.43037558

ANGLE_1 = 2016-10-10T07:04:00.000 91.00101785998304
ANGLE_2 = 2016-10-10T07:04:00.000 55.61514096360135
RANGE = 2016-10-10T07:04:00.000 165864435.16786698

ANGLE_1 = 2016-10-10T07:05:00.000 90.87658578979203
ANGLE_2 = 2016-10-10T07:05:00.000 55.82967983248228
RANGE = 2016-10-10T07:05:00.000 165865186.93972892

ANGLE_1 = 2016-10-10T07:06:00.000 90.75235981653908
ANGLE_2 = 2016-10-10T07:06:00.000 56.04392102060216
RANGE = 2016-10-10T07:06:00.000 165865938.85855767

ANGLE_1 = 2016-10-10T07:07:00.000 90.62641231883742
ANGLE_2 = 2016-10-10T07:07:00.000 56.258582687894496
RANGE = 2016-10-10T07:07:00.000 165866690.84892502

ANGLE_1 = 2016-10-10T07:08:00.000 90.50080032266379
ANGLE_2 = 2016-10-10T07:08:00.000 56.47280690654209
RANGE = 2016-10-10T07:08:00.000 165867442.86099553

ANGLE_1 = 2016-10-10T07:09:00.000 90.37397732438977
ANGLE_2 = 2016-10-10T07:09:00.000 56.687811939932594
RANGE = 2016-10-10T07:09:00.000 165868194.95657736

ANGLE_1 = 2016-10-10T07:10:00.000 90.2468708429353
ANGLE_2 = 2016-10-10T07:10:00.000 56.901075305462015
RANGE = 2016-10-10T07:10:00.000 165868947.11685246

ANGLE_1 = 2016-10-10T07:11:00.000 90.11850209778942
ANGLE_2 = 2016-10-10T07:11:00.000 57.11646226190581
RANGE = 2016-10-10T07:11:00.000 165869699.3686303

ANGLE_1 = 2016-10-10T07:12:00.000 89.99008648202313
ANGLE_2 = 2016-10-10T07:12:00.000 57.33058152026385
RANGE = 2016-10-10T07:12:00.000 165870451.72076535

ANGLE_1 = 2016-10-10T07:13:00.000 89.86067470364735
ANGLE_2 = 2016-10-10T07:13:00.000 57.54456136509947
RANGE = 2016-10-10T07:13:00.000 165871204.10457754

ANGLE_1 = 2016-10-10T07:14:00.000 89.72972570668833
ANGLE_2 = 2016-10-10T07:14:00.000 57.75914728996317
RANGE = 2016-10-10T07:14:00.000 165871956.5889924

ANGLE_1 = 2016-10-10T07:15:00.000 89.59800116584732
ANGLE_2 = 2016-10-10T07:15:00.000 57.97367352051219
RANGE = 2016-10-10T07:15:00.000 165872709.11479607

ANGLE_1 = 2016-10-10T07:16:00.000 89.46678467376996
ANGLE_2 = 2016-10-10T07:16:00.000 58.187520252076325
RANGE = 2016-10-10T07:16:00.000 165873461.71180826

ANGLE_1 = 2016-10-10T07:17:00.000 89.33398462707724
ANGLE_2 = 2016-10-10T07:17:00.000 58.40252874122868
RANGE = 2016-10-10T07:17:00.000 165874214.42087454

ANGLE_1 = 2016-10-10T07:18:00.000 89.20010610355813
ANGLE_2 = 2016-10-10T07:18:00.000 58.61611508459481
RANGE = 2016-10-10T07:18:00.000 165874967.20425808

ANGLE_1 = 2016-10-10T07:19:00.000 89.06572620602385
ANGLE_2 = 2016-10-10T07:19:00.000 58.83060527600594
RANGE = 2016-10-10T07:19:00.000 165875720.0265266

ANGLE_1 = 2016-10-10T07:20:00.000 88.93044997628593
ANGLE_2 = 2016-10-10T07:20:00.000 59.04497583273922
RANGE = 2016-10-10T07:20:00.000 165876472.96033293

ANGLE_1 = 2016-10-10T07:21:00.000 88.79436481031757
ANGLE_2 = 2016-10-10T07:21:00.000 59.25884918212259
RANGE = 2016-10-10T07:21:00.000 165877225.9813447

ANGLE_1 = 2016-10-10T07:22:00.000 88.6567666399789
ANGLE_2 = 2016-10-10T07:22:00.000 59.47350491570336
RANGE = 2016-10-10T07:22:00.000 165877978.99407226

ANGLE_1 = 2016-10-10T07:23:00.000 88.51842426088108
ANGLE_2 = 2016-10-10T07:23:00.000 59.688173397963254
RANGE = 2016-10-10T07:23:00.000 165878732.14387926

ANGLE_1 = 2016-10-10T07:24:00.000 88.37962172664164
ANGLE_2 = 2016-10-10T07:24:00.000 59.90195717913975
RANGE = 2016-10-10T07:24:00.000 165879485.4068676

ANGLE_1 = 2016-10-10T07:25:00.000 88.23932592822338
ANGLE_2 = 2016-10-10T07:25:00.000 60.116856011680596
RANGE = 2016-10-10T07:25:00.000 165880238.72290444

ANGLE_1 = 2016-10-10T07:26:00.000 88.09853672767602
ANGLE_2 = 2016-10-10T07:26:00.000 60.330717100085685
RANGE = 2016-10-10T07:26:00.000 165880992.10198686

ANGLE_1 = 2016-10-10T07:27:00.000 87.9559776673975
ANGLE_2 = 2016-10-10T07:27:00.000 60.54532886752458
RANGE = 2016-10-10T07:27:00.000 165881745.54491448

ANGLE_1 = 2016-10-10T07:28:00.000 87.81234057533541
ANGLE_2 = 2016-10-10T07:28:00.000 60.75914228416566
RANGE = 2016-10-10T07:28:00.000 165882499.10866228

ANGLE_1 = 2016-10-10T07:29:00.000 87.66861140803881
ANGLE_2 = 2016-10-10T07:29:00.000 60.97355133798833
RANGE = 2016-10-10T07:29:00.000 165883252.6935509

ANGLE_1 = 2016-10-10T07:30:00.000 87.52270202579568
ANGLE_2 = 2016-10-10T07:30:00.000 61.187094279784965
RANGE = 2016-10-10T07:30:00.000 165884006.35622352

ANGLE_1 = 2016-10-10T07:31:00.000 87.37618044098942
ANGLE_2 = 2016-10-10T07:31:00.000 61.401799493346154
RANGE = 2016-10-10T07:31:00.000 165884760.15229338

ANGLE_1 = 2016-10-10T07:32:00.000 87.22857315320276
ANGLE_2 = 2016-10-10T07:32:00.000 61.61554355250801
RANGE = 2016-10-10T07:32:00.000 165885513.99849683

ANGLE_1 = 2016-10-10T07:33:00.000 87.0797837067625
ANGLE_2 = 2016-10-10T07:33:00.000 61.82916946184003
RANGE = 2016-10-10T07:33:00.000 165886267.90073323

ANGLE_1 = 2016-10-10T07:34:00.000 86.92969979471599
ANGLE_2 = 2016-10-10T07:34:00.000 62.04340892317166
RANGE = 2016-10-10T07:34:00.000 165887021.91793796

ANGLE_1 = 2016-10-10T07:35:00.000 86.77778997035183
ANGLE_2 = 2016-10-10T07:35:00.000 62.25793692433126
RANGE = 2016-10-10T07:35:00.000 165887776.00401345

ANGLE_1 = 2016-10-10T07:36:00.000 86.6252305513544
ANGLE_2 = 2016-10-10T07:36:00.000 62.472007277110194
RANGE = 2016-10-10T07:36:00.000 165888530.15029746

ANGLE_1 = 2016-10-10T07:37:00.000 86.4711709577837
ANGLE_2 = 2016-10-10T07:37:00.000 62.68557669824972
RANGE = 2016-10-10T07:37:00.000 165889284.3751385

ANGLE_1 = 2016-10-10T07:38:00.000 86.31541097216324
ANGLE_2 = 2016-10-10T07:38:00.000 62.900065171241756
RANGE = 2016-10-10T07:38:00.000 165890038.72982407

ANGLE_1 = 2016-10-10T07:39:00.000 86.15953732497888
ANGLE_2 = 2016-10-10T07:39:00.000 63.113712326416056
RANGE = 2016-10-10T07:39:00.000 165890793.13298517

ANGLE_1 = 2016-10-10T07:40:00.000 86.00056707682937
ANGLE_2 = 2016-10-10T07:40:00.000 63.32782526870352
RANGE = 2016-10-10T07:40:00.000 165891547.60337833

ANGLE_1 = 2016-10-10T07:41:00.000 85.84125020403799
ANGLE_2 = 2016-10-10T07:41:00.000 63.541522818584085
RANGE = 2016-10-10T07:41:00.000 165892302.15733248

ANGLE_1 = 2016-10-10T07:42:00.000 85.68012496517271
ANGLE_2 = 2016-10-10T07:42:00.000 63.75491413038817
RANGE = 2016-10-10T07:42:00.000 165893056.82747084

ANGLE_1 = 2016-10-10T07:43:00.000 85.5169174609368
ANGLE_2 = 2016-10-10T07:43:00.000 63.96847612772351
RANGE = 2016-10-10T07:43:00.000 165893811.48711696

ANGLE_1 = 2016-10-10T07:44:00.000 85.35299473115451
ANGLE_2 = 2016-10-10T07:44:00.000 64.18253856360853
RANGE = 2016-10-10T07:44:00.000 165894566.28306183

ANGLE_1 = 2016-10-10T07:45:00.000 85.18655326666465
ANGLE_2 = 2016-10-10T07:45:00.000 64.39635318039821
RANGE = 2016-10-10T07:45:00.000 165895321.21579036

ANGLE_1 = 2016-10-10T07:46:00.000 85.01922084238184
ANGLE_2 = 2016-10-10T07:46:00.000 64.60920368241867
RANGE = 2016-10-10T07:46:00.000 165896076.15642577

ANGLE_1 = 2016-10-10T07:47:00.000 84.84996100132531
ANGLE_2 = 2016-10-10T07:47:00.000 64.82269635053231
RANGE = 2016-10-10T07:47:00.000 165896831.24067485

ANGLE_1 = 2016-10-10T07:48:00.000 84.67931100742165
ANGLE_2 = 2016-10-10T07:48:00.000 65.03608390393907
RANGE = 2016-10-10T07:48:00.000 165897586.3172768

ANGLE_1 = 2016-10-10T07:49:00.000 84.50645690874791
ANGLE_2 = 2016-10-10T07:49:00.000 65.25004470287531
RANGE = 2016-10-10T07:49:00.000 165898341.55924156

ANGLE_1 = 2016-10-10T07:50:00.000 84.33148432612472
ANGLE_2 = 2016-10-10T07:50:00.000 65.46304529463306
RANGE = 2016-10-10T07:50:00.000 165899096.80486327

ANGLE_1 = 2016-10-10T07:51:00.000 84.15470331101648
ANGLE_2 = 2016-10-10T07:51:00.000 65.6762811638834
RANGE = 2016-10-10T07:51:00.000 165899852.18186605

ANGLE_1 = 2016-10-10T07:52:00.000 83.97627314236597
ANGLE_2 = 2016-10-10T07:52:00.000 65.8897954803688
RANGE = 2016-10-10T07:52:00.000 165900607.65638858

ANGLE_1 = 2016-10-10T07:53:00.000 83.79543155832145
ANGLE_2 = 2016-10-10T07:53:00.000 66.10291339757558
RANGE = 2016-10-10T07:53:00.000 165901363.1913756

ANGLE_1 = 2016-10-10T07:54:00.000 83.61329425431927
ANGLE_2 = 2016-10-10T07:54:00.000 66.31556205071377
RANGE = 2016-10-10T07:54:00.000 165902118.8204095

ANGLE_1 = 2016-10-10T07:55:00.000 83.42848161831539
ANGLE_2 = 2016-10-10T07:55:00.000 66.52879736414926
RANGE = 2016-10-10T07:55:00.000 165902874.50946715

ANGLE_1 = 2016-10-10T07:56:00.000 83.24201678508199
ANGLE_2 = 2016-10-10T07:56:00.000 66.74158810701753
RANGE = 2016-10-10T07:56:00.000 165903630.27161098

ANGLE_1 = 2016-10-10T07:57:00.000 83.05311820551725
ANGLE_2 = 2016-10-10T07:57:00.000 66.9542487891896
RANGE = 2016-10-10T07:57:00.000 165904386.15585166

ANGLE_1 = 2016-10-10T07:58:00.000 82.8615026042569
ANGLE_2 = 2016-10-10T07:58:00.000 67.16742831276865
RANGE = 2016-10-10T07:58:00.000 165905142.07977465

ANGLE_1 = 2016-10-10T07:59:00.000 82.66786261563756
ANGLE_2 = 2016-10-10T07:59:00.000 67.37957208799895
RANGE = 2016-10-10T07:59:00.000 165905898.15624142

ANGLE_1 = 2016-10-10T08:00:00.000 82.4719649851743
ANGLE_2 = 2016-10-10T08:00:00.000 67.5921057129211
RANGE = 2016-10-10T08:00:00.000 165906654.26057664

ANGLE_1 = 2016-10-10T08:01:00.000 82.27318989871254
ANGLE_2 = 2016-10-10T08:01:00.000 67.80508767091256
RANGE = 2016-10-10T08:01:00.000 165907410.4555133

ANGLE_1 = 2016-10-10T08:02:00.000 82.07255526028584
ANGLE_2 = 2016-10-10T08:02:00.000 68.01703737448014
RANGE = 2016-10-10T08:02:00.000 165908166.7797462

ANGLE_1 = 2016-10-10T08:03:00.000 81.86894639584914
ANGLE_2 = 2016-10-10T08:03:00.000 68.22946889699548
RANGE = 2016-10-10T08:03:00.000 165908923.15817857

ANGLE_1 = 2016-10-10T08:04:00.000 81.6617225454198
ANGLE_2 = 2016-10-10T08:04:00.000 68.44209971249813
RANGE = 2016-10-10T08:04:00.000 165909679.5895246

ANGLE_1 = 2016-10-10T08:05:00.000 81.45273099431071
ANGLE_2 = 2016-10-10T08:05:00.000 68.65348901162024
RANGE = 2016-10-10T08:05:00.000 165910436.13769543

ANGLE_1 = 2016-10-10T08:06:00.000 81.24019744381712
ANGLE_2 = 2016-10-10T08:06:00.000 68.86573043797924
RANGE = 2016-10-10T08:06:00.000 165911192.71291256

ANGLE_1 = 2016-10-10T08:07:00.000 81.02527074632134
ANGLE_2 = 2016-10-10T08:07:00.000 69.07761484092514
RANGE = 2016-10-10T08:07:00.000 165911949.42997703

ANGLE_1 = 2016-10-10T08:08:00.000 80.80602558495967
ANGLE_2 = 2016-10-10T08:08:00.000 69.28927822042887
RANGE = 2016-10-10T08:08:00.000 165912706.23462737

ANGLE_1 = 2016-10-10T08:09:00.000 80.58556126922271
ANGLE_2 = 2016-10-10T08:09:00.000 69.50030448439354
RANGE = 2016-10-10T08:09:00.000 165913463.1297876

ANGLE_1 = 2016-10-10T08:10:00.000 80.36082437891761
ANGLE_2 = 2016-10-10T08:10:00.000 69.71190466981574
RANGE = 2016-10-10T08:10:00.000 165914220.1154065

ANGLE_1 = 2016-10-10T08:11:00.000 80.13272215439852
ANGLE_2 = 2016-10-10T08:11:00.000 69.92305246313121
RANGE = 2016-10-10T08:11:00.000 165914977.15884286

ANGLE_1 = 2016-10-10T08:12:00.000 79.90090865198071
ANGLE_2 = 2016-10-10T08:12:00.000 70.13386030411684
RANGE = 2016-10-10T08:12:00.000 165915734.298622

ANGLE_1 = 2016-10-10T08:13:00.000 79.66706090785085
ANGLE_2 = 2016-10-10T08:13:00.000 70.34524211502297
RANGE = 2016-10-10T08:13:00.000 165916491.52701703

ANGLE_1 = 2016-10-10T08:14:00.000 79.42745329943853
ANGLE_2 = 2016-10-10T08:14:00.000 70.55611998074144
RANGE = 2016-10-10T08:14:00.000 165917248.82064986

ANGLE_1 = 2016-10-10T08:15:00.000 79.18507008150127
ANGLE_2 = 2016-10-10T08:15:00.000 70.76682820447988
RANGE = 2016-10-10T08:15:00.000 165918006.19138145

ANGLE_1 = 2016-10-10T08:16:00.000 78.93813709752857
ANGLE_2 = 2016-10-10T08:16:00.000 70.9774980299363
RANGE = 2016-10-10T08:16:00.000 165918763.73889342

ANGLE_1 = 2016-10-10T08:17:00.000 78.68815591017668
ANGLE_2 = 2016-10-10T08:17:00.000 71.18774151876596
RANGE = 2016-10-10T08:17:00.000 165919521.28392223

ANGLE_1 = 2016-10-10T08:18:00.000 78.43309458412
ANGLE_2 = 2016-10-10T08:18:00.000 71.39752117662782
RANGE = 2016-10-10T08:18:00.000 165920278.911145

ANGLE_1 = 2016-10-10T08:19:00.000 78.17350421145738
ANGLE_2 = 2016-10-10T08:19:00.000 71.60750578230629
RANGE = 2016-10-10T08:19:00.000 165921036.64717907

ANGLE_1 = 2016-10-10T08:20:00.000 77.90990384332662
ANGLE_2 = 2016-10-10T08:20:00.000 71.81670726283132
RANGE = 2016-10-10T08:20:00.000 165921794.49075523

ANGLE_1 = 2016-10-10T08:21:00.000 77.64192295986788
ANGLE_2 = 2016-10-10T08:21:00.000 72.02672921988822
RANGE = 2016-10-10T08:21:00.000 165922552.3736833

ANGLE_1 = 2016-10-10T08:22:00.000 77.36899760840491
ANGLE_2 = 2016-10-10T08:22:00.000 72.23571065768877
RANGE = 2016-10-10T08:22:00.000 165923310.41064638

ANGLE_1 = 2016-10-10T08:23:00.000 77.09102138102458
ANGLE_2 = 2016-10-10T08:23:00.000 72.44516575706035
RANGE = 2016-10-10T08:23:00.000 165924068.50930294

ANGLE_1 = 2016-10-10T08:24:00.000 76.80718723078543
ANGLE_2 = 2016-10-10T08:24:00.000 72.65321690728811
RANGE = 2016-10-10T08:24:00.000 165924826.68332353

ANGLE_1 = 2016-10-10T08:25:00.000 76.51849181483523
ANGLE_2 = 2016-10-10T08:25:00.000 72.86288229231329
RANGE = 2016-10-10T08:25:00.000 165925584.95907068

ANGLE_1 = 2016-10-10T08:26:00.000 76.22441823843546
ANGLE_2 = 2016-10-10T08:26:00.000 73.07025759205514
RANGE = 2016-10-10T08:26:00.000 165926343.30734274

ANGLE_1 = 2016-10-10T08:27:00.000 75.92445136158642
ANGLE_2 = 2016-10-10T08:27:00.000 73.27873128617352
RANGE = 2016-10-10T08:27:00.000 165927101.72658455

ANGLE_1 = 2016-10-10T08:28:00.000 75.61960835157252
ANGLE_2 = 2016-10-10T08:28:00.000 73.4865844737984
RANGE = 2016-10-10T08:28:00.000 165927860.24302766

ANGLE_1 = 2016-10-10T08:29:00.000 75.30652048106639
ANGLE_2 = 2016-10-10T08:29:00.000 73.69385922381517
RANGE = 2016-10-10T08:29:00.000 165928618.83993545

ANGLE_1 = 2016-10-10T08:30:00.000 74.98820772383266
ANGLE_2 = 2016-10-10T08:30:00.000 73.90085394474612
RANGE = 2016-10-10T08:30:00.000 165929377.58602706

ANGLE_1 = 2016-10-10T08:31:00.000 74.6636749536748
ANGLE_2 = 2016-10-10T08:31:00.000 74.10783942538328
RANGE = 2016-10-10T08:31:00.000 165930136.3819725

ANGLE_1 = 2016-10-10T08:32:00.000 74.33176975565438
ANGLE_2 = 2016-10-10T08:32:00.000 74.31427558401936
RANGE = 2016-10-10T08:32:00.000 165930895.26758522

ANGLE_1 = 2016-10-10T08:33:00.000 73.99235395060055
ANGLE_2 = 2016-10-10T08:33:00.000 74.52060429390045
RANGE = 2016-10-10T08:33:00.000 165931654.2227594

ANGLE_1 = 2016-10-10T08:34:00.000 73.64631625556555
ANGLE_2 = 2016-10-10T08:34:00.000 74.72655922082957
RANGE = 2016-10-10T08:34:00.000 165932413.26229218

ANGLE_1 = 2016-10-10T08:35:00.000 73.29215843033545
ANGLE_2 = 2016-10-10T08:35:00.000 74.93197770463765
RANGE = 2016-10-10T08:35:00.000 165933172.40293342

ANGLE_1 = 2016-10-10T08:36:00.000 72.92949029232001
ANGLE_2 = 2016-10-10T08:36:00.000 75.13762991200694
RANGE = 2016-10-10T08:36:00.000 165933931.6550765

ANGLE_1 = 2016-10-10T08:37:00.000 72.55934823783454
ANGLE_2 = 2016-10-10T08:37:00.000 75.34159263693704
RANGE = 2016-10-10T08:37:00.000 165934690.9975067

ANGLE_1 = 2016-10-10T08:38:00.000 72.17978473014081
ANGLE_2 = 2016-10-10T08:38:00.000 75.54627262971093
RANGE = 2016-10-10T08:38:00.000 165935450.3841045

ANGLE_1 = 2016-10-10T08:39:00.000 71.79189255665968
ANGLE_2 = 2016-10-10T08:39:00.000 75.75002197093625
RANGE = 2016-10-10T08:39:00.000 165936209.9238409

ANGLE_1 = 2016-10-10T08:40:00.000 71.39315644161569
ANGLE_2 = 2016-10-10T08:40:00.000 75.95326521931071
RANGE = 2016-10-10T08:40:00.000 165936969.48804775

ANGLE_1 = 2016-10-10T08:41:00.000 70.98538382316048
ANGLE_2 = 2016-10-10T08:41:00.000 76.1559275301076
RANGE = 2016-10-10T08:41:00.000 165937729.1755576

ANGLE_1 = 2016-10-10T08:42:00.000 70.56803129577018
ANGLE_2 = 2016-10-10T08:42:00.000 76.35811723637593
RANGE = 2016-10-10T08:42:00.000 165938488.96369264

ANGLE_1 = 2016-10-10T08:43:00.000 70.13928657882025
ANGLE_2 = 2016-10-10T08:43:00.000 76.56037262830657
RANGE = 2016-10-10T08:43:00.000 165939248.8185687

ANGLE_1 = 2016-10-10T08:44:00.000 69.69906897416948
ANGLE_2 = 2016-10-10T08:44:00.000 76.76139165148122
RANGE = 2016-10-10T08:44:00.000 165940008.765247

ANGLE_1 = 2016-10-10T08:45:00.000 69.24816440803527
ANGLE_2 = 2016-10-10T08:45:00.000 76.96239035977979
RANGE = 2016-10-10T08:45:00.000 165940768.79791483

ANGLE_1 = 2016-10-10T08:46:00.000 68.78384978435841
ANGLE_2 = 2016-10-10T08:46:00.000 77.16237495230928
RANGE = 2016-10-10T08:46:00.000 165941528.9531486

ANGLE_1 = 2016-10-10T08:47:00.000 68.30880912712786
ANGLE_2 = 2016-10-10T08:47:00.000 77.36232681064757
RANGE = 2016-10-10T08:47:00.000 165942289.16508517

ANGLE_1 = 2016-10-10T08:48:00.000 67.8195362371726
ANGLE_2 = 2016-10-10T08:48:00.000 77.56063532663029
RANGE = 2016-10-10T08:48:00.000 165943049.42948082

ANGLE_1 = 2016-10-10T08:49:00.000 67.31637468721341
ANGLE_2 = 2016-10-10T08:49:00.000 77.75871371105474
RANGE = 2016-10-10T08:49:00.000 165943809.90711758

ANGLE_1 = 2016-10-10T08:50:00.000 66.79800796557281
ANGLE_2 = 2016-10-10T08:50:00.000 77.95634619794852
RANGE = 2016-10-10T08:50:00.000 165944570.3605054

ANGLE_1 = 2016-10-10T08:51:00.000 66.26526073254836
ANGLE_2 = 2016-10-10T08:51:00.000 78.15316877617744
RANGE = 2016-10-10T08:51:00.000 165945330.95472917

ANGLE_1 = 2016-10-10T08:52:00.000 65.71620800795189
ANGLE_2 = 2016-10-10T08:52:00.000 78.34836596496565
RANGE = 2016-10-10T08:52:00.000 165946091.61855057

ANGLE_1 = 2016-10-10T08:53:00.000 65.15100401329481
ANGLE_2 = 2016-10-10T08:53:00.000 78.5432725376324
RANGE = 2016-10-10T08:53:00.000 165946852.4008566

ANGLE_1 = 2016-10-10T08:54:00.000 64.56826353043374
ANGLE_2 = 2016-10-10T08:54:00.000 78.73729387354695
RANGE = 2016-10-10T08:54:00.000 165947613.24661323

ANGLE_1 = 2016-10-10T08:55:00.000 63.96787735705145
ANGLE_2 = 2016-10-10T08:55:00.000 78.93084015033553
RANGE = 2016-10-10T08:55:00.000 165948374.20479593

ANGLE_1 = 2016-10-10T08:56:00.000 63.34768871610147
ANGLE_2 = 2016-10-10T08:56:00.000 79.12274061946701
RANGE = 2016-10-10T08:56:00.000 165949135.20727012

ANGLE_1 = 2016-10-10T08:57:00.000 62.708117833663906
ANGLE_2 = 2016-10-10T08:57:00.000 79.31403833421103
RANGE = 2016-10-10T08:57:00.000 165949896.32099843

ANGLE_1 = 2016-10-10T08:58:00.000 62.04655025085679
ANGLE_2 = 2016-10-10T08:58:00.000 79.50373500999753
RANGE = 2016-10-10T08:58:00.000 165950657.56788078

ANGLE_1 = 2016-10-10T08:59:00.000 61.364638986124625
ANGLE_2 = 2016-10-10T08:59:00.000 79.69260443558268
RANGE = 2016-10-10T08:59:00.000 165951418.87575737

ANGLE_1 = 2016-10-10T09:00:00.000 60.65840115363405
ANGLE_2 = 2016-10-10T09:00:00.000 79.8804177476614
RANGE = 2016-10-10T09:00:00.000 165952180.26302314

ANGLE_1 = 2016-10-10T09:01:00.000 59.92751021288268
ANGLE_2 = 2016-10-10T09:01:00.000 80.06610393162615
RANGE = 2016-10-10T09:01:00.000 165952941.760443

ANGLE_1 = 2016-10-10T09:02:00.000 59.17160684649141
ANGLE_2 = 2016-10-10T09:02:00.000 80.25044326999118
RANGE = 2016-10-10T09:02:00.000 165953703.36853373

ANGLE_1 = 2016-10-10T09:03:00.000 58.390040422274666
ANGLE_2 = 2016-10-10T09:03:00.000 80.4343606806808
RANGE = 2016-10-10T09:03:00.000 165954464.98920494

ANGLE_1 = 2016-10-10T09:04:00.000 57.579350610791224
ANGLE_2 = 2016-10-10T09:04:00.000 80.61622169088716
RANGE = 2016-10-10T09:04:00.000 165955226.78203815

ANGLE_1 = 2016-10-10T09:05:00.000 56.739669276654986
ANGLE_2 = 2016-10-10T09:05:00.000 80.79599810374607
RANGE = 2016-10-10T09:05:00.000 165955988.66055647

ANGLE_1 = 2016-10-10T09:06:00.000 55.86893971693461
ANGLE_2 = 2016-10-10T09:06:00.000 80.97442626107477
RANGE = 2016-10-10T09:06:00.000 165956750.60996673

ANGLE_1 = 2016-10-10T09:07:00.000 54.9651750405884
ANGLE_2 = 2016-10-10T09:07:00.000 81.15074632629802
RANGE = 2016-10-10T09:07:00.000 165957512.65132216

ANGLE_1 = 2016-10-10T09:08:00.000 54.02857600213249
ANGLE_2 = 2016-10-10T09:08:00.000 81.32497970714067
RANGE = 2016-10-10T09:08:00.000 165958274.76092085

ANGLE_1 = 2016-10-10T09:09:00.000 53.0558857947378
ANGLE_2 = 2016-10-10T09:09:00.000 81.49773702651197
RANGE = 2016-10-10T09:09:00.000 165959036.99857566

ANGLE_1 = 2016-10-10T09:10:00.000 52.045974253003195
ANGLE_2 = 2016-10-10T09:10:00.000 81.66753848082689
RANGE = 2016-10-10T09:10:00.000 165959799.31654632

ANGLE_1 = 2016-10-10T09:11:00.000 50.99627685399102
ANGLE_2 = 2016-10-10T09:11:00.000 81.83550118663483
RANGE = 2016-10-10T09:11:00.000 165960561.71077943

ANGLE_1 = 2016-10-10T09:12:00.000 49.9051310108123
ANGLE_2 = 2016-10-10T09:12:00.000 82.0007142016714
RANGE = 2016-10-10T09:12:00.000 165961324.22563288

ANGLE_1 = 2016-10-10T09:13:00.000 48.77167316452863
ANGLE_2 = 2016-10-10T09:13:00.000 82.1630233921519
RANGE = 2016-10-10T09:13:00.000 165962086.8167765

ANGLE_1 = 2016-10-10T09:14:00.000 47.59294877101691
ANGLE_2 = 2016-10-10T09:14:00.000 82.32305679809842
RANGE = 2016-10-10T09:14:00.000 165962849.48829198

ANGLE_1 = 2016-10-10T09:15:00.000 46.367461489982404
ANGLE_2 = 2016-10-10T09:15:00.000 82.47955939739653
RANGE = 2016-10-10T09:15:00.000 165963612.26482397

ANGLE_1 = 2016-10-10T09:16:00.000 45.09279246151804
ANGLE_2 = 2016-10-10T09:16:00.000 82.63288210519092
RANGE = 2016-10-10T09:16:00.000 165964375.11895272

ANGLE_1 = 2016-10-10T09:17:00.000 43.766526878540226
ANGLE_2 = 2016-10-10T09:17:00.000 82.78305381479178
RANGE = 2016-10-10T09:17:00.000 165965138.07445964

ANGLE_1 = 2016-10-10T09:18:00.000 42.38811277371177
ANGLE_2 = 2016-10-10T09:18:00.000 82.9290079193858
RANGE = 2016-10-10T09:18:00.000 165965901.12163705

ANGLE_1 = 2016-10-10T09:19:00.000 40.954007482891704
ANGLE_2 = 2016-10-10T09:19:00.000 83.07167812964191
RANGE = 2016-10-10T09:19:00.000 165966664.27032694

ANGLE_1 = 2016-10-10T09:20:00.000 39.46395218531337
ANGLE_2 = 2016-10-10T09:20:00.000 83.21029431731195
RANGE = 2016-10-10T09:20:00.000 165967427.50264817

ANGLE_1 = 2016-10-10T09:21:00.000 37.91426404795924
ANGLE_2 = 2016-10-10T09:21:00.000 83.34489113671371
RANGE = 2016-10-10T09:21:00.000 165968190.8420279

ANGLE_1 = 2016-10-10T09:22:00.000 36.306110442559444
ANGLE_2 = 2016-10-10T09:22:00.000 83.47360807747533
RANGE = 2016-10-10T09:22:00.000 165968954.27373075

ANGLE_1 = 2016-10-10T09:23:00.000 34.63569192503502
ANGLE_2 = 2016-10-10T09:23:00.000 83.59786153160064
RANGE = 2016-10-10T09:23:00.000 165969717.78889647

ANGLE_1 = 2016-10-10T09:24:00.000 32.90287892547031
ANGLE_2 = 2016-10-10T09:24:00.000 83.71712992018455
RANGE = 2016-10-10T09:24:00.000 165970481.3655326

ANGLE_1 = 2016-10-10T09:25:00.000 31.10767422652542
ANGLE_2 = 2016-10-10T09:25:00.000 83.8305722492468
RANGE = 2016-10-10T09:25:00.000 165971245.08102402

ANGLE_1 = 2016-10-10T09:26:00.000 29.24808088180501
ANGLE_2 = 2016-10-10T09:26:00.000 83.93794842073841
RANGE = 2016-10-10T09:26:00.000 165972008.87549943

ANGLE_1 = 2016-10-10T09:27:00.000 27.32543090935067
ANGLE_2 = 2016-10-10T09:27:00.000 84.0397518944628
RANGE = 2016-10-10T09:27:00.000 165972772.7523804

ANGLE_1 = 2016-10-10T09:28:00.000 25.34175848735401
ANGLE_2 = 2016-10-10T09:28:00.000 84.13497906332763
RANGE = 2016-10-10T09:28:00.000 165973536.77883077

ANGLE_1 = 2016-10-10T09:29:00.000 23.296227641491985
ANGLE_2 = 2016-10-10T09:29:00.000 84.22333623892301
RANGE = 2016-10-10T09:29:00.000 165974300.83715513

ANGLE_1 = 2016-10-10T09:30:00.000 21.191178371932033
ANGLE_2 = 2016-10-10T09:30:00.000 84.30411060941063
RANGE = 2016-10-10T09:30:00.000 165975064.95748362

ANGLE_1 = 2016-10-10T09:31:00.000 19.030729363216967
ANGLE_2 = 2016-10-10T09:31:00.000 84.37783411097374
RANGE = 2016-10-10T09:31:00.000 165975829.18334776

ANGLE_1 = 2016-10-10T09:32:00.000 16.816615092793935
ANGLE_2 = 2016-10-10T09:32:00.000 84.44331755006573
RANGE = 2016-10-10T09:32:00.000 165976593.55850384

ANGLE_1 = 2016-10-10T09:33:00.000 14.554416077250451
ANGLE_2 = 2016-10-10T09:33:00.000 84.50195779157305
RANGE = 2016-10-10T09:33:00.000 165977357.9994115

ANGLE_1 = 2016-10-10T09:34:00.000 12.249090270364633
ANGLE_2 = 2016-10-10T09:34:00.000 84.55183813112387
RANGE = 2016-10-10T09:34:00.000 165978122.52332786

ANGLE_1 = 2016-10-10T09:35:00.000 9.9053911091081
ANGLE_2 = 2016-10-10T09:35:00.000 84.5927980983453
RANGE = 2016-10-10T09:35:00.000 165978887.11696827

ANGLE_1 = 2016-10-10T09:36:00.000 7.530521836263625
ANGLE_2 = 2016-10-10T09:36:00.000 84.62473240285645
RANGE = 2016-10-10T09:36:00.000 165979651.88944766

ANGLE_1 = 2016-10-10T09:37:00.000 5.131465997082067
ANGLE_2 = 2016-10-10T09:37:00.000 84.64782834774668
RANGE = 2016-10-10T09:37:00.000 165980416.64855623

ANGLE_1 = 2016-10-10T09:38:00.000 2.7169391998821775
ANGLE_2 = 2016-10-10T09:38:00.000 84.6632134677102
RANGE = 2016-10-10T09:38:00.000 165981181.54763037

ANGLE_1 = 2016-10-10T09:39:00.000 0.2922046592536623
ANGLE_2 = 2016-10-10T09:39:00.000 84.6688800178051
RANGE = 2016-10-10T09:39:00.000 165981946.55399874

ANGLE_1 = 2016-10-10T09:40:00.000 357.8668616636846
ANGLE_2 = 2016-10-10T09:40:00.000 84.66557915278321
RANGE = 2016-10-10T09:40:00.000 165982711.62014973

ANGLE_1 = 2016-10-10T09:41:00.000 355.448581128795
ANGLE_2 = 2016-10-10T09:41:00.000 84.6525266861566
RANGE = 2016-10-10T09:41:00.000 165983476.81433827

ANGLE_1 = 2016-10-10T09:42:00.000 353.0461470418878
ANGLE_2 = 2016-10-10T09:42:00.000 84.63080040805427
RANGE = 2016-10-10T09:42:00.000 165984242.09523144

ANGLE_1 = 2016-10-10T09:43:00.000 350.6644949969987
ANGLE_2 = 2016-10-10T09:43:00.000 84.60062555359801
RANGE = 2016-10-10T09:43:00.000 165985007.45318058

ANGLE_1 = 2016-10-10T09:44:00.000 348.3135241678922
ANGLE_2 = 2016-10-10T09:44:00.000 84.56169741764663
RANGE = 2016-10-10T09:44:00.000 165985772.92285252

ANGLE_1 = 2016-10-10T09:45:00.000 345.9992053275847
ANGLE_2 = 2016-10-10T09:45:00.000 84.51381032593028
RANGE = 2016-10-10T09:45:00.000 165986538.4753714

ANGLE_1 = 2016-10-10T09:46:00.000 343.7266434835325
ANGLE_2 = 2016-10-10T09:46:00.000 84.45725600572315
RANGE = 2016-10-10T09:46:00.000 165987304.1143609

ANGLE_1 = 2016-10-10T09:47:00.000 341.5014442625286
ANGLE_2 = 2016-10-10T09:47:00.000 84.39421356275182
RANGE = 2016-10-10T09:47:00.000 165988069.8298813

ANGLE_1 = 2016-10-10T09:48:00.000 339.3289600929087
ANGLE_2 = 2016-10-10T09:48:00.000 84.32153246878788
RANGE = 2016-10-10T09:48:00.000 165988835.6848056

ANGLE_1 = 2016-10-10T09:49:00.000 337.2112448113214
ANGLE_2 = 2016-10-10T09:49:00.000 84.24225246250163
RANGE = 2016-10-10T09:49:00.000 165989601.55039573

ANGLE_1 = 2016-10-10T09:50:00.000 335.1521483970783
ANGLE_2 = 2016-10-10T09:50:00.000 84.15577504348775
RANGE = 2016-10-10T09:50:00.000 165990367.57511407

ANGLE_1 = 2016-10-10T09:51:00.000 333.15309951844813
ANGLE_2 = 2016-10-10T09:51:00.000 84.06226503926509
RANGE = 2016-10-10T09:51:00.000 165991133.67910945

ANGLE_1 = 2016-10-10T09:52:00.000 331.21692321835326
ANGLE_2 = 2016-10-10T09:52:00.000 83.96177398244335
RANGE = 2016-10-10T09:52:00.000 165991899.88551554

ANGLE_1 = 2016-10-10T09:53:00.000 329.3433999015768
ANGLE_2 = 2016-10-10T09:53:00.000 83.85575616460733
RANGE = 2016-10-10T09:53:00.000 165992666.18556446

ANGLE_1 = 2016-10-10T09:54:00.000 327.5334272892702
ANGLE_2 = 2016-10-10T09:54:00.000 83.74332423220996
RANGE = 2016-10-10T09:54:00.000 165993432.5209111

ANGLE_1 = 2016-10-10T09:55:00.000 325.7866622716711
ANGLE_2 = 2016-10-10T09:55:00.000 83.62525927593947
RANGE = 2016-10-10T09:55:00.000 165994199.01934242

ANGLE_1 = 2016-10-10T09:56:00.000 324.102023105731
ANGLE_2 = 2016-10-10T09:56:00.000 83.50184081323201
RANGE = 2016-10-10T09:56:00.000 165994965.58498

ANGLE_1 = 2016-10-10T09:57:00.000 322.4798261656907
ANGLE_2 = 2016-10-10T09:57:00.000 83.37352373583516
RANGE = 2016-10-10T09:57:00.000 165995732.2660775

ANGLE_1 = 2016-10-10T09:58:00.000 320.91633580742615
ANGLE_2 = 2016-10-10T09:58:00.000 83.24102707188692
RANGE = 2016-10-10T09:58:00.000 165996499.04586753

ANGLE_1 = 2016-10-10T09:59:00.000 319.41298183746414
ANGLE_2 = 2016-10-10T09:59:00.000 83.10339152242696
RANGE = 2016-10-10T09:59:00.000 165997265.83763158

ANGLE_1 = 2016-10-10T10:00:00.000 317.9674695157922
ANGLE_2 = 2016-10-10T10:00:00.000 82.96196507518513
RANGE = 2016-10-10T10:00:00.000 165998032.78632808

ANGLE_1 = 2016-10-10T10:01:00.000 316.57682425596784
ANGLE_2 = 2016-10-10T10:01:00.000 82.81687583809065
RANGE = 2016-10-10T10:01:00.000 165998799.81229246

ANGLE_1 = 2016-10-10T10:02:00.000 315.2383064958961
ANGLE_2 = 2016-10-10T10:02:00.000 82.66712765163798
RANGE = 2016-10-10T10:02:00.000 165999566.93412277

ANGLE_1 = 2016-10-10T10:03:00.000 313.95192184247645
ANGLE_2 = 2016-10-10T10:03:00.000 82.51452123666846
RANGE = 2016-10-10T10:03:00.000 166000334.1550199

ANGLE_1 = 2016-10-10T10:04:00.000 312.71639889776304
ANGLE_2 = 2016-10-10T10:04:00.000 82.3587558350253
RANGE = 2016-10-10T10:04:00.000 166001101.4264002

ANGLE_1 = 2016-10-10T10:05:00.000 311.5270070768752
ANGLE_2 = 2016-10-10T10:05:00.000 82.19969822163631
RANGE = 2016-10-10T10:05:00.000 166001868.8259693

ANGLE_1 = 2016-10-10T10:06:00.000 310.3827809604512
ANGLE_2 = 2016-10-10T10:06:00.000 82.03740410002987
RANGE = 2016-10-10T10:06:00.000 166002636.3296085

ANGLE_1 = 2016-10-10T10:07:00.000 309.28237228984256
ANGLE_2 = 2016-10-10T10:07:00.000 81.87251609413448
RANGE = 2016-10-10T10:07:00.000 166003403.92780605

ANGLE_1 = 2016-10-10T10:08:00.000 308.22370175763695
ANGLE_2 = 2016-10-10T10:08:00.000 81.70538897422746
RANGE = 2016-10-10T10:08:00.000 166004171.56725174

ANGLE_1 = 2016-10-10T10:09:00.000 307.2048389317637
ANGLE_2 = 2016-10-10T10:09:00.000 81.53654664161179
RANGE = 2016-10-10T10:09:00.000 166004939.3366696

ANGLE_1 = 2016-10-10T10:10:00.000 306.2236965626487
ANGLE_2 = 2016-10-10T10:10:00.000 81.36474375134438
RANGE = 2016-10-10T10:10:00.000 166005707.19754532

ANGLE_1 = 2016-10-10T10:11:00.000 305.2788147607098
ANGLE_2 = 2016-10-10T10:11:00.000 81.19049270869259
RANGE = 2016-10-10T10:11:00.000 166006475.11828312

ANGLE_1 = 2016-10-10T10:12:00.000 304.3681628938597
ANGLE_2 = 2016-10-10T10:12:00.000 81.01401003304696
RANGE = 2016-10-10T10:12:00.000 166007243.171608

ANGLE_1 = 2016-10-10T10:13:00.000 303.4906520547957
ANGLE_2 = 2016-10-10T10:13:00.000 80.83600908687602
RANGE = 2016-10-10T10:13:00.000 166008011.33315602

ANGLE_1 = 2016-10-10T10:14:00.000 302.64322434092264
ANGLE_2 = 2016-10-10T10:14:00.000 80.65693941978239
RANGE = 2016-10-10T10:14:00.000 166008779.55886868

ANGLE_1 = 2016-10-10T10:15:00.000 301.82736658927973
ANGLE_2 = 2016-10-10T10:15:00.000 80.47541923789915
RANGE = 2016-10-10T10:15:00.000 166009547.8507887

ANGLE_1 = 2016-10-10T10:16:00.000 301.03769588617257
ANGLE_2 = 2016-10-10T10:16:00.000 80.29191902884308
RANGE = 2016-10-10T10:16:00.000 166010316.2560905

ANGLE_1 = 2016-10-10T10:17:00.000 300.2766004456913
ANGLE_2 = 2016-10-10T10:17:00.000 80.10773526953425
RANGE = 2016-10-10T10:17:00.000 166011084.7461755

ANGLE_1 = 2016-10-10T10:18:00.000 299.5407728181079
ANGLE_2 = 2016-10-10T10:18:00.000 79.92155876609188
RANGE = 2016-10-10T10:18:00.000 166011853.3144057

ANGLE_1 = 2016-10-10T10:19:00.000 298.82945121750356
ANGLE_2 = 2016-10-10T10:19:00.000 79.73434249008841
RANGE = 2016-10-10T10:19:00.000 166012622.00517696

ANGLE_1 = 2016-10-10T10:20:00.000 298.14240924458625
ANGLE_2 = 2016-10-10T10:20:00.000 79.54622590606652
RANGE = 2016-10-10T10:20:00.000 166013390.81212583

ANGLE_1 = 2016-10-10T10:21:00.000 297.4758885388147
ANGLE_2 = 2016-10-10T10:21:00.000 79.35713738610801
RANGE = 2016-10-10T10:21:00.000 166014159.6825155

ANGLE_1 = 2016-10-10T10:22:00.000 296.8311513347117
ANGLE_2 = 2016-10-10T10:22:00.000 79.16605360108844
RANGE = 2016-10-10T10:22:00.000 166014928.56766373

ANGLE_1 = 2016-10-10T10:23:00.000 296.2064800892283
ANGLE_2 = 2016-10-10T10:23:00.000 78.9736304233282
RANGE = 2016-10-10T10:23:00.000 166015697.64813632

ANGLE_1 = 2016-10-10T10:24:00.000 295.6020787041546
ANGLE_2 = 2016-10-10T10:24:00.000 78.7809259741197
RANGE = 2016-10-10T10:24:00.000 166016466.7653181

ANGLE_1 = 2016-10-10T10:25:00.000 295.01476310968013
ANGLE_2 = 2016-10-10T10:25:00.000 78.58759920239461
RANGE = 2016-10-10T10:25:00.000 166017235.97879714

ANGLE_1 = 2016-10-10T10:26:00.000 294.44604242146755
