2nd Assignment - Navigation/tdm/NEW_NORCIA_EXM_20161012T041238_20161012T150043.tdm

CCSDS_TDM_VERS = 2.0

COMMENT This TDM contains synthetic data, not from real observations

CREATION_DATE = 2021-11-26T14:48:46.583824
ORIGINATOR = POLIMI-DAER

META_START
TIME_SYSTEM = UTC
START_TIME = 2016-10-12T04:12:38.028
STOP_TIME = 2016-10-12T15:00:43.771
PARTICIPANT_1 = NEW_NORCIA
PARTICIPANT_2 = EXM
MODE = SEQUENTIAL
PATH = 1,2,1
RANGE_UNITS = km
ANGLE_TYPE = AZEL
META_STOP

DATA_START

ANGLE_1 = 2016-10-12T04:12:38.028 108.44367601167846
ANGLE_2 = 2016-10-12T04:12:38.028 20.000018631700787
RANGE = 2016-10-12T04:12:38.028 167935202.81058633

ANGLE_1 = 2016-10-12T04:13:00.000 108.40443761644237
ANGLE_2 = 2016-10-12T04:13:00.000 20.07435631475748
RANGE = 2016-10-12T04:13:00.000 167935473.8320571

ANGLE_1 = 2016-10-12T04:14:00.000 108.30070495307797
ANGLE_2 = 2016-10-12T04:14:00.000 20.27805842537031
RANGE = 2016-10-12T04:14:00.000 167936214.0210843

ANGLE_1 = 2016-10-12T04:15:00.000 108.19604125082148
ANGLE_2 = 2016-10-12T04:15:00.000 20.48145554397316
RANGE = 2016-10-12T04:15:00.000 167936954.18213883

ANGLE_1 = 2016-10-12T04:16:00.000 108.0921309654392
ANGLE_2 = 2016-10-12T04:16:00.000 20.68498418458784
RANGE = 2016-10-12T04:16:00.000 167937694.3556549

ANGLE_1 = 2016-10-12T04:17:00.000 107.98804389437808
ANGLE_2 = 2016-10-12T04:17:00.000 20.889036392046112
RANGE = 2016-10-12T04:17:00.000 167938434.59758753

ANGLE_1 = 2016-10-12T04:18:00.000 107.88446392220857
ANGLE_2 = 2016-10-12T04:18:00.000 21.092924755762418
RANGE = 2016-10-12T04:18:00.000 167939174.80044156

ANGLE_1 = 2016-10-12T04:19:00.000 107.78044350127458
ANGLE_2 = 2016-10-12T04:19:00.000 21.297221628672837
RANGE = 2016-10-12T04:19:00.000 167939915.06690142

ANGLE_1 = 2016-10-12T04:20:00.000 107.6773195212579
ANGLE_2 = 2016-10-12T04:20:00.000 21.501619416644736
RANGE = 2016-10-12T04:20:00.000 167940655.27959692

ANGLE_1 = 2016-10-12T04:21:00.000 107.57365085633013
ANGLE_2 = 2016-10-12T04:21:00.000 21.704982073382467
RANGE = 2016-10-12T04:21:00.000 167941395.54500648

ANGLE_1 = 2016-10-12T04:22:00.000 107.47057309309228
ANGLE_2 = 2016-10-12T04:22:00.000 21.910042345151084
RANGE = 2016-10-12T04:22:00.000 167942135.8242351

ANGLE_1 = 2016-10-12T04:23:00.000 107.36696723944138
ANGLE_2 = 2016-10-12T04:23:00.000 22.113972588002596
RANGE = 2016-10-12T04:23:00.000 167942876.12457848

ANGLE_1 = 2016-10-12T04:24:00.000 107.26452381765287
ANGLE_2 = 2016-10-12T04:24:00.000 22.31864909576649
RANGE = 2016-10-12T04:24:00.000 167943616.45074987

ANGLE_1 = 2016-10-12T04:25:00.000 107.16146806450831
ANGLE_2 = 2016-10-12T04:25:00.000 22.52375012528856
RANGE = 2016-10-12T04:25:00.000 167944356.77102566

ANGLE_1 = 2016-10-12T04:26:00.000 107.0589232289563
ANGLE_2 = 2016-10-12T04:26:00.000 22.72848226938408
RANGE = 2016-10-12T04:26:00.000 167945097.14122352

ANGLE_1 = 2016-10-12T04:27:00.000 106.95623473935186
ANGLE_2 = 2016-10-12T04:27:00.000 22.933245143388643
RANGE = 2016-10-12T04:27:00.000 167945837.53986457

ANGLE_1 = 2016-10-12T04:28:00.000 106.85319912026357
ANGLE_2 = 2016-10-12T04:28:00.000 23.138612197776933
RANGE = 2016-10-12T04:28:00.000 167946577.874693

ANGLE_1 = 2016-10-12T04:29:00.000 106.75072007984276
ANGLE_2 = 2016-10-12T04:29:00.000 23.343436757222758
RANGE = 2016-10-12T04:29:00.000 167947318.2903569

ANGLE_1 = 2016-10-12T04:30:00.000 106.64862240718242
ANGLE_2 = 2016-10-12T04:30:00.000 23.549591976007083
RANGE = 2016-10-12T04:30:00.000 167948058.75806072

ANGLE_1 = 2016-10-12T04:31:00.000 106.54611444726854
ANGLE_2 = 2016-10-12T04:31:00.000 23.75445350807126
RANGE = 2016-10-12T04:31:00.000 167948799.1892114

ANGLE_1 = 2016-10-12T04:32:00.000 106.44358427768358
ANGLE_2 = 2016-10-12T04:32:00.000 23.95952743402733
RANGE = 2016-10-12T04:32:00.000 167949539.6723954

ANGLE_1 = 2016-10-12T04:33:00.000 106.34174666619627
ANGLE_2 = 2016-10-12T04:33:00.000 24.165830825279613
RANGE = 2016-10-12T04:33:00.000 167950280.1240308

ANGLE_1 = 2016-10-12T04:34:00.000 106.23970610659423
ANGLE_2 = 2016-10-12T04:34:00.000 24.370939120538182
RANGE = 2016-10-12T04:34:00.000 167951020.628356

ANGLE_1 = 2016-10-12T04:35:00.000 106.1375943180104
ANGLE_2 = 2016-10-12T04:35:00.000 24.576834615238376
RANGE = 2016-10-12T04:35:00.000 167951761.17036796

ANGLE_1 = 2016-10-12T04:36:00.000 106.03597118901489
ANGLE_2 = 2016-10-12T04:36:00.000 24.78312095238944
RANGE = 2016-10-12T04:36:00.000 167952501.7580384

ANGLE_1 = 2016-10-12T04:37:00.000 105.93469308870891
ANGLE_2 = 2016-10-12T04:37:00.000 24.989139934399518
RANGE = 2016-10-12T04:37:00.000 167953242.30957076

ANGLE_1 = 2016-10-12T04:38:00.000 105.83260771409071
ANGLE_2 = 2016-10-12T04:38:00.000 25.19547580092306
RANGE = 2016-10-12T04:38:00.000 167953982.92454982

ANGLE_1 = 2016-10-12T04:39:00.000 105.73099630932053
ANGLE_2 = 2016-10-12T04:39:00.000 25.401296429600976
RANGE = 2016-10-12T04:39:00.000 167954723.52907145

ANGLE_1 = 2016-10-12T04:40:00.000 105.62973411170209
ANGLE_2 = 2016-10-12T04:40:00.000 25.607705233518754
RANGE = 2016-10-12T04:40:00.000 167955464.18000534

ANGLE_1 = 2016-10-12T04:41:00.000 105.52809223811987
ANGLE_2 = 2016-10-12T04:41:00.000 25.813752671405496
RANGE = 2016-10-12T04:41:00.000 167956204.81976268

ANGLE_1 = 2016-10-12T04:42:00.000 105.42719858721154
ANGLE_2 = 2016-10-12T04:42:00.000 26.021026655080753
RANGE = 2016-10-12T04:42:00.000 167956945.5127152

ANGLE_1 = 2016-10-12T04:43:00.000 105.32503705430744
ANGLE_2 = 2016-10-12T04:43:00.000 26.227305568175378
RANGE = 2016-10-12T04:43:00.000 167957686.26341388

ANGLE_1 = 2016-10-12T04:44:00.000 105.22438907301074
ANGLE_2 = 2016-10-12T04:44:00.000 26.43386277971112
RANGE = 2016-10-12T04:44:00.000 167958427.01090175

ANGLE_1 = 2016-10-12T04:45:00.000 105.12343966745176
ANGLE_2 = 2016-10-12T04:45:00.000 26.64097492526229
RANGE = 2016-10-12T04:45:00.000 167959167.792366

ANGLE_1 = 2016-10-12T04:46:00.000 105.02247940907056
ANGLE_2 = 2016-10-12T04:46:00.000 26.847699854231234
RANGE = 2016-10-12T04:46:00.000 167959908.59182268

ANGLE_1 = 2016-10-12T04:47:00.000 104.92080928210167
ANGLE_2 = 2016-10-12T04:47:00.000 27.055149808360365
RANGE = 2016-10-12T04:47:00.000 167960649.3793584

ANGLE_1 = 2016-10-12T04:48:00.000 104.82043926780169
ANGLE_2 = 2016-10-12T04:48:00.000 27.262102492723805
RANGE = 2016-10-12T04:48:00.000 167961390.22875574

ANGLE_1 = 2016-10-12T04:49:00.000 104.72003875112068
ANGLE_2 = 2016-10-12T04:49:00.000 27.46993098338424
RANGE = 2016-10-12T04:49:00.000 167962131.12964985

ANGLE_1 = 2016-10-12T04:50:00.000 104.61830509837316
ANGLE_2 = 2016-10-12T04:50:00.000 27.676777264901958
RANGE = 2016-10-12T04:50:00.000 167962872.0393037

ANGLE_1 = 2016-10-12T04:51:00.000 104.51798501741193
ANGLE_2 = 2016-10-12T04:51:00.000 27.88422906350122
RANGE = 2016-10-12T04:51:00.000 167963612.97286442

ANGLE_1 = 2016-10-12T04:52:00.000 104.41763184998284
ANGLE_2 = 2016-10-12T04:52:00.000 28.09155784271395
RANGE = 2016-10-12T04:52:00.000 167964353.95944992

ANGLE_1 = 2016-10-12T04:53:00.000 104.31651269354687
ANGLE_2 = 2016-10-12T04:53:00.000 28.29954014889238
RANGE = 2016-10-12T04:53:00.000 167965094.9288098

ANGLE_1 = 2016-10-12T04:54:00.000 104.21631060241153
ANGLE_2 = 2016-10-12T04:54:00.000 28.507522743890426
RANGE = 2016-10-12T04:54:00.000 167965835.9687583

ANGLE_1 = 2016-10-12T04:55:00.000 104.11520761185693
ANGLE_2 = 2016-10-12T04:55:00.000 28.714444530420955
RANGE = 2016-10-12T04:55:00.000 167966576.9820963

ANGLE_1 = 2016-10-12T04:56:00.000 104.01538675158355
ANGLE_2 = 2016-10-12T04:56:00.000 28.92293015975391
RANGE = 2016-10-12T04:56:00.000 167967318.0662941

ANGLE_1 = 2016-10-12T04:57:00.000 103.9145132464852
ANGLE_2 = 2016-10-12T04:57:00.000 29.13033832731244
RANGE = 2016-10-12T04:57:00.000 167968059.1744435

ANGLE_1 = 2016-10-12T04:58:00.000 103.8154368098391
ANGLE_2 = 2016-10-12T04:58:00.000 29.339245577794852
RANGE = 2016-10-12T04:58:00.000 167968800.34847036

ANGLE_1 = 2016-10-12T04:59:00.000 103.71439879651797
ANGLE_2 = 2016-10-12T04:59:00.000 29.547315701916066
RANGE = 2016-10-12T04:59:00.000 167969541.52822673

ANGLE_1 = 2016-10-12T05:00:00.000 103.61373295554833
ANGLE_2 = 2016-10-12T05:00:00.000 29.755136809927194
RANGE = 2016-10-12T05:00:00.000 167970282.7116298

ANGLE_1 = 2016-10-12T05:01:00.000 103.51366731660796
ANGLE_2 = 2016-10-12T05:01:00.000 29.96298108139807
RANGE = 2016-10-12T05:01:00.000 167971023.93701106

ANGLE_1 = 2016-10-12T05:02:00.000 103.41324310836923
ANGLE_2 = 2016-10-12T05:02:00.000 30.172565156483106
RANGE = 2016-10-12T05:02:00.000 167971765.17486694

ANGLE_1 = 2016-10-12T05:03:00.000 103.31333799321584
ANGLE_2 = 2016-10-12T05:03:00.000 30.38058603306547
RANGE = 2016-10-12T05:03:00.000 167972506.5292286

ANGLE_1 = 2016-10-12T05:04:00.000 103.21332268970866
ANGLE_2 = 2016-10-12T05:04:00.000 30.58889856050756
RANGE = 2016-10-12T05:04:00.000 167973247.85574007

ANGLE_1 = 2016-10-12T05:05:00.000 103.11329376636873
ANGLE_2 = 2016-10-12T05:05:00.000 30.797708969163075
RANGE = 2016-10-12T05:05:00.000 167973989.22482353

ANGLE_1 = 2016-10-12T05:06:00.000 103.0127658087632
ANGLE_2 = 2016-10-12T05:06:00.000 31.006957013923923
RANGE = 2016-10-12T05:06:00.000 167974730.61043927

ANGLE_1 = 2016-10-12T05:07:00.000 102.91237224948463
ANGLE_2 = 2016-10-12T05:07:00.000 31.215686076952352
RANGE = 2016-10-12T05:07:00.000 167975472.02077886

ANGLE_1 = 2016-10-12T05:08:00.000 102.81235743000315
ANGLE_2 = 2016-10-12T05:08:00.000 31.424975859896186
RANGE = 2016-10-12T05:08:00.000 167976213.50282484

ANGLE_1 = 2016-10-12T05:09:00.000 102.71263149939556
ANGLE_2 = 2016-10-12T05:09:00.000 31.63418154217466
RANGE = 2016-10-12T05:09:00.000 167976955.03425643

ANGLE_1 = 2016-10-12T05:10:00.000 102.61233010348737
ANGLE_2 = 2016-10-12T05:10:00.000 31.84280528329005
RANGE = 2016-10-12T05:10:00.000 167977696.56007987

ANGLE_1 = 2016-10-12T05:11:00.000 102.51190997136402
ANGLE_2 = 2016-10-12T05:11:00.000 32.051870497399065
RANGE = 2016-10-12T05:11:00.000 167978438.14601234

ANGLE_1 = 2016-10-12T05:12:00.000 102.41205553137505
ANGLE_2 = 2016-10-12T05:12:00.000 32.26120471725916
RANGE = 2016-10-12T05:12:00.000 167979179.74071932

ANGLE_1 = 2016-10-12T05:13:00.000 102.31207692699097
ANGLE_2 = 2016-10-12T05:13:00.000 32.470269318493656
RANGE = 2016-10-12T05:13:00.000 167979921.38674107

ANGLE_1 = 2016-10-12T05:14:00.000 102.21242856060962
ANGLE_2 = 2016-10-12T05:14:00.000 32.68013408326974
RANGE = 2016-10-12T05:14:00.000 167980663.08465406

ANGLE_1 = 2016-10-12T05:15:00.000 102.11241931006425
ANGLE_2 = 2016-10-12T05:15:00.000 32.88969012933796
RANGE = 2016-10-12T05:15:00.000 167981404.81456676

ANGLE_1 = 2016-10-12T05:16:00.000 102.0120185358271
ANGLE_2 = 2016-10-12T05:16:00.000 33.09945525820396
RANGE = 2016-10-12T05:16:00.000 167982146.57670525

ANGLE_1 = 2016-10-12T05:17:00.000 101.91163444244158
ANGLE_2 = 2016-10-12T05:17:00.000 33.30862395584159
RANGE = 2016-10-12T05:17:00.000 167982888.35353115

ANGLE_1 = 2016-10-12T05:18:00.000 101.81251356468434
ANGLE_2 = 2016-10-12T05:18:00.000 33.518563800048746
RANGE = 2016-10-12T05:18:00.000 167983630.17246976

ANGLE_1 = 2016-10-12T05:19:00.000 101.71204294473286
ANGLE_2 = 2016-10-12T05:19:00.000 33.729040273513625
RANGE = 2016-10-12T05:19:00.000 167984372.0649611

ANGLE_1 = 2016-10-12T05:20:00.000 101.61184538562075
ANGLE_2 = 2016-10-12T05:20:00.000 33.93872616466887
RANGE = 2016-10-12T05:20:00.000 167985113.97015825

ANGLE_1 = 2016-10-12T05:21:00.000 101.51115976332893
ANGLE_2 = 2016-10-12T05:21:00.000 34.14860282879948
RANGE = 2016-10-12T05:21:00.000 167985855.94025704

ANGLE_1 = 2016-10-12T05:22:00.000 101.41185060797315
ANGLE_2 = 2016-10-12T05:22:00.000 34.35897557214249
RANGE = 2016-10-12T05:22:00.000 167986597.9252698

ANGLE_1 = 2016-10-12T05:23:00.000 101.31118580580193
ANGLE_2 = 2016-10-12T05:23:00.000 34.56851844708717
RANGE = 2016-10-12T05:23:00.000 167987339.98431253

ANGLE_1 = 2016-10-12T05:24:00.000 101.21129168463722
ANGLE_2 = 2016-10-12T05:24:00.000 34.77880147858891
RANGE = 2016-10-12T05:24:00.000 167988082.01097825

ANGLE_1 = 2016-10-12T05:25:00.000 101.1110346319698
ANGLE_2 = 2016-10-12T05:25:00.000 34.989430440755356
RANGE = 2016-10-12T05:25:00.000 167988824.14153156

ANGLE_1 = 2016-10-12T05:26:00.000 101.01089666871904
ANGLE_2 = 2016-10-12T05:26:00.000 35.20007985972123
RANGE = 2016-10-12T05:26:00.000 167989566.29496753

ANGLE_1 = 2016-10-12T05:27:00.000 100.91088373810727
ANGLE_2 = 2016-10-12T05:27:00.000 35.410056854710874
RANGE = 2016-10-12T05:27:00.000 167990308.5088865

ANGLE_1 = 2016-10-12T05:28:00.000 100.8102336008693
ANGLE_2 = 2016-10-12T05:28:00.000 35.620553144715274
RANGE = 2016-10-12T05:28:00.000 167991050.74794504

ANGLE_1 = 2016-10-12T05:29:00.000 100.70993552911295
ANGLE_2 = 2016-10-12T05:29:00.000 35.831525002667355
RANGE = 2016-10-12T05:29:00.000 167991793.03037202

ANGLE_1 = 2016-10-12T05:30:00.000 100.60998519276156
ANGLE_2 = 2016-10-12T05:30:00.000 36.04144246770849
RANGE = 2016-10-12T05:30:00.000 167992535.36591738

ANGLE_1 = 2016-10-12T05:31:00.000 100.50942731482417
ANGLE_2 = 2016-10-12T05:31:00.000 36.252090167125964
RANGE = 2016-10-12T05:31:00.000 167993277.72451338

ANGLE_1 = 2016-10-12T05:32:00.000 100.4088281553555
ANGLE_2 = 2016-10-12T05:32:00.000 36.463079295492655
RANGE = 2016-10-12T05:32:00.000 167994020.10950828

ANGLE_1 = 2016-10-12T05:33:00.000 100.30853955182155
ANGLE_2 = 2016-10-12T05:33:00.000 36.67418764522704
RANGE = 2016-10-12T05:33:00.000 167994762.57482317

ANGLE_1 = 2016-10-12T05:34:00.000 100.2077986394631
ANGLE_2 = 2016-10-12T05:34:00.000 36.88461495973534
RANGE = 2016-10-12T05:34:00.000 167995505.0413836

ANGLE_1 = 2016-10-12T05:35:00.000 100.10690054839873
ANGLE_2 = 2016-10-12T05:35:00.000 37.09569927220926
RANGE = 2016-10-12T05:35:00.000 167996247.60748154

ANGLE_1 = 2016-10-12T05:36:00.000 100.0060754197111
ANGLE_2 = 2016-10-12T05:36:00.000 37.306838610039456
RANGE = 2016-10-12T05:36:00.000 167996990.225155

ANGLE_1 = 2016-10-12T05:37:00.000 99.90513300680522
ANGLE_2 = 2016-10-12T05:37:00.000 37.51820254516488
RANGE = 2016-10-12T05:37:00.000 167997732.85226724

ANGLE_1 = 2016-10-12T05:38:00.000 99.80440234129554
ANGLE_2 = 2016-10-12T05:38:00.000 37.72948896605861
RANGE = 2016-10-12T05:38:00.000 167998475.53766888

ANGLE_1 = 2016-10-12T05:39:00.000 99.70365251478968
ANGLE_2 = 2016-10-12T05:39:00.000 37.940398809392526
RANGE = 2016-10-12T05:39:00.000 167999218.25194922

ANGLE_1 = 2016-10-12T05:40:00.000 99.60249513530665
ANGLE_2 = 2016-10-12T05:40:00.000 38.151779004488795
RANGE = 2016-10-12T05:40:00.000 167999961.02722922

ANGLE_1 = 2016-10-12T05:41:00.000 99.50130388312601
ANGLE_2 = 2016-10-12T05:41:00.000 38.36301163493596
RANGE = 2016-10-12T05:41:00.000 168000703.84575006

ANGLE_1 = 2016-10-12T05:42:00.000 99.4012053722598
ANGLE_2 = 2016-10-12T05:42:00.000 38.57430343912206
RANGE = 2016-10-12T05:42:00.000 168001446.68249884

ANGLE_1 = 2016-10-12T05:43:00.000 99.29911648798253
ANGLE_2 = 2016-10-12T05:43:00.000 38.785687297004635
RANGE = 2016-10-12T05:43:00.000 168002189.6552617

ANGLE_1 = 2016-10-12T05:44:00.000 99.19741990215356
ANGLE_2 = 2016-10-12T05:44:00.000 38.997570992300325
RANGE = 2016-10-12T05:44:00.000 168002932.5692441

ANGLE_1 = 2016-10-12T05:45:00.000 99.0962516842664
ANGLE_2 = 2016-10-12T05:45:00.000 39.20974230526153
RANGE = 2016-10-12T05:45:00.000 168003675.56864348

ANGLE_1 = 2016-10-12T05:46:00.000 98.99456862081207
ANGLE_2 = 2016-10-12T05:46:00.000 39.421096350748535
RANGE = 2016-10-12T05:46:00.000 168004418.63439554

ANGLE_1 = 2016-10-12T05:47:00.000 98.89326754745275
ANGLE_2 = 2016-10-12T05:47:00.000 39.632991189153
RANGE = 2016-10-12T05:47:00.000 168005161.7500967

ANGLE_1 = 2016-10-12T05:48:00.000 98.79136968853254
ANGLE_2 = 2016-10-12T05:48:00.000 39.844000040520555
RANGE = 2016-10-12T05:48:00.000 168005904.91236734

ANGLE_1 = 2016-10-12T05:49:00.000 98.68958179222184
ANGLE_2 = 2016-10-12T05:49:00.000 40.05601203606468
RANGE = 2016-10-12T05:49:00.000 168006648.0907677

ANGLE_1 = 2016-10-12T05:50:00.000 98.58832528468788
ANGLE_2 = 2016-10-12T05:50:00.000 40.267966900675404
RANGE = 2016-10-12T05:50:00.000 168007391.33870375

ANGLE_1 = 2016-10-12T05:51:00.000 98.48524527850742
ANGLE_2 = 2016-10-12T05:51:00.000 40.479964154316946
RANGE = 2016-10-12T05:51:00.000 168008134.63823992

ANGLE_1 = 2016-10-12T05:52:00.000 98.38350549841194
ANGLE_2 = 2016-10-12T05:52:00.000 40.69199965081569
RANGE = 2016-10-12T05:52:00.000 168008878.0153122

ANGLE_1 = 2016-10-12T05:53:00.000 98.28116153691319
ANGLE_2 = 2016-10-12T05:53:00.000 40.90442552738695
RANGE = 2016-10-12T05:53:00.000 168009621.4132585

ANGLE_1 = 2016-10-12T05:54:00.000 98.17831785841122
ANGLE_2 = 2016-10-12T05:54:00.000 41.11667833088649
RANGE = 2016-10-12T05:54:00.000 168010364.8847246

ANGLE_1 = 2016-10-12T05:55:00.000 98.07629004705271
ANGLE_2 = 2016-10-12T05:55:00.000 41.32886345878363
RANGE = 2016-10-12T05:55:00.000 168011108.38389063

ANGLE_1 = 2016-10-12T05:56:00.000 97.9736166934675
ANGLE_2 = 2016-10-12T05:56:00.000 41.54068188770933
RANGE = 2016-10-12T05:56:00.000 168011851.9457502

ANGLE_1 = 2016-10-12T05:57:00.000 97.87038983583389
ANGLE_2 = 2016-10-12T05:57:00.000 41.75356839415744
RANGE = 2016-10-12T05:57:00.000 168012595.56257322

ANGLE_1 = 2016-10-12T05:58:00.000 97.76781412015534
ANGLE_2 = 2016-10-12T05:58:00.000 41.96520607083022
RANGE = 2016-10-12T05:58:00.000 168013339.2381181

ANGLE_1 = 2016-10-12T05:59:00.000 97.66491904219015
ANGLE_2 = 2016-10-12T05:59:00.000 42.177631770691
RANGE = 2016-10-12T05:59:00.000 168014082.95205462

ANGLE_1 = 2016-10-12T06:00:00.000 97.56123245616762
ANGLE_2 = 2016-10-12T06:00:00.000 42.390481117545285
RANGE = 2016-10-12T06:00:00.000 168014826.74108097

ANGLE_1 = 2016-10-12T06:01:00.000 97.45775491407308
ANGLE_2 = 2016-10-12T06:01:00.000 42.603010266671234
RANGE = 2016-10-12T06:01:00.000 168015570.55958676

ANGLE_1 = 2016-10-12T06:02:00.000 97.35415158151496
ANGLE_2 = 2016-10-12T06:02:00.000 42.81564411743592
RANGE = 2016-10-12T06:02:00.000 168016314.42522144

ANGLE_1 = 2016-10-12T06:03:00.000 97.24953999011905
ANGLE_2 = 2016-10-12T06:03:00.000 43.0277218464651
RANGE = 2016-10-12T06:03:00.000 168017058.34689364

ANGLE_1 = 2016-10-12T06:04:00.000 97.14653243958452
ANGLE_2 = 2016-10-12T06:04:00.000 43.24053498955419
RANGE = 2016-10-12T06:04:00.000 168017802.3018592

ANGLE_1 = 2016-10-12T06:05:00.000 97.04148796950751
ANGLE_2 = 2016-10-12T06:05:00.000 43.45335436408695
RANGE = 2016-10-12T06:05:00.000 168018546.37459892

ANGLE_1 = 2016-10-12T06:06:00.000 96.93717268186352
ANGLE_2 = 2016-10-12T06:06:00.000 43.66584118316246
RANGE = 2016-10-12T06:06:00.000 168019290.48956427

ANGLE_1 = 2016-10-12T06:07:00.000 96.83339377228876
ANGLE_2 = 2016-10-12T06:07:00.000 43.87867432090826
RANGE = 2016-10-12T06:07:00.000 168020034.62746915

ANGLE_1 = 2016-10-12T06:08:00.000 96.72835562328395
ANGLE_2 = 2016-10-12T06:08:00.000 44.09177543897853
RANGE = 2016-10-12T06:08:00.000 168020778.8164507

ANGLE_1 = 2016-10-12T06:09:00.000 96.62357033108893
ANGLE_2 = 2016-10-12T06:09:00.000 44.30466558992256
RANGE = 2016-10-12T06:09:00.000 168021523.10242608

ANGLE_1 = 2016-10-12T06:10:00.000 96.51819439428729
ANGLE_2 = 2016-10-12T06:10:00.000 44.51809687315181
RANGE = 2016-10-12T06:10:00.000 168022267.4129842

ANGLE_1 = 2016-10-12T06:11:00.000 96.41322256001574
ANGLE_2 = 2016-10-12T06:11:00.000 44.730580783311865
RANGE = 2016-10-12T06:11:00.000 168023011.81932524

ANGLE_1 = 2016-10-12T06:12:00.000 96.30803718364257
ANGLE_2 = 2016-10-12T06:12:00.000 44.94358064208771
RANGE = 2016-10-12T06:12:00.000 168023756.20452768

ANGLE_1 = 2016-10-12T06:13:00.000 96.20192355830987
ANGLE_2 = 2016-10-12T06:13:00.000 45.15650291224389
RANGE = 2016-10-12T06:13:00.000 168024500.74766093

ANGLE_1 = 2016-10-12T06:14:00.000 96.095785205555
ANGLE_2 = 2016-10-12T06:14:00.000 45.36971615505293
RANGE = 2016-10-12T06:14:00.000 168025245.28448185

ANGLE_1 = 2016-10-12T06:15:00.000 95.98960173720766
ANGLE_2 = 2016-10-12T06:15:00.000 45.58351850458817
RANGE = 2016-10-12T06:15:00.000 168025989.89995232

ANGLE_1 = 2016-10-12T06:16:00.000 95.88366751503536
ANGLE_2 = 2016-10-12T06:16:00.000 45.79606786031593
RANGE = 2016-10-12T06:16:00.000 168026734.54259467

ANGLE_1 = 2016-10-12T06:17:00.000 95.77680984674335
ANGLE_2 = 2016-10-12T06:17:00.000 46.00886832464303
RANGE = 2016-10-12T06:17:00.000 168027479.29081458

ANGLE_1 = 2016-10-12T06:18:00.000 95.67027140746116
ANGLE_2 = 2016-10-12T06:18:00.000 46.22286364265859
RANGE = 2016-10-12T06:18:00.000 168028224.0643528

ANGLE_1 = 2016-10-12T06:19:00.000 95.5622914346133
ANGLE_2 = 2016-10-12T06:19:00.000 46.43553220015711
RANGE = 2016-10-12T06:19:00.000 168028968.90292016

ANGLE_1 = 2016-10-12T06:20:00.000 95.4549232638279
ANGLE_2 = 2016-10-12T06:20:00.000 46.649035183552094
RANGE = 2016-10-12T06:20:00.000 168029713.82969165

ANGLE_1 = 2016-10-12T06:21:00.000 95.34773196393546
ANGLE_2 = 2016-10-12T06:21:00.000 46.86299042184108
RANGE = 2016-10-12T06:21:00.000 168030458.75767088

ANGLE_1 = 2016-10-12T06:22:00.000 95.23952413649093
ANGLE_2 = 2016-10-12T06:22:00.000 47.07553055751617
RANGE = 2016-10-12T06:22:00.000 168031203.80915934

ANGLE_1 = 2016-10-12T06:23:00.000 95.13097355667966
ANGLE_2 = 2016-10-12T06:23:00.000 47.28965603312207
RANGE = 2016-10-12T06:23:00.000 168031948.849507

ANGLE_1 = 2016-10-12T06:24:00.000 95.02248146355606
ANGLE_2 = 2016-10-12T06:24:00.000 47.50286119809262
RANGE = 2016-10-12T06:24:00.000 168032694.02224892

ANGLE_1 = 2016-10-12T06:25:00.000 94.91406912581961
ANGLE_2 = 2016-10-12T06:25:00.000 47.716781586738655
RANGE = 2016-10-12T06:25:00.000 168033439.22176123

ANGLE_1 = 2016-10-12T06:26:00.000 94.80444504993962
ANGLE_2 = 2016-10-12T06:26:00.000 47.930297105680324
RANGE = 2016-10-12T06:26:00.000 168034184.48740748

ANGLE_1 = 2016-10-12T06:27:00.000 94.69557430897237
ANGLE_2 = 2016-10-12T06:27:00.000 48.14415291524223
RANGE = 2016-10-12T06:27:00.000 168034929.84045035

ANGLE_1 = 2016-10-12T06:28:00.000 94.58555572045277
ANGLE_2 = 2016-10-12T06:28:00.000 48.357891875414
RANGE = 2016-10-12T06:28:00.000 168035675.2400737

ANGLE_1 = 2016-10-12T06:29:00.000 94.47598852823494
ANGLE_2 = 2016-10-12T06:29:00.000 48.57178803018839
RANGE = 2016-10-12T06:29:00.000 168036420.70121697

ANGLE_1 = 2016-10-12T06:30:00.000 94.36534392846085
ANGLE_2 = 2016-10-12T06:30:00.000 48.78458613399407
RANGE = 2016-10-12T06:30:00.000 168037166.1882453

ANGLE_1 = 2016-10-12T06:31:00.000 94.2553906787933
ANGLE_2 = 2016-10-12T06:31:00.000 48.99858473241357
RANGE = 2016-10-12T06:31:00.000 168037911.77663165

ANGLE_1 = 2016-10-12T06:32:00.000 94.14391690232814
ANGLE_2 = 2016-10-12T06:32:00.000 49.21227414904002
RANGE = 2016-10-12T06:32:00.000 168038657.40204504

ANGLE_1 = 2016-10-12T06:33:00.000 94.03260499281383
ANGLE_2 = 2016-10-12T06:33:00.000 49.42587039370693
RANGE = 2016-10-12T06:33:00.000 168039403.1455999

ANGLE_1 = 2016-10-12T06:34:00.000 93.92096374367031
ANGLE_2 = 2016-10-12T06:34:00.000 49.6397427461736
RANGE = 2016-10-12T06:34:00.000 168040148.90479103

ANGLE_1 = 2016-10-12T06:35:00.000 93.80869689642877
ANGLE_2 = 2016-10-12T06:35:00.000 49.85432163968113
RANGE = 2016-10-12T06:35:00.000 168040894.72970495

ANGLE_1 = 2016-10-12T06:36:00.000 93.69594684236303
ANGLE_2 = 2016-10-12T06:36:00.000 50.067927190697574
RANGE = 2016-10-12T06:36:00.000 168041640.64211634

ANGLE_1 = 2016-10-12T06:37:00.000 93.58304890133759
ANGLE_2 = 2016-10-12T06:37:00.000 50.28103985740098
RANGE = 2016-10-12T06:37:00.000 168042386.65119138

ANGLE_1 = 2016-10-12T06:38:00.000 93.46965081265913
ANGLE_2 = 2016-10-12T06:38:00.000 50.495707418803484
RANGE = 2016-10-12T06:38:00.000 168043132.63376805

ANGLE_1 = 2016-10-12T06:39:00.000 93.3561542806816
ANGLE_2 = 2016-10-12T06:39:00.000 50.70938604090509
RANGE = 2016-10-12T06:39:00.000 168043878.7304575

ANGLE_1 = 2016-10-12T06:40:00.000 93.24230499176998
ANGLE_2 = 2016-10-12T06:40:00.000 50.923860842817646
RANGE = 2016-10-12T06:40:00.000 168044624.8651653

ANGLE_1 = 2016-10-12T06:41:00.000 93.12768512454703
ANGLE_2 = 2016-10-12T06:41:00.000 51.1368446662644
RANGE = 2016-10-12T06:41:00.000 168045371.13232604

ANGLE_1 = 2016-10-12T06:42:00.000 93.01297868566417
ANGLE_2 = 2016-10-12T06:42:00.000 51.35154511680913
RANGE = 2016-10-12T06:42:00.000 168046117.42333394

ANGLE_1 = 2016-10-12T06:43:00.000 92.89726576932988
ANGLE_2 = 2016-10-12T06:43:00.000 51.566207246750025
RANGE = 2016-10-12T06:43:00.000 168046863.78657144

ANGLE_1 = 2016-10-12T06:44:00.000 92.781657635657
ANGLE_2 = 2016-10-12T06:44:00.000 51.77972461681085
RANGE = 2016-10-12T06:44:00.000 168047610.17570615

ANGLE_1 = 2016-10-12T06:45:00.000 92.66558366111303
ANGLE_2 = 2016-10-12T06:45:00.000 51.99388837368352
RANGE = 2016-10-12T06:45:00.000 168048356.66323677

ANGLE_1 = 2016-10-12T06:46:00.000 92.54865724539175
ANGLE_2 = 2016-10-12T06:46:00.000 52.20777521298768
RANGE = 2016-10-12T06:46:00.000 168049103.27187327

ANGLE_1 = 2016-10-12T06:47:00.000 92.4313314399574
ANGLE_2 = 2016-10-12T06:47:00.000 52.42235532116876
RANGE = 2016-10-12T06:47:00.000 168049849.88166347

ANGLE_1 = 2016-10-12T06:48:00.000 92.31446771780888
ANGLE_2 = 2016-10-12T06:48:00.000 52.63629745527828
RANGE = 2016-10-12T06:48:00.000 168050596.5865955

ANGLE_1 = 2016-10-12T06:49:00.000 92.1958142752722
ANGLE_2 = 2016-10-12T06:49:00.000 52.85066193682156
RANGE = 2016-10-12T06:49:00.000 168051343.32263994

ANGLE_1 = 2016-10-12T06:50:00.000 92.07776869631888
ANGLE_2 = 2016-10-12T06:50:00.000 53.06469721484873
RANGE = 2016-10-12T06:50:00.000 168052090.19207913

ANGLE_1 = 2016-10-12T06:51:00.000 91.9586346857964
ANGLE_2 = 2016-10-12T06:51:00.000 53.27898423870442
RANGE = 2016-10-12T06:51:00.000 168052837.0885706

ANGLE_1 = 2016-10-12T06:52:00.000 91.8386482007672
ANGLE_2 = 2016-10-12T06:52:00.000 53.493365620523164
RANGE = 2016-10-12T06:52:00.000 168053584.04880652

ANGLE_1 = 2016-10-12T06:53:00.000 91.71893885934094
ANGLE_2 = 2016-10-12T06:53:00.000 53.70745358231229
RANGE = 2016-10-12T06:53:00.000 168054331.11797708

ANGLE_1 = 2016-10-12T06:54:00.000 91.5983641403244
ANGLE_2 = 2016-10-12T06:54:00.000 53.9216936192057
RANGE = 2016-10-12T06:54:00.000 168055078.23262328

ANGLE_1 = 2016-10-12T06:55:00.000 91.47693736896515
ANGLE_2 = 2016-10-12T06:55:00.000 54.135692967252005
RANGE = 2016-10-12T06:55:00.000 168055825.38553265

ANGLE_1 = 2016-10-12T06:56:00.000 91.35513438852884
ANGLE_2 = 2016-10-12T06:56:00.000 54.34975357825059
RANGE = 2016-10-12T06:56:00.000 168056572.6588659

ANGLE_1 = 2016-10-12T06:57:00.000 91.23310664231957
ANGLE_2 = 2016-10-12T06:57:00.000 54.564990750988855
RANGE = 2016-10-12T06:57:00.000 168057319.9711779

ANGLE_1 = 2016-10-12T06:58:00.000 91.11038689480245
ANGLE_2 = 2016-10-12T06:58:00.000 54.779180648381086
RANGE = 2016-10-12T06:58:00.000 168058067.35392997

ANGLE_1 = 2016-10-12T06:59:00.000 90.98599311028543
ANGLE_2 = 2016-10-12T06:59:00.000 54.99259991710437
RANGE = 2016-10-12T06:59:00.000 168058814.80954775

ANGLE_1 = 2016-10-12T07:00:00.000 90.86208941784902
ANGLE_2 = 2016-10-12T07:00:00.000 55.207372865445606
RANGE = 2016-10-12T07:00:00.000 168059562.35757482

ANGLE_1 = 2016-10-12T07:01:00.000 90.7372319630907
ANGLE_2 = 2016-10-12T07:01:00.000 55.4216092891524
RANGE = 2016-10-12T07:01:00.000 168060309.93196696

ANGLE_1 = 2016-10-12T07:02:00.000 90.6116885059008
ANGLE_2 = 2016-10-12T07:02:00.000 55.63594153666558
RANGE = 2016-10-12T07:02:00.000 168061057.66018113

ANGLE_1 = 2016-10-12T07:03:00.000 90.48531019162927
ANGLE_2 = 2016-10-12T07:03:00.000 55.8503766418842
RANGE = 2016-10-12T07:03:00.000 168061805.38374606

ANGLE_1 = 2016-10-12T07:04:00.000 90.35872304482055
ANGLE_2 = 2016-10-12T07:04:00.000 56.064224027170006
RANGE = 2016-10-12T07:04:00.000 168062553.19781768

ANGLE_1 = 2016-10-12T07:05:00.000 90.23107368394584
ANGLE_2 = 2016-10-12T07:05:00.000 56.278844431310986
RANGE = 2016-10-12T07:05:00.000 168063301.1061662

ANGLE_1 = 2016-10-12T07:06:00.000 90.10318265993308
ANGLE_2 = 2016-10-12T07:06:00.000 56.49354907823485
RANGE = 2016-10-12T07:06:00.000 168064049.06185412

ANGLE_1 = 2016-10-12T07:07:00.000 89.97404877865509
ANGLE_2 = 2016-10-12T07:07:00.000 56.70759636102453
RANGE = 2016-10-12T07:07:00.000 168064797.10951176

ANGLE_1 = 2016-10-12T07:08:00.000 89.84468989791793
ANGLE_2 = 2016-10-12T07:08:00.000 56.92229617658819
RANGE = 2016-10-12T07:08:00.000 168065545.19877955

ANGLE_1 = 2016-10-12T07:09:00.000 89.71373753246154
ANGLE_2 = 2016-10-12T07:09:00.000 57.13619801693568
RANGE = 2016-10-12T07:09:00.000 168066293.40966645

ANGLE_1 = 2016-10-12T07:10:00.000 89.5826105994761
ANGLE_2 = 2016-10-12T07:10:00.000 57.350876411175825
RANGE = 2016-10-12T07:10:00.000 168067041.6735477

ANGLE_1 = 2016-10-12T07:11:00.000 89.45059851849041
ANGLE_2 = 2016-10-12T07:11:00.000 57.565118805774105
RANGE = 2016-10-12T07:11:00.000 168067790.0245641

ANGLE_1 = 2016-10-12T07:12:00.000 89.31802697168257
ANGLE_2 = 2016-10-12T07:12:00.000 57.77953595759518
RANGE = 2016-10-12T07:12:00.000 168068538.3944497

ANGLE_1 = 2016-10-12T07:13:00.000 89.18401736379865
ANGLE_2 = 2016-10-12T07:13:00.000 57.99353925340678
RANGE = 2016-10-12T07:13:00.000 168069286.86108264

ANGLE_1 = 2016-10-12T07:14:00.000 89.05007511418698
ANGLE_2 = 2016-10-12T07:14:00.000 58.20772328155022
RANGE = 2016-10-12T07:14:00.000 168070035.44443285

ANGLE_1 = 2016-10-12T07:15:00.000 88.9142768785977
ANGLE_2 = 2016-10-12T07:15:00.000 58.422262930682415
RANGE = 2016-10-12T07:15:00.000 168070784.08264166

ANGLE_1 = 2016-10-12T07:16:00.000 88.7778128183722
ANGLE_2 = 2016-10-12T07:16:00.000 58.636518484558245
RANGE = 2016-10-12T07:16:00.000 168071532.82086524

ANGLE_1 = 2016-10-12T07:17:00.000 88.64068191816847
ANGLE_2 = 2016-10-12T07:17:00.000 58.85102755038362
RANGE = 2016-10-12T07:17:00.000 168072281.56363302

ANGLE_1 = 2016-10-12T07:18:00.000 88.50269975267037
ANGLE_2 = 2016-10-12T07:18:00.000 59.06517527060518
RANGE = 2016-10-12T07:18:00.000 168073030.43665475

ANGLE_1 = 2016-10-12T07:19:00.000 88.36432345040261
ANGLE_2 = 2016-10-12T07:19:00.000 59.27911115507689
RANGE = 2016-10-12T07:19:00.000 168073779.3888946

ANGLE_1 = 2016-10-12T07:20:00.000 88.22404819034888
ANGLE_2 = 2016-10-12T07:20:00.000 59.49347852306826
RANGE = 2016-10-12T07:20:00.000 168074528.39706275

ANGLE_1 = 2016-10-12T07:21:00.000 88.08297618690767
ANGLE_2 = 2016-10-12T07:21:00.000 59.707798135040534
RANGE = 2016-10-12T07:21:00.000 168075277.46404284

ANGLE_1 = 2016-10-12T07:22:00.000 87.94049274993662
ANGLE_2 = 2016-10-12T07:22:00.000 59.922381321330626
RANGE = 2016-10-12T07:22:00.000 168076026.65362534

ANGLE_1 = 2016-10-12T07:23:00.000 87.79752401507804
ANGLE_2 = 2016-10-12T07:23:00.000 60.137013719121086
RANGE = 2016-10-12T07:23:00.000 168076775.87134805

ANGLE_1 = 2016-10-12T07:24:00.000 87.65433376992058
ANGLE_2 = 2016-10-12T07:24:00.000 60.35046765097405
RANGE = 2016-10-12T07:24:00.000 168077525.18050855

ANGLE_1 = 2016-10-12T07:25:00.000 87.50920263934746
ANGLE_2 = 2016-10-12T07:25:00.000 60.564535088650175
RANGE = 2016-10-12T07:25:00.000 168078274.59551832

ANGLE_1 = 2016-10-12T07:26:00.000 87.3626893766425
ANGLE_2 = 2016-10-12T07:26:00.000 60.77840914987094
RANGE = 2016-10-12T07:26:00.000 168079024.0469937

ANGLE_1 = 2016-10-12T07:27:00.000 87.21590738175628
ANGLE_2 = 2016-10-12T07:27:00.000 60.99309316612233
RANGE = 2016-10-12T07:27:00.000 168079773.57594278

ANGLE_1 = 2016-10-12T07:28:00.000 87.06674719302346
ANGLE_2 = 2016-10-12T07:28:00.000 61.20685957494141
RANGE = 2016-10-12T07:28:00.000 168080523.2398366

ANGLE_1 = 2016-10-12T07:29:00.000 86.91708987278498
ANGLE_2 = 2016-10-12T07:29:00.000 61.421375827893414
RANGE = 2016-10-12T07:29:00.000 168081272.94264898

ANGLE_1 = 2016-10-12T07:30:00.000 86.76642839261672
ANGLE_2 = 2016-10-12T07:30:00.000 61.63531725625211
RANGE = 2016-10-12T07:30:00.000 168082022.73596397

ANGLE_1 = 2016-10-12T07:31:00.000 86.61319577194936
ANGLE_2 = 2016-10-12T07:31:00.000 61.84890172636374
RANGE = 2016-10-12T07:31:00.000 168082772.56766787

ANGLE_1 = 2016-10-12T07:32:00.000 86.4600356031898
ANGLE_2 = 2016-10-12T07:32:00.000 62.06274538170151
RANGE = 2016-10-12T07:32:00.000 168083522.52019113

ANGLE_1 = 2016-10-12T07:33:00.000 86.30500971073283
ANGLE_2 = 2016-10-12T07:33:00.000 62.27678146501011
RANGE = 2016-10-12T07:33:00.000 168084272.55346277

ANGLE_1 = 2016-10-12T07:34:00.000 86.14929664615934
ANGLE_2 = 2016-10-12T07:34:00.000 62.49069840503844
RANGE = 2016-10-12T07:34:00.000 168085022.6562456

ANGLE_1 = 2016-10-12T07:35:00.000 85.99162029061537
ANGLE_2 = 2016-10-12T07:35:00.000 62.704942554535215
RANGE = 2016-10-12T07:35:00.000 168085772.78941056

ANGLE_1 = 2016-10-12T07:36:00.000 85.83261783692086
ANGLE_2 = 2016-10-12T07:36:00.000 62.918393137724095
RANGE = 2016-10-12T07:36:00.000 168086523.1120189

ANGLE_1 = 2016-10-12T07:37:00.000 85.67224195700233
ANGLE_2 = 2016-10-12T07:37:00.000 63.132413291698064
RANGE = 2016-10-12T07:37:00.000 168087273.42321074

ANGLE_1 = 2016-10-12T07:38:00.000 85.51104052057266
ANGLE_2 = 2016-10-12T07:38:00.000 63.3458577521108
RANGE = 2016-10-12T07:38:00.000 168088023.85755846

ANGLE_1 = 2016-10-12T07:39:00.000 85.3466697846315
ANGLE_2 = 2016-10-12T07:39:00.000 63.55966083213715
RANGE = 2016-10-12T07:39:00.000 168088774.35810238

ANGLE_1 = 2016-10-12T07:40:00.000 85.18213506671827
ANGLE_2 = 2016-10-12T07:40:00.000 63.77327846362695
RANGE = 2016-10-12T07:40:00.000 168089524.93379205

ANGLE_1 = 2016-10-12T07:41:00.000 85.01562643770772
ANGLE_2 = 2016-10-12T07:41:00.000 63.98613387961633
RANGE = 2016-10-12T07:41:00.000 168090275.58948418

ANGLE_1 = 2016-10-12T07:42:00.000 84.84775179363001
ANGLE_2 = 2016-10-12T07:42:00.000 64.200340382955
RANGE = 2016-10-12T07:42:00.000 168091026.34474513

ANGLE_1 = 2016-10-12T07:43:00.000 84.67756617153188
ANGLE_2 = 2016-10-12T07:43:00.000 64.41384994012417
RANGE = 2016-10-12T07:43:00.000 168091777.1671417

ANGLE_1 = 2016-10-12T07:44:00.000 84.50593666185777
ANGLE_2 = 2016-10-12T07:44:00.000 64.62673364385071
RANGE = 2016-10-12T07:44:00.000 168092528.0116413

ANGLE_1 = 2016-10-12T07:45:00.000 84.33241534392836
ANGLE_2 = 2016-10-12T07:45:00.000 64.84036229762724
RANGE = 2016-10-12T07:45:00.000 168093279.04471144

ANGLE_1 = 2016-10-12T07:46:00.000 84.15716987073337
ANGLE_2 = 2016-10-12T07:46:00.000 65.05397796535887
RANGE = 2016-10-12T07:46:00.000 168094030.13187072

ANGLE_1 = 2016-10-12T07:47:00.000 83.97985839259023
ANGLE_2 = 2016-10-12T07:47:00.000 65.26663157961869
RANGE = 2016-10-12T07:47:00.000 168094781.28307244

ANGLE_1 = 2016-10-12T07:48:00.000 83.80113814609544
ANGLE_2 = 2016-10-12T07:48:00.000 65.47992738631295
RANGE = 2016-10-12T07:48:00.000 168095532.50025725

ANGLE_1 = 2016-10-12T07:49:00.000 83.62000635679544
ANGLE_2 = 2016-10-12T07:49:00.000 65.69366842534276
RANGE = 2016-10-12T07:49:00.000 168096283.82129574

ANGLE_1 = 2016-10-12T07:50:00.000 83.43714523878197
ANGLE_2 = 2016-10-12T07:50:00.000 65.90642005713364
RANGE = 2016-10-12T07:50:00.000 168097035.21192575

ANGLE_1 = 2016-10-12T07:51:00.000 83.25249097736105
ANGLE_2 = 2016-10-12T07:51:00.000 66.11949934726294
RANGE = 2016-10-12T07:51:00.000 168097786.6653584

ANGLE_1 = 2016-10-12T07:52:00.000 83.06460393244062
ANGLE_2 = 2016-10-12T07:52:00.000 66.33184853501078
RANGE = 2016-10-12T07:52:00.000 168098538.22945

ANGLE_1 = 2016-10-12T07:53:00.000 82.87654278604646
ANGLE_2 = 2016-10-12T07:53:00.000 66.5446405932366
RANGE = 2016-10-12T07:53:00.000 168099289.90249816

ANGLE_1 = 2016-10-12T07:54:00.000 82.68425072607695
ANGLE_2 = 2016-10-12T07:54:00.000 66.75723618469463
RANGE = 2016-10-12T07:54:00.000 168100041.63947886

ANGLE_1 = 2016-10-12T07:55:00.000 82.49038320284114
ANGLE_2 = 2016-10-12T07:55:00.000 66.96981511670411
RANGE = 2016-10-12T07:55:00.000 168100793.45270175

ANGLE_1 = 2016-10-12T07:56:00.000 82.29408637452079
ANGLE_2 = 2016-10-12T07:56:00.000 67.18213504061625
RANGE = 2016-10-12T07:56:00.000 168101545.3302936

ANGLE_1 = 2016-10-12T07:57:00.000 82.09467746381239
ANGLE_2 = 2016-10-12T07:57:00.000 67.3943365177308
RANGE = 2016-10-12T07:57:00.000 168102297.31178528

ANGLE_1 = 2016-10-12T07:58:00.000 81.89429975801328
ANGLE_2 = 2016-10-12T07:58:00.000 67.6066088161607
RANGE = 2016-10-12T07:58:00.000 168103049.38507673

ANGLE_1 = 2016-10-12T07:59:00.000 81.68940164713075
ANGLE_2 = 2016-10-12T07:59:00.000 67.81910994293513
RANGE = 2016-10-12T07:59:00.000 168103801.50595036

ANGLE_1 = 2016-10-12T08:00:00.000 81.48253709108783
ANGLE_2 = 2016-10-12T08:00:00.000 68.03040211745261
RANGE = 2016-10-12T08:00:00.000 168104553.7510257

ANGLE_1 = 2016-10-12T08:01:00.000 81.27416584874231
ANGLE_2 = 2016-10-12T08:01:00.000 68.24278601712953
RANGE = 2016-10-12T08:01:00.000 168105306.07301897

ANGLE_1 = 2016-10-12T08:02:00.000 81.06179892981481
ANGLE_2 = 2016-10-12T08:02:00.000 68.45519944933908
RANGE = 2016-10-12T08:02:00.000 168106058.43216476

ANGLE_1 = 2016-10-12T08:03:00.000 80.84681049605918
ANGLE_2 = 2016-10-12T08:03:00.000 68.66680351170321
RANGE = 2016-10-12T08:03:00.000 168106810.9298297

ANGLE_1 = 2016-10-12T08:04:00.000 80.6281813289898
ANGLE_2 = 2016-10-12T08:04:00.000 68.87750714365569
RANGE = 2016-10-12T08:04:00.000 168107563.55801198

ANGLE_1 = 2016-10-12T08:05:00.000 80.40744801623761
ANGLE_2 = 2016-10-12T08:05:00.000 69.08901366770279
RANGE = 2016-10-12T08:05:00.000 168108316.1429192

ANGLE_1 = 2016-10-12T08:06:00.000 80.18333204192871
ANGLE_2 = 2016-10-12T08:06:00.000 69.3008696771291
RANGE = 2016-10-12T08:06:00.000 168109068.9041511

ANGLE_1 = 2016-10-12T08:07:00.000 79.9556203549816
ANGLE_2 = 2016-10-12T08:07:00.000 69.51195640597959
RANGE = 2016-10-12T08:07:00.000 168109821.7382165

ANGLE_1 = 2016-10-12T08:08:00.000 79.72492850159018
ANGLE_2 = 2016-10-12T08:08:00.000 69.72295736326232
RANGE = 2016-10-12T08:08:00.000 168110574.64566186

ANGLE_1 = 2016-10-12T08:09:00.000 79.49036065591464
ANGLE_2 = 2016-10-12T08:09:00.000 69.9332586405958
RANGE = 2016-10-12T08:09:00.000 168111327.63092956

ANGLE_1 = 2016-10-12T08:10:00.000 79.25229658024801
ANGLE_2 = 2016-10-12T08:10:00.000 70.14470213685975
RANGE = 2016-10-12T08:10:00.000 168112080.7345695

ANGLE_1 = 2016-10-12T08:11:00.000 79.00987553977593
ANGLE_2 = 2016-10-12T08:11:00.000 70.354373993477
RANGE = 2016-10-12T08:11:00.000 168112833.88880906

ANGLE_1 = 2016-10-12T08:12:00.000 78.76416195630125
ANGLE_2 = 2016-10-12T08:12:00.000 70.56512369691733
RANGE = 2016-10-12T08:12:00.000 168113587.14016035

ANGLE_1 = 2016-10-12T08:13:00.000 78.51479428375507
ANGLE_2 = 2016-10-12T08:13:00.000 70.775079134487
RANGE = 2016-10-12T08:13:00.000 168114340.49806356

ANGLE_1 = 2016-10-12T08:14:00.000 78.26148472945196
ANGLE_2 = 2016-10-12T08:14:00.000 70.98512426614542
RANGE = 2016-10-12T08:14:00.000 168115093.91486937

ANGLE_1 = 2016-10-12T08:15:00.000 78.00336938102883
ANGLE_2 = 2016-10-12T08:15:00.000 71.19521325302487
RANGE = 2016-10-12T08:15:00.000 168115847.40337303

ANGLE_1 = 2016-10-12T08:16:00.000 77.74157451574139
ANGLE_2 = 2016-10-12T08:16:00.000 71.40398973226552
RANGE = 2016-10-12T08:16:00.000 168116601.04109728

ANGLE_1 = 2016-10-12T08:17:00.000 77.47383299610244
ANGLE_2 = 2016-10-12T08:17:00.000 71.61336271561767
RANGE = 2016-10-12T08:17:00.000 168117354.7043156

ANGLE_1 = 2016-10-12T08:18:00.000 77.2021752947423
ANGLE_2 = 2016-10-12T08:18:00.000 71.82281046657796
RANGE = 2016-10-12T08:18:00.000 168118108.46174282

ANGLE_1 = 2016-10-12T08:19:00.000 76.92599107111613
ANGLE_2 = 2016-10-12T08:19:00.000 72.03183385127943
RANGE = 2016-10-12T08:19:00.000 168118862.34025213

ANGLE_1 = 2016-10-12T08:20:00.000 76.64449533261187
ANGLE_2 = 2016-10-12T08:20:00.000 72.24029663760152
RANGE = 2016-10-12T08:20:00.000 168119616.29625326

ANGLE_1 = 2016-10-12T08:21:00.000 76.35831793388779
ANGLE_2 = 2016-10-12T08:21:00.000 72.44864344845472
RANGE = 2016-10-12T08:21:00.000 168120370.31020927

ANGLE_1 = 2016-10-12T08:22:00.000 76.0663615439959
ANGLE_2 = 2016-10-12T08:22:00.000 72.65675704224051
RANGE = 2016-10-12T08:22:00.000 168121124.46322584

ANGLE_1 = 2016-10-12T08:23:00.000 75.7694576383022
ANGLE_2 = 2016-10-12T08:23:00.000 72.86532704585346
RANGE = 2016-10-12T08:23:00.000 168121878.683725

ANGLE_1 = 2016-10-12T08:24:00.000 75.46623525090284
ANGLE_2 = 2016-10-12T08:24:00.000 73.07313526281406
RANGE = 2016-10-12T08:24:00.000 168122632.9916118

ANGLE_1 = 2016-10-12T08:25:00.000 75.15753242097857
ANGLE_2 = 2016-10-12T08:25:00.000 73.27946695857001
RANGE = 2016-10-12T08:25:00.000 168123387.35100546

ANGLE_1 = 2016-10-12T08:26:00.000 74.84232585395252
ANGLE_2 = 2016-10-12T08:26:00.000 73.48676495751714
RANGE = 2016-10-12T08:26:00.000 168124141.80442974

ANGLE_1 = 2016-10-12T08:27:00.000 74.519921262636
ANGLE_2 = 2016-10-12T08:27:00.000 73.6936710961418
RANGE = 2016-10-12T08:27:00.000 168124896.38336435

ANGLE_1 = 2016-10-12T08:28:00.000 74.19236038204217
ANGLE_2 = 2016-10-12T08:28:00.000 73.90000600570916
RANGE = 2016-10-12T08:28:00.000 168125651.03255478

ANGLE_1 = 2016-10-12T08:29:00.000 73.85679878668608
ANGLE_2 = 2016-10-12T08:29:00.000 74.10612592380882
RANGE = 2016-10-12T08:29:00.000 168126405.77116504

ANGLE_1 = 2016-10-12T08:30:00.000 73.5145491623087
ANGLE_2 = 2016-10-12T08:30:00.000 74.31207958813901
RANGE = 2016-10-12T08:30:00.000 168127160.6176964

ANGLE_1 = 2016-10-12T08:31:00.000 73.16550168379095
ANGLE_2 = 2016-10-12T08:31:00.000 74.51696637811389
RANGE = 2016-10-12T08:31:00.000 168127915.50703225

ANGLE_1 = 2016-10-12T08:32:00.000 72.80735559393953
ANGLE_2 = 2016-10-12T08:32:00.000 74.7217230170223
RANGE = 2016-10-12T08:32:00.000 168128670.55083543

ANGLE_1 = 2016-10-12T08:33:00.000 72.44278181243554
ANGLE_2 = 2016-10-12T08:33:00.000 74.92656015696687
RANGE = 2016-10-12T08:33:00.000 168129425.6087378

ANGLE_1 = 2016-10-12T08:34:00.000 72.068090268869
ANGLE_2 = 2016-10-12T08:34:00.000 75.1307249945983
RANGE = 2016-10-12T08:34:00.000 168130180.81313124

ANGLE_1 = 2016-10-12T08:35:00.000 71.68681965182071
ANGLE_2 = 2016-10-12T08:35:00.000 75.3345169012152
RANGE = 2016-10-12T08:35:00.000 168130936.07064658

ANGLE_1 = 2016-10-12T08:36:00.000 71.29551878080262
ANGLE_2 = 2016-10-12T08:36:00.000 75.53720059737957
RANGE = 2016-10-12T08:36:00.000 168131691.4161477

ANGLE_1 = 2016-10-12T08:37:00.000 70.89437003534756
ANGLE_2 = 2016-10-12T08:37:00.000 75.74029681594624
RANGE = 2016-10-12T08:37:00.000 168132446.88360682

ANGLE_1 = 2016-10-12T08:38:00.000 70.48480603241917
ANGLE_2 = 2016-10-12T08:38:00.000 75.9426049223132
RANGE = 2016-10-12T08:38:00.000 168133202.43766496

ANGLE_1 = 2016-10-12T08:39:00.000 70.06452116451338
ANGLE_2 = 2016-10-12T08:39:00.000 76.1444895820027
RANGE = 2016-10-12T08:39:00.000 168133958.05914313

ANGLE_1 = 2016-10-12T08:40:00.000 69.63333027637707
ANGLE_2 = 2016-10-12T08:40:00.000 76.34530548470805
RANGE = 2016-10-12T08:40:00.000 168134713.77992246

ANGLE_1 = 2016-10-12T08:41:00.000 69.19079082126184
ANGLE_2 = 2016-10-12T08:41:00.000 76.54643796440016
RANGE = 2016-10-12T08:41:00.000 168135469.60126334

ANGLE_1 = 2016-10-12T08:42:00.000 68.73738971879196
ANGLE_2 = 2016-10-12T08:42:00.000 76.7468543470237
RANGE = 2016-10-12T08:42:00.000 168136225.50019306

ANGLE_1 = 2016-10-12T08:43:00.000 68.27221806065725
ANGLE_2 = 2016-10-12T08:43:00.000 76.94566738641717
RANGE = 2016-10-12T08:43:00.000 168136981.4587224

ANGLE_1 = 2016-10-12T08:44:00.000 67.79393549700451
ANGLE_2 = 2016-10-12T08:44:00.000 77.14490689721063
RANGE = 2016-10-12T08:44:00.000 168137737.5659486

ANGLE_1 = 2016-10-12T08:45:00.000 67.30322512860008
ANGLE_2 = 2016-10-12T08:45:00.000 77.34263256423665
RANGE = 2016-10-12T08:45:00.000 168138493.73818138

ANGLE_1 = 2016-10-12T08:46:00.000 66.79919774151303
ANGLE_2 = 2016-10-12T08:46:00.000 77.54042315366358
RANGE = 2016-10-12T08:46:00.000 168139250.0116514

ANGLE_1 = 2016-10-12T08:47:00.000 66.2795327642974
ANGLE_2 = 2016-10-12T08:47:00.000 77.73672513318157
RANGE = 2016-10-12T08:47:00.000 168140006.3428498

ANGLE_1 = 2016-10-12T08:48:00.000 65.74584414689382
ANGLE_2 = 2016-10-12T08:48:00.000 77.93272295627061
RANGE = 2016-10-12T08:48:00.000 168140762.79015225

ANGLE_1 = 2016-10-12T08:49:00.000 65.19770566229833
ANGLE_2 = 2016-10-12T08:49:00.000 78.12797277468812
RANGE = 2016-10-12T08:49:00.000 168141519.31228468

ANGLE_1 = 2016-10-12T08:50:00.000 64.63241176544375
ANGLE_2 = 2016-10-12T08:50:00.000 78.3214093062685
RANGE = 2016-10-12T08:50:00.000 168142275.9298954

ANGLE_1 = 2016-10-12T08:51:00.000 64.04958252356205
ANGLE_2 = 2016-10-12T08:51:00.000 78.5147983279199
RANGE = 2016-10-12T08:51:00.000 168143032.6500767

ANGLE_1 = 2016-10-12T08:52:00.000 63.44944845969582
ANGLE_2 = 2016-10-12T08:52:00.000 78.70695458926376
RANGE = 2016-10-12T08:52:00.000 168143789.46162495

ANGLE_1 = 2016-10-12T08:53:00.000 62.831272214031216
ANGLE_2 = 2016-10-12T08:53:00.000 78.8984673878559
RANGE = 2016-10-12T08:53:00.000 168144546.34031376

ANGLE_1 = 2016-10-12T08:54:00.000 62.19294408716463
ANGLE_2 = 2016-10-12T08:54:00.000 79.08875531455664
RANGE = 2016-10-12T08:54:00.000 168145303.380351

ANGLE_1 = 2016-10-12T08:55:00.000 61.53422163613072
ANGLE_2 = 2016-10-12T08:55:00.000 79.27743302493657
RANGE = 2016-10-12T08:55:00.000 168146060.41130757

ANGLE_1 = 2016-10-12T08:56:00.000 60.854139129277065
ANGLE_2 = 2016-10-12T08:56:00.000 79.46540446812747
RANGE = 2016-10-12T08:56:00.000 168146817.6148897

ANGLE_1 = 2016-10-12T08:57:00.000 60.15169551039694
ANGLE_2 = 2016-10-12T08:57:00.000 79.65200647572722
RANGE = 2016-10-12T08:57:00.000 168147574.8736674

ANGLE_1 = 2016-10-12T08:58:00.000 59.42715260785716
ANGLE_2 = 2016-10-12T08:58:00.000 79.83704344480752
RANGE = 2016-10-12T08:58:00.000 168148332.2104997

ANGLE_1 = 2016-10-12T08:59:00.000 58.67735129658255
ANGLE_2 = 2016-10-12T08:59:00.000 80.02097435026498
RANGE = 2016-10-12T08:59:00.000 168149089.6273904

ANGLE_1 = 2016-10-12T09:00:00.000 57.90099139210919
ANGLE_2 = 2016-10-12T09:00:00.000 80.20294088885481
RANGE = 2016-10-12T09:00:00.000 168149847.1688091

ANGLE_1 = 2016-10-12T09:01:00.000 57.097690378056775
ANGLE_2 = 2016-10-12T09:01:00.000 80.38421095976959
RANGE = 2016-10-12T09:01:00.000 168150604.7952245

ANGLE_1 = 2016-10-12T09:02:00.000 56.266906381642485
ANGLE_2 = 2016-10-12T09:02:00.000 80.56340420203229
RANGE = 2016-10-12T09:02:00.000 168151362.54381704

ANGLE_1 = 2016-10-12T09:03:00.000 55.40635713543189
ANGLE_2 = 2016-10-12T09:03:00.000 80.7400442822105
RANGE = 2016-10-12T09:03:00.000 168152120.34500545

ANGLE_1 = 2016-10-12T09:04:00.000 54.51471331614527
ANGLE_2 = 2016-10-12T09:04:00.000 80.9157082215125
RANGE = 2016-10-12T09:04:00.000 168152878.22817248

ANGLE_1 = 2016-10-12T09:05:00.000 53.590451668710024
ANGLE_2 = 2016-10-12T09:05:00.000 81.08937400208507
RANGE = 2016-10-12T09:05:00.000 168153636.22214654

ANGLE_1 = 2016-10-12T09:06:00.000 52.632306289305426
ANGLE_2 = 2016-10-12T09:06:00.000 81.26106625169771
RANGE = 2016-10-12T09:06:00.000 168154394.32006964

ANGLE_1 = 2016-10-12T09:07:00.000 51.63789421017894
ANGLE_2 = 2016-10-12T09:07:00.000 81.42973754783763
RANGE = 2016-10-12T09:07:00.000 168155152.48266456

ANGLE_1 = 2016-10-12T09:08:00.000 50.60666110196563
ANGLE_2 = 2016-10-12T09:08:00.000 81.59626166740783
RANGE = 2016-10-12T09:08:00.000 168155910.7351946

ANGLE_1 = 2016-10-12T09:09:00.000 49.53695988803242
ANGLE_2 = 2016-10-12T09:09:00.000 81.7610779032605
RANGE = 2016-10-12T09:09:00.000 168156669.120008

ANGLE_1 = 2016-10-12T09:10:00.000 48.42710390060568
ANGLE_2 = 2016-10-12T09:10:00.000 81.92321415616047
RANGE = 2016-10-12T09:10:00.000 168157427.54225004

ANGLE_1 = 2016-10-12T09:11:00.000 47.27355745775207
ANGLE_2 = 2016-10-12T09:11:00.000 82.0815300835534
RANGE = 2016-10-12T09:11:00.000 168158186.0912223

ANGLE_1 = 2016-10-12T09:12:00.000 46.0754942625474
ANGLE_2 = 2016-10-12T09:12:00.000 82.23781672054284
RANGE = 2016-10-12T09:12:00.000 168158944.731456

ANGLE_1 = 2016-10-12T09:13:00.000 44.831516447185884
ANGLE_2 = 2016-10-12T09:13:00.000 82.39027643931426
RANGE = 2016-10-12T09:13:00.000 168159703.49429703

ANGLE_1 = 2016-10-12T09:14:00.000 43.53999721524719
ANGLE_2 = 2016-10-12T09:14:00.000 82.5398887378664
RANGE = 2016-10-12T09:14:00.000 168160462.27103743

ANGLE_1 = 2016-10-12T09:15:00.000 42.19915267957035
ANGLE_2 = 2016-10-12T09:15:00.000 82.68602282776956
RANGE = 2016-10-12T09:15:00.000 168161221.21585962

ANGLE_1 = 2016-10-12T09:16:00.000 40.806359846581074
ANGLE_2 = 2016-10-12T09:16:00.000 82.82757763414638
RANGE = 2016-10-12T09:16:00.000 168161980.19063076

ANGLE_1 = 2016-10-12T09:17:00.000 39.36086317848311
ANGLE_2 = 2016-10-12T09:17:00.000 82.96530484145364
RANGE = 2016-10-12T09:17:00.000 168162739.31347176

ANGLE_1 = 2016-10-12T09:18:00.000 37.86106883411222
ANGLE_2 = 2016-10-12T09:18:00.000 83.09901514059113
RANGE = 2016-10-12T09:18:00.000 168163498.49752837

ANGLE_1 = 2016-10-12T09:19:00.000 36.30472553708772
ANGLE_2 = 2016-10-12T09:19:00.000 83.22839351944263
RANGE = 2016-10-12T09:19:00.000 168164257.8073234

ANGLE_1 = 2016-10-12T09:20:00.000 34.69256136912343
ANGLE_2 = 2016-10-12T09:20:00.000 83.35323198542503
RANGE = 2016-10-12T09:20:00.000 168165017.17229262

ANGLE_1 = 2016-10-12T09:21:00.000 33.021256981918675
ANGLE_2 = 2016-10-12T09:21:00.000 83.4714724489063
RANGE = 2016-10-12T09:21:00.000 168165776.56332684

ANGLE_1 = 2016-10-12T09:22:00.000 31.291178078400606
ANGLE_2 = 2016-10-12T09:22:00.000 83.58615602336813
RANGE = 2016-10-12T09:22:00.000 168166536.15350544

ANGLE_1 = 2016-10-12T09:23:00.000 29.502972848696178
ANGLE_2 = 2016-10-12T09:23:00.000 83.69484419086454
RANGE = 2016-10-12T09:23:00.000 168167295.82279894

ANGLE_1 = 2016-10-12T09:24:00.000 27.655824278759837
ANGLE_2 = 2016-10-12T09:24:00.000 83.79734950169505
RANGE = 2016-10-12T09:24:00.000 168168055.5451816

ANGLE_1 = 2016-10-12T09:25:00.000 25.75019347614305
ANGLE_2 = 2016-10-12T09:25:00.000 83.89364770139332
RANGE = 2016-10-12T09:25:00.000 168168815.39638788

ANGLE_1 = 2016-10-12T09:26:00.000 23.787890857461
ANGLE_2 = 2016-10-12T09:26:00.000 83.98339839906048
RANGE = 2016-10-12T09:26:00.000 168169575.30815172

ANGLE_1 = 2016-10-12T09:27:00.000 21.770640021822125
ANGLE_2 = 2016-10-12T09:27:00.000 84.06625848229278
RANGE = 2016-10-12T09:27:00.000 168170335.3143247

ANGLE_1 = 2016-10-12T09:28:00.000 19.700033669857053
ANGLE_2 = 2016-10-12T09:28:00.000 84.14186228160276
RANGE = 2016-10-12T09:28:00.000 168171095.46393952

ANGLE_1 = 2016-10-12T09:29:00.000 17.578626212376125
ANGLE_2 = 2016-10-12T09:29:00.000 84.20979977354531
RANGE = 2016-10-12T09:29:00.000 168171855.65468517

ANGLE_1 = 2016-10-12T09:30:00.000 15.411095149326536
ANGLE_2 = 2016-10-12T09:30:00.000 84.27114206407292
RANGE = 2016-10-12T09:30:00.000 168172615.9443494

ANGLE_1 = 2016-10-12T09:31:00.000 13.202324604637827
ANGLE_2 = 2016-10-12T09:31:00.000 84.32429465846451
RANGE = 2016-10-12T09:31:00.000 168173376.35093883

ANGLE_1 = 2016-10-12T09:32:00.000 10.954978325573732
ANGLE_2 = 2016-10-12T09:32:00.000 84.36907840792821
RANGE = 2016-10-12T09:32:00.000 168174136.84686753

ANGLE_1 = 2016-10-12T09:33:00.000 8.676024387513257
ANGLE_2 = 2016-10-12T09:33:00.000 84.40536305592917
RANGE = 2016-10-12T09:33:00.000 168174897.39584365

ANGLE_1 = 2016-10-12T09:34:00.000 6.37196184919968
ANGLE_2 = 2016-10-12T09:34:00.000 84.43394214291659
RANGE = 2016-10-12T09:34:00.000 168175658.09165245

ANGLE_1 = 2016-10-12T09:35:00.000 4.0485469457231344
ANGLE_2 = 2016-10-12T09:35:00.000 84.4525838570967
RANGE = 2016-10-12T09:35:00.000 168176418.85487834

ANGLE_1 = 2016-10-12T09:36:00.000 1.7127970276307962
ANGLE_2 = 2016-10-12T09:36:00.000 84.46403449428966
RANGE = 2016-10-12T09:36:00.000 168177179.68714425

ANGLE_1 = 2016-10-12T09:37:00.000 359.371128011642
ANGLE_2 = 2016-10-12T09:37:00.000 84.46541088130917
RANGE = 2016-10-12T09:37:00.000 168177940.65746212

ANGLE_1 = 2016-10-12T09:38:00.000 357.03300624326926
ANGLE_2 = 2016-10-12T09:38:00.000 84.45915322331909
RANGE = 2016-10-12T09:38:00.000 168178701.7109465

ANGLE_1 = 2016-10-12T09:39:00.000 354.70271299470926
ANGLE_2 = 2016-10-12T09:39:00.000 84.44308167264113
RANGE = 2016-10-12T09:39:00.000 168179462.81320018

ANGLE_1 = 2016-10-12T09:40:00.000 352.389072700598
ANGLE_2 = 2016-10-12T09:40:00.000 84.41900704789171
RANGE = 2016-10-12T09:40:00.000 168180224.06707165

ANGLE_1 = 2016-10-12T09:41:00.000 350.0982498157946
ANGLE_2 = 2016-10-12T09:41:00.000 84.38651584528267
RANGE = 2016-10-12T09:41:00.000 168180985.3591878

ANGLE_1 = 2016-10-12T09:42:00.000 347.8367182241987
ANGLE_2 = 2016-10-12T09:42:00.000 84.3454997146967
RANGE = 2016-10-12T09:42:00.000 168181746.81600663

ANGLE_1 = 2016-10-12T09:43:00.000 345.6098564340253
ANGLE_2 = 2016-10-12T09:43:00.000 84.29665430018748
RANGE = 2016-10-12T09:43:00.000 168182508.26294708

ANGLE_1 = 2016-10-12T09:44:00.000 343.4225679933817
ANGLE_2 = 2016-10-12T09:44:00.000 84.23881144218251
RANGE = 2016-10-12T09:44:00.000 168183269.8645445

ANGLE_1 = 2016-10-12T09:45:00.000 341.28026880680073
ANGLE_2 = 2016-10-12T09:45:00.000 84.17343876817388
RANGE = 2016-10-12T09:45:00.000 168184031.56380805

ANGLE_1 = 2016-10-12T09:46:00.000 339.1871983470067
ANGLE_2 = 2016-10-12T09:46:00.000 84.10081529630158
RANGE = 2016-10-12T09:46:00.000 168184793.347905

ANGLE_1 = 2016-10-12T09:47:00.000 337.14563190824936
ANGLE_2 = 2016-10-12T09:47:00.000 84.0207088969542
RANGE = 2016-10-12T09:47:00.000 168185555.19201547

ANGLE_1 = 2016-10-12T09:48:00.000 335.1575825032238
ANGLE_2 = 2016-10-12T09:48:00.000 83.93366807728634
RANGE = 2016-10-12T09:48:00.000 168186317.21591997

ANGLE_1 = 2016-10-12T09:49:00.000 333.2273097367857
ANGLE_2 = 2016-10-12T09:49:00.000 83.84120563372466
RANGE = 2016-10-12T09:49:00.000 168187079.27351335

ANGLE_1 = 2016-10-12T09:50:00.000 331.3534634755054
ANGLE_2 = 2016-10-12T09:50:00.000 83.74083136276349
RANGE = 2016-10-12T09:50:00.000 168187841.3892755

ANGLE_1 = 2016-10-12T09:51:00.000 329.5389525407544
ANGLE_2 = 2016-10-12T09:51:00.000 83.63497470282118
RANGE = 2016-10-12T09:51:00.000 168188603.64408475

ANGLE_1 = 2016-10-12T09:52:00.000 327.7833592733922
ANGLE_2 = 2016-10-12T09:52:00.000 83.52426206599579
RANGE = 2016-10-12T09:52:00.000 168189365.979161

ANGLE_1 = 2016-10-12T09:53:00.000 326.0858788645196
ANGLE_2 = 2016-10-12T09:53:00.000 83.40635047804568
RANGE = 2016-10-12T09:53:00.000 168190128.40575135

ANGLE_1 = 2016-10-12T09:54:00.000 324.447395690307
ANGLE_2 = 2016-10-12T09:54:00.000 83.28434015334771
RANGE = 2016-10-12T09:54:00.000 168190890.93536535

ANGLE_1 = 2016-10-12T09:55:00.000 322.8652435496631
ANGLE_2 = 2016-10-12T09:55:00.000 83.15746303174427
RANGE = 2016-10-12T09:55:00.000 168191653.54316577

ANGLE_1 = 2016-10-12T09:56:00.000 321.3402964237322
ANGLE_2 = 2016-10-12T09:56:00.000 83.0261016926184
RANGE = 2016-10-12T09:56:00.000 168192416.26490527

ANGLE_1 = 2016-10-12T09:57:00.000 319.87175445945053
ANGLE_2 = 2016-10-12T09:57:00.000 82.8895942379232
RANGE = 2016-10-12T09:57:00.000 168193179.040378

ANGLE_1 = 2016-10-12T09:58:00.000 318.4555059726301
ANGLE_2 = 2016-10-12T09:58:00.000 82.74923717976992
RANGE = 2016-10-12T09:58:00.000 168193941.93241316

ANGLE_1 = 2016-10-12T09:59:00.000 317.09071774293403
ANGLE_2 = 2016-10-12T09:59:00.000 82.605438215255
RANGE = 2016-10-12T09:59:00.000 168194704.92412257

ANGLE_1 = 2016-10-12T10:00:00.000 315.77793501627866
ANGLE_2 = 2016-10-12T10:00:00.000 82.45745271695809
RANGE = 2016-10-12T10:00:00.000 168195467.98133302

ANGLE_1 = 2016-10-12T10:01:00.000 314.51212792088614
ANGLE_2 = 2016-10-12T10:01:00.000 82.30586037895836
RANGE = 2016-10-12T10:01:00.000 168196231.162549

ANGLE_1 = 2016-10-12T10:02:00.000 313.29470645441563
ANGLE_2 = 2016-10-12T10:02:00.000 82.15194976706688
RANGE = 2016-10-12T10:02:00.000 168196994.45172623

ANGLE_1 = 2016-10-12T10:03:00.000 312.12152498054076
ANGLE_2 = 2016-10-12T10:03:00.000 81.99397247366448
RANGE = 2016-10-12T10:03:00.000 168197757.76603428

ANGLE_1 = 2016-10-12T10:04:00.000 310.99207761729303
ANGLE_2 = 2016-10-12T10:04:00.000 81.83401981002352
RANGE = 2016-10-12T10:04:00.000 168198521.2133223

ANGLE_1 = 2016-10-12T10:05:00.000 309.90358742831734
ANGLE_2 = 2016-10-12T10:05:00.000 81.67055223674518
RANGE = 2016-10-12T10:05:00.000 168199284.75463754

ANGLE_1 = 2016-10-12T10:06:00.000 308.8557815919533
ANGLE_2 = 2016-10-12T10:06:00.000 81.50451956674972
RANGE = 2016-10-12T10:06:00.000 168200048.3918545

ANGLE_1 = 2016-10-12T10:07:00.000 307.8451904015774
ANGLE_2 = 2016-10-12T10:07:00.000 81.33699247073716
RANGE = 2016-10-12T10:07:00.000 168200812.11535603

ANGLE_1 = 2016-10-12T10:08:00.000 306.8714004657139
ANGLE_2 = 2016-10-12T10:08:00.000 81.16604724012281
RANGE = 2016-10-12T10:08:00.000 168201575.90916502

ANGLE_1 = 2016-10-12T10:09:00.000 305.931440764125
ANGLE_2 = 2016-10-12T10:09:00.000 80.99360987579931
RANGE = 2016-10-12T10:09:00.000 168202339.79781082

ANGLE_1 = 2016-10-12T10:10:00.000 305.0260560016195
ANGLE_2 = 2016-10-12T10:10:00.000 80.81862441996144
RANGE = 2016-10-12T10:10:00.000 168203103.81673095

ANGLE_1 = 2016-10-12T10:11:00.000 304.1517968710394
ANGLE_2 = 2016-10-12T10:11:00.000 80.64271093464997
RANGE = 2016-10-12T10:11:00.000 168203867.8897429

ANGLE_1 = 2016-10-12T10:12:00.000 303.3079244025666
ANGLE_2 = 2016-10-12T10:12:00.000 80.46377846136673
RANGE = 2016-10-12T10:12:00.000 168204632.098371

ANGLE_1 = 2016-10-12T10:13:00.000 302.49282785846924
ANGLE_2 = 2016-10-12T10:13:00.000 80.28372635998518
RANGE = 2016-10-12T10:13:00.000 168205396.3562525

ANGLE_1 = 2016-10-12T10:14:00.000 301.7050489680487
ANGLE_2 = 2016-10-12T10:14:00.000 80.10216779455368
RANGE = 2016-10-12T10:14:00.000 168206160.69733703

ANGLE_1 = 2016-10-12T10:15:00.000 300.94362608487614
ANGLE_2 = 2016-10-12T10:15:00.000 79.91889857640332
RANGE = 2016-10-12T10:15:00.000 168206925.1856984

ANGLE_1 = 2016-10-12T10:16:00.000 300.20717359954006
ANGLE_2 = 2016-10-12T10:16:00.000 79.73465352328958
RANGE = 2016-10-12T10:16:00.000 168207689.73054498

ANGLE_1 = 2016-10-12T10:17:00.000 299.4940789086993
ANGLE_2 = 2016-10-12T10:17:00.000 79.54776797923954
RANGE = 2016-10-12T10:17:00.000 168208454.36774004

ANGLE_1 = 2016-10-12T10:18:00.000 298.80478584302716
ANGLE_2 = 2016-10-12T10:18:00.000 79.36166450203493
RANGE = 2016-10-12T10:18:00.000 168209219.06759346

ANGLE_1 = 2016-10-12T10:19:00.000 298.13687638241197
ANGLE_2 = 2016-10-12T10:19:00.000 79.17279067257373
RANGE = 2016-10-12T10:19:00.000 168209983.86616376

ANGLE_1 = 2016-10-12T10:20:00.000 297.48930184534544
ANGLE_2 = 2016-10-12T10:20:00.000 78.98295137414632
RANGE = 2016-10-12T10:20:00.000 168210748.77595446

ANGLE_1 = 2016-10-12T10:21:00.000 296.8627692773551
ANGLE_2 = 2016-10-12T10:21:00.000 78.79263682618453
RANGE = 2016-10-12T10:21:00.000 168211513.7945795

ANGLE_1 = 2016-10-12T10:22:00.000 296.25449366126617
ANGLE_2 = 2016-10-12T10:22:00.000 78.60079354833111
RANGE = 2016-10-12T10:22:00.000 168212278.87500092

ANGLE_1 = 2016-10-12T10:23:00.000 295.6644402543518
ANGLE_2 = 2016-10-12T10:23:00.000 78.4077211072714
RANGE = 2016-10-12T10:23:00.000 168213044.07806656

ANGLE_1 = 2016-10-12T10:24:00.000 295.09103343198984
