2nd Assignment - Navigation/tdm/NEW_NORCIA_EXM_20161014T041041_20161014T145753.tdm

CCSDS_TDM_VERS = 2.0

COMMENT This TDM contains synthetic data, not from real observations

CREATION_DATE = 2021-11-26T14:48:46.631788
ORIGINATOR = POLIMI-DAER

META_START
TIME_SYSTEM = UTC
START_TIME = 2016-10-14T04:10:41.957
STOP_TIME = 2016-10-14T14:57:53.123
PARTICIPANT_1 = NEW_NORCIA
PARTICIPANT_2 = EXM
MODE = SEQUENTIAL
PATH = 1,2,1
RANGE_UNITS = km
ANGLE_TYPE = AZEL
META_STOP

DATA_START

ANGLE_1 = 2016-10-14T04:10:41.957 108.19252386082009
ANGLE_2 = 2016-10-14T04:10:41.957 19.999902614940797
RANGE = 2016-10-14T04:10:41.957 170120592.99030355

ANGLE_1 = 2016-10-14T04:11:00.000 108.16075257711034
ANGLE_2 = 2016-10-14T04:11:00.000 20.06121276011395
RANGE = 2016-10-14T04:11:00.000 170120814.29359522

ANGLE_1 = 2016-10-14T04:12:00.000 108.05622308919214
ANGLE_2 = 2016-10-14T04:12:00.000 20.265412023147405
RANGE = 2016-10-14T04:12:00.000 170121550.15816694

ANGLE_1 = 2016-10-14T04:13:00.000 107.95205341507895
ANGLE_2 = 2016-10-14T04:13:00.000 20.468953628553212
RANGE = 2016-10-14T04:13:00.000 170122286.02811465

ANGLE_1 = 2016-10-14T04:14:00.000 107.846727257653
ANGLE_2 = 2016-10-14T04:14:00.000 20.672543591674025
RANGE = 2016-10-14T04:14:00.000 170123021.97653452

ANGLE_1 = 2016-10-14T04:15:00.000 107.74330327808072
ANGLE_2 = 2016-10-14T04:15:00.000 20.876962254779922
RANGE = 2016-10-14T04:15:00.000 170123757.86049628

ANGLE_1 = 2016-10-14T04:16:00.000 107.63904279103274
ANGLE_2 = 2016-10-14T04:16:00.000 21.080586400732255
RANGE = 2016-10-14T04:16:00.000 170124493.80283025

ANGLE_1 = 2016-10-14T04:17:00.000 107.53485683329443
ANGLE_2 = 2016-10-14T04:17:00.000 21.28549926307221
RANGE = 2016-10-14T04:17:00.000 170125229.74164408

ANGLE_1 = 2016-10-14T04:18:00.000 107.43000589518637
ANGLE_2 = 2016-10-14T04:18:00.000 21.48978158885303
RANGE = 2016-10-14T04:18:00.000 170125965.7197777

ANGLE_1 = 2016-10-14T04:19:00.000 107.3274669127242
ANGLE_2 = 2016-10-14T04:19:00.000 21.694466538954917
RANGE = 2016-10-14T04:19:00.000 170126701.71201277

ANGLE_1 = 2016-10-14T04:20:00.000 107.22413192983636
ANGLE_2 = 2016-10-14T04:20:00.000 21.898910471996977
RANGE = 2016-10-14T04:20:00.000 170127437.71810547

ANGLE_1 = 2016-10-14T04:21:00.000 107.12012388061106
ANGLE_2 = 2016-10-14T04:21:00.000 22.103882437252942
RANGE = 2016-10-14T04:21:00.000 170128173.72263718

ANGLE_1 = 2016-10-14T04:22:00.000 107.01732015271985
ANGLE_2 = 2016-10-14T04:22:00.000 22.30888774634003
RANGE = 2016-10-14T04:22:00.000 170128909.78032824

ANGLE_1 = 2016-10-14T04:23:00.000 106.91307353433149
ANGLE_2 = 2016-10-14T04:23:00.000 22.51324977608159
RANGE = 2016-10-14T04:23:00.000 170129645.82845342

ANGLE_1 = 2016-10-14T04:24:00.000 106.80989641426875
ANGLE_2 = 2016-10-14T04:24:00.000 22.71889735455902
RANGE = 2016-10-14T04:24:00.000 170130381.89369965

ANGLE_1 = 2016-10-14T04:25:00.000 106.7078191473004
ANGLE_2 = 2016-10-14T04:25:00.000 22.924032834927196
RANGE = 2016-10-14T04:25:00.000 170131117.98625994

ANGLE_1 = 2016-10-14T04:26:00.000 106.60350104099408
ANGLE_2 = 2016-10-14T04:26:00.000 23.129432673631687
RANGE = 2016-10-14T04:26:00.000 170131854.07764357

ANGLE_1 = 2016-10-14T04:27:00.000 106.50051347142436
ANGLE_2 = 2016-10-14T04:27:00.000 23.334983926540936
RANGE = 2016-10-14T04:27:00.000 170132590.20670182

ANGLE_1 = 2016-10-14T04:28:00.000 106.39887908508858
ANGLE_2 = 2016-10-14T04:28:00.000 23.540349311336083
RANGE = 2016-10-14T04:28:00.000 170133326.38397616

ANGLE_1 = 2016-10-14T04:29:00.000 106.29578660762208
ANGLE_2 = 2016-10-14T04:29:00.000 23.74560970928711
RANGE = 2016-10-14T04:29:00.000 170134062.54262525

ANGLE_1 = 2016-10-14T04:30:00.000 106.19293525693482
ANGLE_2 = 2016-10-14T04:30:00.000 23.951456542476265
RANGE = 2016-10-14T04:30:00.000 170134798.74751154

ANGLE_1 = 2016-10-14T04:31:00.000 106.08972374700708
ANGLE_2 = 2016-10-14T04:31:00.000 24.157568779693577
RANGE = 2016-10-14T04:31:00.000 170135534.95805532

ANGLE_1 = 2016-10-14T04:32:00.000 105.98808858583433
ANGLE_2 = 2016-10-14T04:32:00.000 24.363465985444407
RANGE = 2016-10-14T04:32:00.000 170136271.16555986

ANGLE_1 = 2016-10-14T04:33:00.000 105.88602047024813
ANGLE_2 = 2016-10-14T04:33:00.000 24.56969259837378
RANGE = 2016-10-14T04:33:00.000 170137007.41030893

ANGLE_1 = 2016-10-14T04:34:00.000 105.78256537793884
ANGLE_2 = 2016-10-14T04:34:00.000 24.775595071671077
RANGE = 2016-10-14T04:34:00.000 170137743.7297434

ANGLE_1 = 2016-10-14T04:35:00.000 105.6814659897841
ANGLE_2 = 2016-10-14T04:35:00.000 24.982896833048112
RANGE = 2016-10-14T04:35:00.000 170138480.01649794

ANGLE_1 = 2016-10-14T04:36:00.000 105.57941029788076
ANGLE_2 = 2016-10-14T04:36:00.000 25.18875581089512
RANGE = 2016-10-14T04:36:00.000 170139216.298605

ANGLE_1 = 2016-10-14T04:37:00.000 105.47686213757967
ANGLE_2 = 2016-10-14T04:37:00.000 25.39499283685109
RANGE = 2016-10-14T04:37:00.000 170139952.6401207

ANGLE_1 = 2016-10-14T04:38:00.000 105.37538822347419
ANGLE_2 = 2016-10-14T04:38:00.000 25.601807768660656
RANGE = 2016-10-14T04:38:00.000 170140689.0271183

ANGLE_1 = 2016-10-14T04:39:00.000 105.2739061582198
ANGLE_2 = 2016-10-14T04:39:00.000 25.808271392057325
RANGE = 2016-10-14T04:39:00.000 170141425.3913814

ANGLE_1 = 2016-10-14T04:40:00.000 105.1725675181672
ANGLE_2 = 2016-10-14T04:40:00.000 26.015289583283586
RANGE = 2016-10-14T04:40:00.000 170142161.80607036

ANGLE_1 = 2016-10-14T04:41:00.000 105.07010302545198
ANGLE_2 = 2016-10-14T04:41:00.000 26.22248354812439
RANGE = 2016-10-14T04:41:00.000 170142898.28749934

ANGLE_1 = 2016-10-14T04:42:00.000 104.96799501785584
ANGLE_2 = 2016-10-14T04:42:00.000 26.428682542313798
RANGE = 2016-10-14T04:42:00.000 170143634.73882198

ANGLE_1 = 2016-10-14T04:43:00.000 104.86674329521789
ANGLE_2 = 2016-10-14T04:43:00.000 26.636508476996344
RANGE = 2016-10-14T04:43:00.000 170144371.20926037

ANGLE_1 = 2016-10-14T04:44:00.000 104.76521483917108
ANGLE_2 = 2016-10-14T04:44:00.000 26.843809244233693
RANGE = 2016-10-14T04:44:00.000 170145107.76519248

ANGLE_1 = 2016-10-14T04:45:00.000 104.66372643465405
ANGLE_2 = 2016-10-14T04:45:00.000 27.05093238815932
RANGE = 2016-10-14T04:45:00.000 170145844.33336374

ANGLE_1 = 2016-10-14T04:46:00.000 104.56206813018535
ANGLE_2 = 2016-10-14T04:46:00.000 27.258341050444596
RANGE = 2016-10-14T04:46:00.000 170146580.88598308

ANGLE_1 = 2016-10-14T04:47:00.000 104.46155067286439
ANGLE_2 = 2016-10-14T04:47:00.000 27.46626520501845
RANGE = 2016-10-14T04:47:00.000 170147317.46845025

ANGLE_1 = 2016-10-14T04:48:00.000 104.3603037499871
ANGLE_2 = 2016-10-14T04:48:00.000 27.673571655887148
RANGE = 2016-10-14T04:48:00.000 170148054.0777315

ANGLE_1 = 2016-10-14T04:49:00.000 104.25882811639818
ANGLE_2 = 2016-10-14T04:49:00.000 27.881213344701873
RANGE = 2016-10-14T04:49:00.000 170148790.77588055

ANGLE_1 = 2016-10-14T04:50:00.000 104.1573959826901
ANGLE_2 = 2016-10-14T04:50:00.000 28.088739997203568
RANGE = 2016-10-14T04:50:00.000 170149527.44343513

ANGLE_1 = 2016-10-14T04:51:00.000 104.05613490556779
ANGLE_2 = 2016-10-14T04:51:00.000 28.2966864300189
RANGE = 2016-10-14T04:51:00.000 170150264.16805714

ANGLE_1 = 2016-10-14T04:52:00.000 103.95502050411326
ANGLE_2 = 2016-10-14T04:52:00.000 28.50454001990228
RANGE = 2016-10-14T04:52:00.000 170151000.91377756

ANGLE_1 = 2016-10-14T04:53:00.000 103.85404458175336
ANGLE_2 = 2016-10-14T04:53:00.000 28.712390061325955
RANGE = 2016-10-14T04:53:00.000 170151737.69352943

ANGLE_1 = 2016-10-14T04:54:00.000 103.75349337717984
ANGLE_2 = 2016-10-14T04:54:00.000 28.920804790161036
RANGE = 2016-10-14T04:54:00.000 170152474.49064162

ANGLE_1 = 2016-10-14T04:55:00.000 103.6522753426726
ANGLE_2 = 2016-10-14T04:55:00.000 29.129059400398706
RANGE = 2016-10-14T04:55:00.000 170153211.3355696

ANGLE_1 = 2016-10-14T04:56:00.000 103.5514091160811
ANGLE_2 = 2016-10-14T04:56:00.000 29.337369265400607
RANGE = 2016-10-14T04:56:00.000 170153948.19887435

ANGLE_1 = 2016-10-14T04:57:00.000 103.45069671872638
ANGLE_2 = 2016-10-14T04:57:00.000 29.546088521504654
RANGE = 2016-10-14T04:57:00.000 170154685.09375012

ANGLE_1 = 2016-10-14T04:58:00.000 103.349924335394
ANGLE_2 = 2016-10-14T04:58:00.000 29.754284991303894
RANGE = 2016-10-14T04:58:00.000 170155421.97478878

ANGLE_1 = 2016-10-14T04:59:00.000 103.24890900377729
ANGLE_2 = 2016-10-14T04:59:00.000 29.962910801094537
RANGE = 2016-10-14T04:59:00.000 170156158.95992544

ANGLE_1 = 2016-10-14T05:00:00.000 103.14854680336121
ANGLE_2 = 2016-10-14T05:00:00.000 30.171970604904555
RANGE = 2016-10-14T05:00:00.000 170156895.94382656

ANGLE_1 = 2016-10-14T05:01:00.000 103.04727003121238
ANGLE_2 = 2016-10-14T05:01:00.000 30.38024678943227
RANGE = 2016-10-14T05:01:00.000 170157632.9854639

ANGLE_1 = 2016-10-14T05:02:00.000 102.94650187637724
ANGLE_2 = 2016-10-14T05:02:00.000 30.589253939739645
RANGE = 2016-10-14T05:02:00.000 170158370.0261326

ANGLE_1 = 2016-10-14T05:03:00.000 102.8458056882795
ANGLE_2 = 2016-10-14T05:03:00.000 30.7976262775524
RANGE = 2016-10-14T05:03:00.000 170159107.14802495

ANGLE_1 = 2016-10-14T05:04:00.000 102.7453795415038
ANGLE_2 = 2016-10-14T05:04:00.000 31.006637368065242
RANGE = 2016-10-14T05:04:00.000 170159844.26453647

ANGLE_1 = 2016-10-14T05:05:00.000 102.64402641889362
ANGLE_2 = 2016-10-14T05:05:00.000 31.216090960971833
RANGE = 2016-10-14T05:05:00.000 170160581.41760835

ANGLE_1 = 2016-10-14T05:06:00.000 102.54411726856726
ANGLE_2 = 2016-10-14T05:06:00.000 31.425802196362323
RANGE = 2016-10-14T05:06:00.000 170161318.6207732

ANGLE_1 = 2016-10-14T05:07:00.000 102.4429147821382
ANGLE_2 = 2016-10-14T05:07:00.000 31.634463679926274
RANGE = 2016-10-14T05:07:00.000 170162055.83499336

ANGLE_1 = 2016-10-14T05:08:00.000 102.34173723910983
ANGLE_2 = 2016-10-14T05:08:00.000 31.843402768718363
RANGE = 2016-10-14T05:08:00.000 170162793.14062372

ANGLE_1 = 2016-10-14T05:09:00.000 102.24182011852243
ANGLE_2 = 2016-10-14T05:09:00.000 32.05340869905871
RANGE = 2016-10-14T05:09:00.000 170163530.42827934

ANGLE_1 = 2016-10-14T05:10:00.000 102.14081004269525
ANGLE_2 = 2016-10-14T05:10:00.000 32.26303855753811
RANGE = 2016-10-14T05:10:00.000 170164267.77305678

ANGLE_1 = 2016-10-14T05:11:00.000 102.04100533580412
ANGLE_2 = 2016-10-14T05:11:00.000 32.47259785505395
RANGE = 2016-10-14T05:11:00.000 170165005.11825606

ANGLE_1 = 2016-10-14T05:12:00.000 101.93975292496721
ANGLE_2 = 2016-10-14T05:12:00.000 32.682122772371486
RANGE = 2016-10-14T05:12:00.000 170165742.5240556

ANGLE_1 = 2016-10-14T05:13:00.000 101.83893452594909
ANGLE_2 = 2016-10-14T05:13:00.000 32.892005757907434
RANGE = 2016-10-14T05:13:00.000 170166479.98842797

ANGLE_1 = 2016-10-14T05:14:00.000 101.73832535647743
ANGLE_2 = 2016-10-14T05:14:00.000 33.102124723867746
RANGE = 2016-10-14T05:14:00.000 170167217.4391256

ANGLE_1 = 2016-10-14T05:15:00.000 101.63739545031511
ANGLE_2 = 2016-10-14T05:15:00.000 33.311450007681536
RANGE = 2016-10-14T05:15:00.000 170167954.97657135

ANGLE_1 = 2016-10-14T05:16:00.000 101.53707043021274
ANGLE_2 = 2016-10-14T05:16:00.000 33.521235521530095
RANGE = 2016-10-14T05:16:00.000 170168692.56799346

ANGLE_1 = 2016-10-14T05:17:00.000 101.43678755243329
ANGLE_2 = 2016-10-14T05:17:00.000 33.731314945872086
RANGE = 2016-10-14T05:17:00.000 170169430.1588325

ANGLE_1 = 2016-10-14T05:18:00.000 101.33484799907555
ANGLE_2 = 2016-10-14T05:18:00.000 33.94164316830071
RANGE = 2016-10-14T05:18:00.000 170170167.7867773

ANGLE_1 = 2016-10-14T05:19:00.000 101.23467487537303
ANGLE_2 = 2016-10-14T05:19:00.000 34.15183005476162
RANGE = 2016-10-14T05:19:00.000 170170905.45727304

ANGLE_1 = 2016-10-14T05:20:00.000 101.13366298498326
ANGLE_2 = 2016-10-14T05:20:00.000 34.362272842659635
RANGE = 2016-10-14T05:20:00.000 170171643.20531848

ANGLE_1 = 2016-10-14T05:21:00.000 101.03259606343322
ANGLE_2 = 2016-10-14T05:21:00.000 34.57269639884435
RANGE = 2016-10-14T05:21:00.000 170172380.95015955

ANGLE_1 = 2016-10-14T05:22:00.000 100.93201352731674
ANGLE_2 = 2016-10-14T05:22:00.000 34.782984823878536
RANGE = 2016-10-14T05:22:00.000 170173118.75792608

ANGLE_1 = 2016-10-14T05:23:00.000 100.83097921317761
ANGLE_2 = 2016-10-14T05:23:00.000 34.992955028004396
RANGE = 2016-10-14T05:23:00.000 170173856.63064876

ANGLE_1 = 2016-10-14T05:24:00.000 100.73020987627494
ANGLE_2 = 2016-10-14T05:24:00.000 35.20411969348538
RANGE = 2016-10-14T05:24:00.000 170174594.48160335

ANGLE_1 = 2016-10-14T05:25:00.000 100.62977975099973
ANGLE_2 = 2016-10-14T05:25:00.000 35.41501230481329
RANGE = 2016-10-14T05:25:00.000 170175332.42113855

ANGLE_1 = 2016-10-14T05:26:00.000 100.52849332249058
ANGLE_2 = 2016-10-14T05:26:00.000 35.62491979604548
RANGE = 2016-10-14T05:26:00.000 170176070.38787976

ANGLE_1 = 2016-10-14T05:27:00.000 100.42683215344952
ANGLE_2 = 2016-10-14T05:27:00.000 35.83595321825689
RANGE = 2016-10-14T05:27:00.000 170176808.37411553

ANGLE_1 = 2016-10-14T05:28:00.000 100.32564961301422
ANGLE_2 = 2016-10-14T05:28:00.000 36.04698693457166
RANGE = 2016-10-14T05:28:00.000 170177546.43659827

ANGLE_1 = 2016-10-14T05:29:00.000 100.22477168494137
ANGLE_2 = 2016-10-14T05:29:00.000 36.25772282553742
RANGE = 2016-10-14T05:29:00.000 170178284.55218467

ANGLE_1 = 2016-10-14T05:30:00.000 100.12347410265318
ANGLE_2 = 2016-10-14T05:30:00.000 36.46893265813453
RANGE = 2016-10-14T05:30:00.000 170179022.67982182

ANGLE_1 = 2016-10-14T05:31:00.000 100.02210895129633
ANGLE_2 = 2016-10-14T05:31:00.000 36.679600940745544
RANGE = 2016-10-14T05:31:00.000 170179760.8411319

ANGLE_1 = 2016-10-14T05:32:00.000 99.92071274178925
ANGLE_2 = 2016-10-14T05:32:00.000 36.89081650498088
RANGE = 2016-10-14T05:32:00.000 170180499.09965745

ANGLE_1 = 2016-10-14T05:33:00.000 99.81923773985065
ANGLE_2 = 2016-10-14T05:33:00.000 37.101770546732496
RANGE = 2016-10-14T05:33:00.000 170181237.407353

ANGLE_1 = 2016-10-14T05:34:00.000 99.7179592911264
ANGLE_2 = 2016-10-14T05:34:00.000 37.3132043367262
RANGE = 2016-10-14T05:34:00.000 170181975.68410853

ANGLE_1 = 2016-10-14T05:35:00.000 99.6164363344898
ANGLE_2 = 2016-10-14T05:35:00.000 37.524513583831585
RANGE = 2016-10-14T05:35:00.000 170182714.0979275

ANGLE_1 = 2016-10-14T05:36:00.000 99.5143029023371
ANGLE_2 = 2016-10-14T05:36:00.000 37.73597943428315
RANGE = 2016-10-14T05:36:00.000 170183452.44000855

ANGLE_1 = 2016-10-14T05:37:00.000 99.41332419567013
ANGLE_2 = 2016-10-14T05:37:00.000 37.94762679605208
RANGE = 2016-10-14T05:37:00.000 170184190.935058

ANGLE_1 = 2016-10-14T05:38:00.000 99.3109386066139
ANGLE_2 = 2016-10-14T05:38:00.000 38.15855759804179
RANGE = 2016-10-14T05:38:00.000 170184929.4186013

ANGLE_1 = 2016-10-14T05:39:00.000 99.20877351837332
ANGLE_2 = 2016-10-14T05:39:00.000 38.37037048742883
RANGE = 2016-10-14T05:39:00.000 170185667.9483943

ANGLE_1 = 2016-10-14T05:40:00.000 99.10688149818886
ANGLE_2 = 2016-10-14T05:40:00.000 38.58195428498911
RANGE = 2016-10-14T05:40:00.000 170186406.51727116

ANGLE_1 = 2016-10-14T05:41:00.000 99.00483773345026
ANGLE_2 = 2016-10-14T05:41:00.000 38.79389770778237
RANGE = 2016-10-14T05:41:00.000 170187145.20796728

ANGLE_1 = 2016-10-14T05:42:00.000 98.9021387424067
ANGLE_2 = 2016-10-14T05:42:00.000 39.00554899906263
RANGE = 2016-10-14T05:42:00.000 170187883.9295799

ANGLE_1 = 2016-10-14T05:43:00.000 98.79988369089558
ANGLE_2 = 2016-10-14T05:43:00.000 39.21760952693011
RANGE = 2016-10-14T05:43:00.000 170188622.60188484

ANGLE_1 = 2016-10-14T05:44:00.000 98.69863968365078
ANGLE_2 = 2016-10-14T05:44:00.000 39.428961063877466
RANGE = 2016-10-14T05:44:00.000 170189361.41613948

ANGLE_1 = 2016-10-14T05:45:00.000 98.59504892964674
ANGLE_2 = 2016-10-14T05:45:00.000 39.64109419021873
RANGE = 2016-10-14T05:45:00.000 170190100.28925982

ANGLE_1 = 2016-10-14T05:46:00.000 98.49311993133891
ANGLE_2 = 2016-10-14T05:46:00.000 39.85289004511438
RANGE = 2016-10-14T05:46:00.000 170190839.13853648

ANGLE_1 = 2016-10-14T05:47:00.000 98.38982753630299
ANGLE_2 = 2016-10-14T05:47:00.000 40.06499291334124
RANGE = 2016-10-14T05:47:00.000 170191578.10346574

ANGLE_1 = 2016-10-14T05:48:00.000 98.28673443890108
ANGLE_2 = 2016-10-14T05:48:00.000 40.27667909778591
RANGE = 2016-10-14T05:48:00.000 170192317.06455356

ANGLE_1 = 2016-10-14T05:49:00.000 98.18412200109269
ANGLE_2 = 2016-10-14T05:49:00.000 40.48902387734791
RANGE = 2016-10-14T05:49:00.000 170193056.06624407

ANGLE_1 = 2016-10-14T05:50:00.000 98.08086185838697
ANGLE_2 = 2016-10-14T05:50:00.000 40.70175520807465
RANGE = 2016-10-14T05:50:00.000 170193795.20605275

ANGLE_1 = 2016-10-14T05:51:00.000 97.97811486576946
ANGLE_2 = 2016-10-14T05:51:00.000 40.913503257387696
RANGE = 2016-10-14T05:51:00.000 170194534.32613552

ANGLE_1 = 2016-10-14T05:52:00.000 97.8741257290524
ANGLE_2 = 2016-10-14T05:52:00.000 41.12553509676384
RANGE = 2016-10-14T05:52:00.000 170195273.53614187

ANGLE_1 = 2016-10-14T05:53:00.000 97.77081638475826
ANGLE_2 = 2016-10-14T05:53:00.000 41.33817829627061
RANGE = 2016-10-14T05:53:00.000 170196012.75199312

ANGLE_1 = 2016-10-14T05:54:00.000 97.66695041074583
ANGLE_2 = 2016-10-14T05:54:00.000 41.55007533125296
RANGE = 2016-10-14T05:54:00.000 170196752.0567772

ANGLE_1 = 2016-10-14T05:55:00.000 97.56335245365506
ANGLE_2 = 2016-10-14T05:55:00.000 41.763230580678226
RANGE = 2016-10-14T05:55:00.000 170197491.43221888

ANGLE_1 = 2016-10-14T05:56:00.000 97.458605533593
ANGLE_2 = 2016-10-14T05:56:00.000 41.9750578973602
RANGE = 2016-10-14T05:56:00.000 170198230.7921508

ANGLE_1 = 2016-10-14T05:57:00.000 97.35441252948236
ANGLE_2 = 2016-10-14T05:57:00.000 42.187874343169966
RANGE = 2016-10-14T05:57:00.000 170198970.2604586

ANGLE_1 = 2016-10-14T05:58:00.000 97.25043110895928
ANGLE_2 = 2016-10-14T05:58:00.000 42.40078463267364
RANGE = 2016-10-14T05:58:00.000 170199709.79014888

ANGLE_1 = 2016-10-14T05:59:00.000 97.14539774730933
ANGLE_2 = 2016-10-14T05:59:00.000 42.613451970945746
RANGE = 2016-10-14T05:59:00.000 170200449.34348574

ANGLE_1 = 2016-10-14T06:00:00.000 97.04122109783383
ANGLE_2 = 2016-10-14T06:00:00.000 42.82620984174032
RANGE = 2016-10-14T06:00:00.000 170201188.93153426

ANGLE_1 = 2016-10-14T06:01:00.000 96.93658662015238
ANGLE_2 = 2016-10-14T06:01:00.000 43.03832120978526
RANGE = 2016-10-14T06:01:00.000 170201928.59305087

ANGLE_1 = 2016-10-14T06:02:00.000 96.8307207286977
ANGLE_2 = 2016-10-14T06:02:00.000 43.25174609539268
RANGE = 2016-10-14T06:02:00.000 170202668.34301323

ANGLE_1 = 2016-10-14T06:03:00.000 96.72548133431533
ANGLE_2 = 2016-10-14T06:03:00.000 43.46418325077756
RANGE = 2016-10-14T06:03:00.000 170203408.07297087

ANGLE_1 = 2016-10-14T06:04:00.000 96.62063744944298
ANGLE_2 = 2016-10-14T06:04:00.000 43.67732442354331
RANGE = 2016-10-14T06:04:00.000 170204147.94908136

ANGLE_1 = 2016-10-14T06:05:00.000 96.514344292473
ANGLE_2 = 2016-10-14T06:05:00.000 43.88996382906073
RANGE = 2016-10-14T06:05:00.000 170204887.80975297

ANGLE_1 = 2016-10-14T06:06:00.000 96.40903511205804
ANGLE_2 = 2016-10-14T06:06:00.000 44.10327939150407
RANGE = 2016-10-14T06:06:00.000 170205627.72771338

ANGLE_1 = 2016-10-14T06:07:00.000 96.30285069362589
ANGLE_2 = 2016-10-14T06:07:00.000 44.316539597320954
RANGE = 2016-10-14T06:07:00.000 170206367.76831722

ANGLE_1 = 2016-10-14T06:08:00.000 96.1965258436658
ANGLE_2 = 2016-10-14T06:08:00.000 44.529382284951105
RANGE = 2016-10-14T06:08:00.000 170207107.80357823

ANGLE_1 = 2016-10-14T06:09:00.000 96.09047517983804
ANGLE_2 = 2016-10-14T06:09:00.000 44.74275508708201
RANGE = 2016-10-14T06:09:00.000 170207847.92314526

ANGLE_1 = 2016-10-14T06:10:00.000 95.9838796258699
ANGLE_2 = 2016-10-14T06:10:00.000 44.95536926839269
RANGE = 2016-10-14T06:10:00.000 170208588.1101948

ANGLE_1 = 2016-10-14T06:11:00.000 95.87695486352798
ANGLE_2 = 2016-10-14T06:11:00.000 45.16878090185336
RANGE = 2016-10-14T06:11:00.000 170209328.33621347

ANGLE_1 = 2016-10-14T06:12:00.000 95.76956080167365
ANGLE_2 = 2016-10-14T06:12:00.000 45.381730791155704
RANGE = 2016-10-14T06:12:00.000 170210068.61638013

ANGLE_1 = 2016-10-14T06:13:00.000 95.66146610626257
ANGLE_2 = 2016-10-14T06:13:00.000 45.59491515711531
RANGE = 2016-10-14T06:13:00.000 170210808.98375446

ANGLE_1 = 2016-10-14T06:14:00.000 95.55411960276436
ANGLE_2 = 2016-10-14T06:14:00.000 45.80890385989169
RANGE = 2016-10-14T06:14:00.000 170211549.3463548

ANGLE_1 = 2016-10-14T06:15:00.000 95.44629850509158
ANGLE_2 = 2016-10-14T06:15:00.000 46.021784551821234
RANGE = 2016-10-14T06:15:00.000 170212289.84714139

ANGLE_1 = 2016-10-14T06:16:00.000 95.33811900565965
ANGLE_2 = 2016-10-14T06:16:00.000 46.23479344213908
RANGE = 2016-10-14T06:16:00.000 170213030.33243984

ANGLE_1 = 2016-10-14T06:17:00.000 95.22957731288157
ANGLE_2 = 2016-10-14T06:17:00.000 46.44876999115623
RANGE = 2016-10-14T06:17:00.000 170213770.9503842

ANGLE_1 = 2016-10-14T06:18:00.000 95.12056270389543
ANGLE_2 = 2016-10-14T06:18:00.000 46.66233481033905
RANGE = 2016-10-14T06:18:00.000 170214511.5780289

ANGLE_1 = 2016-10-14T06:19:00.000 95.01165860490273
ANGLE_2 = 2016-10-14T06:19:00.000 46.875591630428
RANGE = 2016-10-14T06:19:00.000 170215252.26212904

ANGLE_1 = 2016-10-14T06:20:00.000 94.90282318115987
ANGLE_2 = 2016-10-14T06:20:00.000 47.08996805373909
RANGE = 2016-10-14T06:20:00.000 170215993.04043052

ANGLE_1 = 2016-10-14T06:21:00.000 94.7930740066462
ANGLE_2 = 2016-10-14T06:21:00.000 47.302473270617035
RANGE = 2016-10-14T06:21:00.000 170216733.85067162

ANGLE_1 = 2016-10-14T06:22:00.000 94.68331503864474
ANGLE_2 = 2016-10-14T06:22:00.000 47.516171248018466
RANGE = 2016-10-14T06:22:00.000 170217474.72859937

ANGLE_1 = 2016-10-14T06:23:00.000 94.57286354517898
ANGLE_2 = 2016-10-14T06:23:00.000 47.72992815563512
RANGE = 2016-10-14T06:23:00.000 170218215.67973396

ANGLE_1 = 2016-10-14T06:24:00.000 94.46245027995926
ANGLE_2 = 2016-10-14T06:24:00.000 47.94377888009827
RANGE = 2016-10-14T06:24:00.000 170218956.7129591

ANGLE_1 = 2016-10-14T06:25:00.000 94.35148452666427
ANGLE_2 = 2016-10-14T06:25:00.000 48.15718022858678
RANGE = 2016-10-14T06:25:00.000 170219697.7748693

ANGLE_1 = 2016-10-14T06:26:00.000 94.24062574368676
ANGLE_2 = 2016-10-14T06:26:00.000 48.37127480003337
RANGE = 2016-10-14T06:26:00.000 170220438.91868356

ANGLE_1 = 2016-10-14T06:27:00.000 94.12954514317065
ANGLE_2 = 2016-10-14T06:27:00.000 48.584787595060284
RANGE = 2016-10-14T06:27:00.000 170221180.10373068

ANGLE_1 = 2016-10-14T06:28:00.000 94.01710254868469
ANGLE_2 = 2016-10-14T06:28:00.000 48.798619766301755
RANGE = 2016-10-14T06:28:00.000 170221921.3401044

ANGLE_1 = 2016-10-14T06:29:00.000 93.90479352234856
ANGLE_2 = 2016-10-14T06:29:00.000 49.0126313443616
RANGE = 2016-10-14T06:29:00.000 170222662.63933477

ANGLE_1 = 2016-10-14T06:30:00.000 93.79246004430279
ANGLE_2 = 2016-10-14T06:30:00.000 49.226530369083484
RANGE = 2016-10-14T06:30:00.000 170223404.03820872

ANGLE_1 = 2016-10-14T06:31:00.000 93.67963878795845
ANGLE_2 = 2016-10-14T06:31:00.000 49.44037881500873
RANGE = 2016-10-14T06:31:00.000 170224145.5128826

ANGLE_1 = 2016-10-14T06:32:00.000 93.56597748521396
ANGLE_2 = 2016-10-14T06:32:00.000 49.653864514770234
RANGE = 2016-10-14T06:32:00.000 170224886.9994209

ANGLE_1 = 2016-10-14T06:33:00.000 93.45255096912052
ANGLE_2 = 2016-10-14T06:33:00.000 49.86832061560581
RANGE = 2016-10-14T06:33:00.000 170225628.5708455

ANGLE_1 = 2016-10-14T06:34:00.000 93.3388020228853
ANGLE_2 = 2016-10-14T06:34:00.000 50.082233482732704
RANGE = 2016-10-14T06:34:00.000 170226370.22239035

ANGLE_1 = 2016-10-14T06:35:00.000 93.22410720422714
ANGLE_2 = 2016-10-14T06:35:00.000 50.29599708502014
RANGE = 2016-10-14T06:35:00.000 170227111.9255228

ANGLE_1 = 2016-10-14T06:36:00.000 93.1095833093043
ANGLE_2 = 2016-10-14T06:36:00.000 50.510166475743816
RANGE = 2016-10-14T06:36:00.000 170227853.697661

ANGLE_1 = 2016-10-14T06:37:00.000 92.99377059609915
ANGLE_2 = 2016-10-14T06:37:00.000 50.72386159458689
RANGE = 2016-10-14T06:37:00.000 170228595.53163284

ANGLE_1 = 2016-10-14T06:38:00.000 92.87834352367211
ANGLE_2 = 2016-10-14T06:38:00.000 50.938307473515785
RANGE = 2016-10-14T06:38:00.000 170229337.4294585

ANGLE_1 = 2016-10-14T06:39:00.000 92.7622987932896
ANGLE_2 = 2016-10-14T06:39:00.000 51.152314268664654
RANGE = 2016-10-14T06:39:00.000 170230079.4023017

ANGLE_1 = 2016-10-14T06:40:00.000 92.64531955428392
ANGLE_2 = 2016-10-14T06:40:00.000 51.36651069570896
RANGE = 2016-10-14T06:40:00.000 170230821.4460964

ANGLE_1 = 2016-10-14T06:41:00.000 92.5286245709338
ANGLE_2 = 2016-10-14T06:41:00.000 51.580612009890274
RANGE = 2016-10-14T06:41:00.000 170231563.53335312

ANGLE_1 = 2016-10-14T06:42:00.000 92.41094896434927
ANGLE_2 = 2016-10-14T06:42:00.000 51.79503004490375
RANGE = 2016-10-14T06:42:00.000 170232305.71009928

ANGLE_1 = 2016-10-14T06:43:00.000 92.29297129572046
ANGLE_2 = 2016-10-14T06:43:00.000 52.008637572945915
RANGE = 2016-10-14T06:43:00.000 170233047.93846402

ANGLE_1 = 2016-10-14T06:44:00.000 92.17512893767751
ANGLE_2 = 2016-10-14T06:44:00.000 52.22328275681809
RANGE = 2016-10-14T06:44:00.000 170233790.25439706

ANGLE_1 = 2016-10-14T06:45:00.000 92.05637925564218
ANGLE_2 = 2016-10-14T06:45:00.000 52.43696462988871
RANGE = 2016-10-14T06:45:00.000 170234532.63591108

ANGLE_1 = 2016-10-14T06:46:00.000 91.93659493384492
ANGLE_2 = 2016-10-14T06:46:00.000 52.65156418254912
RANGE = 2016-10-14T06:46:00.000 170235275.05548638

ANGLE_1 = 2016-10-14T06:47:00.000 91.81686851230009
ANGLE_2 = 2016-10-14T06:47:00.000 52.86515861633553
RANGE = 2016-10-14T06:47:00.000 170236017.57133856

ANGLE_1 = 2016-10-14T06:48:00.000 91.69631100919995
ANGLE_2 = 2016-10-14T06:48:00.000 53.07982464738588
RANGE = 2016-10-14T06:48:00.000 170236760.15647167

ANGLE_1 = 2016-10-14T06:49:00.000 91.57505339230117
ANGLE_2 = 2016-10-14T06:49:00.000 53.29403218230264
RANGE = 2016-10-14T06:49:00.000 170237502.7889779

ANGLE_1 = 2016-10-14T06:50:00.000 91.45383612419678
ANGLE_2 = 2016-10-14T06:50:00.000 53.50885775776331
RANGE = 2016-10-14T06:50:00.000 170238245.51337725

ANGLE_1 = 2016-10-14T06:51:00.000 91.3311975051209
ANGLE_2 = 2016-10-14T06:51:00.000 53.72262835583348
RANGE = 2016-10-14T06:51:00.000 170238988.30024412

ANGLE_1 = 2016-10-14T06:52:00.000 91.20858103911367
ANGLE_2 = 2016-10-14T06:52:00.000 53.93710714167739
RANGE = 2016-10-14T06:52:00.000 170239731.15424675

ANGLE_1 = 2016-10-14T06:53:00.000 91.08519727617981
ANGLE_2 = 2016-10-14T06:53:00.000 54.151146105817574
RANGE = 2016-10-14T06:53:00.000 170240474.08157593

ANGLE_1 = 2016-10-14T06:54:00.000 90.96188848204547
ANGLE_2 = 2016-10-14T06:54:00.000 54.36544130940781
RANGE = 2016-10-14T06:54:00.000 170241217.069819

ANGLE_1 = 2016-10-14T06:55:00.000 90.83746661885148
ANGLE_2 = 2016-10-14T06:55:00.000 54.58046299835781
RANGE = 2016-10-14T06:55:00.000 170241960.13686907

ANGLE_1 = 2016-10-14T06:56:00.000 90.7124110525275
ANGLE_2 = 2016-10-14T06:56:00.000 54.79385523421676
RANGE = 2016-10-14T06:56:00.000 170242703.2659566

ANGLE_1 = 2016-10-14T06:57:00.000 90.58602423954484
ANGLE_2 = 2016-10-14T06:57:00.000 55.00818638044222
RANGE = 2016-10-14T06:57:00.000 170243446.49684754

ANGLE_1 = 2016-10-14T06:58:00.000 90.46037320365325
ANGLE_2 = 2016-10-14T06:58:00.000 55.22300815399228
RANGE = 2016-10-14T06:58:00.000 170244189.77955198

ANGLE_1 = 2016-10-14T06:59:00.000 90.3333719863651
ANGLE_2 = 2016-10-14T06:59:00.000 55.43721809211113
RANGE = 2016-10-14T06:59:00.000 170244933.11446756

ANGLE_1 = 2016-10-14T07:00:00.000 90.20489024153282
ANGLE_2 = 2016-10-14T07:00:00.000 55.65149908710795
RANGE = 2016-10-14T07:00:00.000 170245676.5114477

ANGLE_1 = 2016-10-14T07:01:00.000 90.07716267027395
ANGLE_2 = 2016-10-14T07:01:00.000 55.865345203726235
RANGE = 2016-10-14T07:01:00.000 170246419.9972515

ANGLE_1 = 2016-10-14T07:02:00.000 89.94780197170479
ANGLE_2 = 2016-10-14T07:02:00.000 56.080475162300914
RANGE = 2016-10-14T07:02:00.000 170247163.5986917

ANGLE_1 = 2016-10-14T07:03:00.000 89.81782805506704
ANGLE_2 = 2016-10-14T07:03:00.000 56.294342203714606
RANGE = 2016-10-14T07:03:00.000 170247907.2356705

ANGLE_1 = 2016-10-14T07:04:00.000 89.6874379665867
ANGLE_2 = 2016-10-14T07:04:00.000 56.50807419042407
RANGE = 2016-10-14T07:04:00.000 170248650.94793704

ANGLE_1 = 2016-10-14T07:05:00.000 89.5563434993731
ANGLE_2 = 2016-10-14T07:05:00.000 56.72306913018755
RANGE = 2016-10-14T07:05:00.000 170249394.7503463

ANGLE_1 = 2016-10-14T07:06:00.000 89.42445565505764
ANGLE_2 = 2016-10-14T07:06:00.000 56.93825913385654
RANGE = 2016-10-14T07:06:00.000 170250138.6051878

ANGLE_1 = 2016-10-14T07:07:00.000 89.29073047891436
ANGLE_2 = 2016-10-14T07:07:00.000 57.15134071917879
RANGE = 2016-10-14T07:07:00.000 170250882.52926114

ANGLE_1 = 2016-10-14T07:08:00.000 89.15767858755645
ANGLE_2 = 2016-10-14T07:08:00.000 57.36659685970469
RANGE = 2016-10-14T07:08:00.000 170251626.5219712

ANGLE_1 = 2016-10-14T07:09:00.000 89.02293000178597
ANGLE_2 = 2016-10-14T07:09:00.000 57.580544714540515
RANGE = 2016-10-14T07:09:00.000 170252370.59459287

ANGLE_1 = 2016-10-14T07:10:00.000 88.88822485165868
ANGLE_2 = 2016-10-14T07:10:00.000 57.795158459494175
RANGE = 2016-10-14T07:10:00.000 170253114.79099822

ANGLE_1 = 2016-10-14T07:11:00.000 88.75182658586033
ANGLE_2 = 2016-10-14T07:11:00.000 58.00917459058078
RANGE = 2016-10-14T07:11:00.000 170253858.99370497

ANGLE_1 = 2016-10-14T07:12:00.000 88.61423704616595
ANGLE_2 = 2016-10-14T07:12:00.000 58.22338392322012
RANGE = 2016-10-14T07:12:00.000 170254603.3217346

ANGLE_1 = 2016-10-14T07:13:00.000 88.47593798256193
ANGLE_2 = 2016-10-14T07:13:00.000 58.43724611060435
RANGE = 2016-10-14T07:13:00.000 170255347.70248684

ANGLE_1 = 2016-10-14T07:14:00.000 88.33734427707789
ANGLE_2 = 2016-10-14T07:14:00.000 58.65225318368235
RANGE = 2016-10-14T07:14:00.000 170256092.122134

ANGLE_1 = 2016-10-14T07:15:00.000 88.19769581718589
ANGLE_2 = 2016-10-14T07:15:00.000 58.86661371093905
RANGE = 2016-10-14T07:15:00.000 170256836.64862454

ANGLE_1 = 2016-10-14T07:16:00.000 88.05648248747701
ANGLE_2 = 2016-10-14T07:16:00.000 59.08038697873214
RANGE = 2016-10-14T07:16:00.000 170257581.2926283

ANGLE_1 = 2016-10-14T07:17:00.000 87.91496077564521
ANGLE_2 = 2016-10-14T07:17:00.000 59.29467414184638
RANGE = 2016-10-14T07:17:00.000 170258325.9441652

ANGLE_1 = 2016-10-14T07:18:00.000 87.77189106796901
ANGLE_2 = 2016-10-14T07:18:00.000 59.50914613172296
RANGE = 2016-10-14T07:18:00.000 170259070.70550323

ANGLE_1 = 2016-10-14T07:19:00.000 87.62834127956968
ANGLE_2 = 2016-10-14T07:19:00.000 59.72337454325656
RANGE = 2016-10-14T07:19:00.000 170259815.55063918

ANGLE_1 = 2016-10-14T07:20:00.000 87.48357671009227
ANGLE_2 = 2016-10-14T07:20:00.000 59.93755894166401
RANGE = 2016-10-14T07:20:00.000 170260560.45027235

ANGLE_1 = 2016-10-14T07:21:00.000 87.33645423583698
ANGLE_2 = 2016-10-14T07:21:00.000 60.15062252500377
RANGE = 2016-10-14T07:21:00.000 170261305.43617323

ANGLE_1 = 2016-10-14T07:22:00.000 87.18984442891518
ANGLE_2 = 2016-10-14T07:22:00.000 60.3654892084561
RANGE = 2016-10-14T07:22:00.000 170262050.48878172

ANGLE_1 = 2016-10-14T07:23:00.000 87.04182420249278
ANGLE_2 = 2016-10-14T07:23:00.000 60.57953679118707
RANGE = 2016-10-14T07:23:00.000 170262795.66334698

ANGLE_1 = 2016-10-14T07:24:00.000 86.89199875560195
ANGLE_2 = 2016-10-14T07:24:00.000 60.794010285426296
RANGE = 2016-10-14T07:24:00.000 170263540.90417507

ANGLE_1 = 2016-10-14T07:25:00.000 86.74207742917146
ANGLE_2 = 2016-10-14T07:25:00.000 61.00734887562301
RANGE = 2016-10-14T07:25:00.000 170264286.15817493

ANGLE_1 = 2016-10-14T07:26:00.000 86.59002761389783
ANGLE_2 = 2016-10-14T07:26:00.000 61.22189998849962
RANGE = 2016-10-14T07:26:00.000 170265031.54158193

ANGLE_1 = 2016-10-14T07:27:00.000 86.43734020293542
ANGLE_2 = 2016-10-14T07:27:00.000 61.435629706361716
RANGE = 2016-10-14T07:27:00.000 170265777.0138431

ANGLE_1 = 2016-10-14T07:28:00.000 86.2829073417242
ANGLE_2 = 2016-10-14T07:28:00.000 61.650096876564724
RANGE = 2016-10-14T07:28:00.000 170266522.56177086

ANGLE_1 = 2016-10-14T07:29:00.000 86.12659895882881
ANGLE_2 = 2016-10-14T07:29:00.000 61.86275974327612
RANGE = 2016-10-14T07:29:00.000 170267268.15608618

ANGLE_1 = 2016-10-14T07:30:00.000 85.97010662753954
ANGLE_2 = 2016-10-14T07:30:00.000 62.07701778753331
RANGE = 2016-10-14T07:30:00.000 170268013.86334965

ANGLE_1 = 2016-10-14T07:31:00.000 85.8116332845795
ANGLE_2 = 2016-10-14T07:31:00.000 62.29035221673225
RANGE = 2016-10-14T07:31:00.000 170268759.63688222

ANGLE_1 = 2016-10-14T07:32:00.000 85.65242097577546
ANGLE_2 = 2016-10-14T07:32:00.000 62.50442284059983
RANGE = 2016-10-14T07:32:00.000 170269505.45149687

ANGLE_1 = 2016-10-14T07:33:00.000 85.49064701998964
ANGLE_2 = 2016-10-14T07:33:00.000 62.71885495218064
RANGE = 2016-10-14T07:33:00.000 170270251.36655277

ANGLE_1 = 2016-10-14T07:34:00.000 85.32842075176629
ANGLE_2 = 2016-10-14T07:34:00.000 62.931847882067075
RANGE = 2016-10-14T07:34:00.000 170270997.4138409

ANGLE_1 = 2016-10-14T07:35:00.000 85.16435392018923
ANGLE_2 = 2016-10-14T07:35:00.000 63.14583781484134
RANGE = 2016-10-14T07:35:00.000 170271743.51591364

ANGLE_1 = 2016-10-14T07:36:00.000 84.998767204702
ANGLE_2 = 2016-10-14T07:36:00.000 63.35919097571575
RANGE = 2016-10-14T07:36:00.000 170272489.6697417

ANGLE_1 = 2016-10-14T07:37:00.000 84.83093867135884
ANGLE_2 = 2016-10-14T07:37:00.000 63.572663285827346
RANGE = 2016-10-14T07:37:00.000 170273235.9186352

ANGLE_1 = 2016-10-14T07:38:00.000 84.66192931973646
ANGLE_2 = 2016-10-14T07:38:00.000 63.785862314877086
RANGE = 2016-10-14T07:38:00.000 170273982.26229134

ANGLE_1 = 2016-10-14T07:39:00.000 84.49176804016365
ANGLE_2 = 2016-10-14T07:39:00.000 63.999504682689775
RANGE = 2016-10-14T07:39:00.000 170274728.6320248

ANGLE_1 = 2016-10-14T07:40:00.000 84.31978997256547
ANGLE_2 = 2016-10-14T07:40:00.000 64.21288738317804
RANGE = 2016-10-14T07:40:00.000 170275475.16672716

ANGLE_1 = 2016-10-14T07:41:00.000 84.1457427988051
ANGLE_2 = 2016-10-14T07:41:00.000 64.42641616788812
RANGE = 2016-10-14T07:41:00.000 170276221.7168091

ANGLE_1 = 2016-10-14T07:42:00.000 83.97005909356595
ANGLE_2 = 2016-10-14T07:42:00.000 64.63948181679997
RANGE = 2016-10-14T07:42:00.000 170276968.3637847

ANGLE_1 = 2016-10-14T07:43:00.000 83.79263163592114
ANGLE_2 = 2016-10-14T07:43:00.000 64.8519184577445
RANGE = 2016-10-14T07:43:00.000 170277715.1457569

ANGLE_1 = 2016-10-14T07:44:00.000 83.61265582294466
ANGLE_2 = 2016-10-14T07:44:00.000 65.06564790486028
RANGE = 2016-10-14T07:44:00.000 170278461.9377425

ANGLE_1 = 2016-10-14T07:45:00.000 83.43122320086526
ANGLE_2 = 2016-10-14T07:45:00.000 65.2784343272303
RANGE = 2016-10-14T07:45:00.000 170279208.8647132

ANGLE_1 = 2016-10-14T07:46:00.000 83.24828181366632
ANGLE_2 = 2016-10-14T07:46:00.000 65.49120338953256
RANGE = 2016-10-14T07:46:00.000 170279955.8616897

ANGLE_1 = 2016-10-14T07:47:00.000 83.06181130300395
ANGLE_2 = 2016-10-14T07:47:00.000 65.70355526175592
RANGE = 2016-10-14T07:47:00.000 170280702.90309414

ANGLE_1 = 2016-10-14T07:48:00.000 82.87434595631876
ANGLE_2 = 2016-10-14T07:48:00.000 65.9171017867286
RANGE = 2016-10-14T07:48:00.000 170281450.0508848

ANGLE_1 = 2016-10-14T07:49:00.000 82.68467631954672
ANGLE_2 = 2016-10-14T07:49:00.000 66.12965378484917
RANGE = 2016-10-14T07:49:00.000 170282197.2792357

ANGLE_1 = 2016-10-14T07:50:00.000 82.49293868916352
ANGLE_2 = 2016-10-14T07:50:00.000 66.34224999678959
RANGE = 2016-10-14T07:50:00.000 170282944.60363454

ANGLE_1 = 2016-10-14T07:51:00.000 82.29894384695992
ANGLE_2 = 2016-10-14T07:51:00.000 66.55467860245365
RANGE = 2016-10-14T07:51:00.000 170283692.00887892

ANGLE_1 = 2016-10-14T07:52:00.000 82.10161490064603
ANGLE_2 = 2016-10-14T07:52:00.000 66.76720069300993
RANGE = 2016-10-14T07:52:00.000 170284439.4780468

ANGLE_1 = 2016-10-14T07:53:00.000 81.90309077174906
ANGLE_2 = 2016-10-14T07:53:00.000 66.97908746635635
RANGE = 2016-10-14T07:53:00.000 170285187.02890265

ANGLE_1 = 2016-10-14T07:54:00.000 81.7008732881592
ANGLE_2 = 2016-10-14T07:54:00.000 67.19138989504738
RANGE = 2016-10-14T07:54:00.000 170285934.6965599

ANGLE_1 = 2016-10-14T07:55:00.000 81.49675029009909
ANGLE_2 = 2016-10-14T07:55:00.000 67.40328594948811
RANGE = 2016-10-14T07:55:00.000 170286682.42818227

ANGLE_1 = 2016-10-14T07:56:00.000 81.29010494022913
ANGLE_2 = 2016-10-14T07:56:00.000 67.61518635650401
RANGE = 2016-10-14T07:56:00.000 170287430.23256847

ANGLE_1 = 2016-10-14T07:57:00.000 81.08052698493479
ANGLE_2 = 2016-10-14T07:57:00.000 67.82673889458388
RANGE = 2016-10-14T07:57:00.000 170288178.1597986

ANGLE_1 = 2016-10-14T07:58:00.000 80.86872204785283
ANGLE_2 = 2016-10-14T07:58:00.000 68.03881181133296
RANGE = 2016-10-14T07:58:00.000 170288926.1456511

ANGLE_1 = 2016-10-14T07:59:00.000 80.65344648070763
ANGLE_2 = 2016-10-14T07:59:00.000 68.2500462019724
RANGE = 2016-10-14T07:59:00.000 170289674.18985218

ANGLE_1 = 2016-10-14T08:00:00.000 80.43527320400239
ANGLE_2 = 2016-10-14T08:00:00.000 68.46197917123474
RANGE = 2016-10-14T08:00:00.000 170290422.38010907

ANGLE_1 = 2016-10-14T08:01:00.000 80.21475668887776
ANGLE_2 = 2016-10-14T08:01:00.000 68.67343804595393
RANGE = 2016-10-14T08:01:00.000 170291170.58992207

ANGLE_1 = 2016-10-14T08:02:00.000 79.99020751715653
ANGLE_2 = 2016-10-14T08:02:00.000 68.88396926494907
RANGE = 2016-10-14T08:02:00.000 170291918.91705385

ANGLE_1 = 2016-10-14T08:03:00.000 79.76316087864755
ANGLE_2 = 2016-10-14T08:03:00.000 69.09520009031475
RANGE = 2016-10-14T08:03:00.000 170292667.3139969

ANGLE_1 = 2016-10-14T08:04:00.000 79.5328776605159
ANGLE_2 = 2016-10-14T08:04:00.000 69.3063731552195
RANGE = 2016-10-14T08:04:00.000 170293415.82016587

ANGLE_1 = 2016-10-14T08:05:00.000 79.29899671781727
ANGLE_2 = 2016-10-14T08:05:00.000 69.51661591451798
RANGE = 2016-10-14T08:05:00.000 170294164.41623327

ANGLE_1 = 2016-10-14T08:06:00.000 79.06169968115854
ANGLE_2 = 2016-10-14T08:06:00.000 69.72737800350444
RANGE = 2016-10-14T08:06:00.000 170294913.08432093

ANGLE_1 = 2016-10-14T08:07:00.000 78.81950381874445
ANGLE_2 = 2016-10-14T08:07:00.000 69.93775096614114
RANGE = 2016-10-14T08:07:00.000 170295661.81450883

ANGLE_1 = 2016-10-14T08:08:00.000 78.5742155096734
ANGLE_2 = 2016-10-14T08:08:00.000 70.14795376607746
RANGE = 2016-10-14T08:08:00.000 170296410.6529273

ANGLE_1 = 2016-10-14T08:09:00.000 78.32578824121877
ANGLE_2 = 2016-10-14T08:09:00.000 70.35773730845557
RANGE = 2016-10-14T08:09:00.000 170297159.56610885

ANGLE_1 = 2016-10-14T08:10:00.000 78.07315293043729
ANGLE_2 = 2016-10-14T08:10:00.000 70.56747335682898
RANGE = 2016-10-14T08:10:00.000 170297908.62680286

ANGLE_1 = 2016-10-14T08:11:00.000 77.81614280815101
ANGLE_2 = 2016-10-14T08:11:00.000 70.77732503692707
RANGE = 2016-10-14T08:11:00.000 170298657.71556267

ANGLE_1 = 2016-10-14T08:12:00.000 77.55466438671016
ANGLE_2 = 2016-10-14T08:12:00.000 70.98702488697818
RANGE = 2016-10-14T08:12:00.000 170299406.87364846

ANGLE_1 = 2016-10-14T08:13:00.000 77.28959382815515
ANGLE_2 = 2016-10-14T08:13:00.000 71.1962194011223
RANGE = 2016-10-14T08:13:00.000 170300156.1673413

ANGLE_1 = 2016-10-14T08:14:00.000 77.01936581351808
ANGLE_2 = 2016-10-14T08:14:00.000 71.40459200762487
RANGE = 2016-10-14T08:14:00.000 170300905.53497276

ANGLE_1 = 2016-10-14T08:15:00.000 76.7443063304711
ANGLE_2 = 2016-10-14T08:15:00.000 71.61360048828489
RANGE = 2016-10-14T08:15:00.000 170301654.96534327

ANGLE_1 = 2016-10-14T08:16:00.000 76.46490476488599
ANGLE_2 = 2016-10-14T08:16:00.000 71.82238876264711
RANGE = 2016-10-14T08:16:00.000 170302404.4652156

ANGLE_1 = 2016-10-14T08:17:00.000 76.18067651166916
ANGLE_2 = 2016-10-14T08:17:00.000 72.03033496082517
RANGE = 2016-10-14T08:17:00.000 170303154.08198494

ANGLE_1 = 2016-10-14T08:18:00.000 75.88987449652532
ANGLE_2 = 2016-10-14T08:18:00.000 72.23840231276405
RANGE = 2016-10-14T08:18:00.000 170303903.82798254

ANGLE_1 = 2016-10-14T08:19:00.000 75.59552281081052
ANGLE_2 = 2016-10-14T08:19:00.000 72.4460389837338
RANGE = 2016-10-14T08:19:00.000 170304653.6262939

ANGLE_1 = 2016-10-14T08:20:00.000 75.29466175834781
ANGLE_2 = 2016-10-14T08:20:00.000 72.65367858878936
RANGE = 2016-10-14T08:20:00.000 170305403.47179613

ANGLE_1 = 2016-10-14T08:21:00.000 74.98805932533399
ANGLE_2 = 2016-10-14T08:21:00.000 72.86041017261559
RANGE = 2016-10-14T08:21:00.000 170306153.46280944

ANGLE_1 = 2016-10-14T08:22:00.000 74.67620330437045
ANGLE_2 = 2016-10-14T08:22:00.000 73.06768640698259
RANGE = 2016-10-14T08:22:00.000 170306903.48046324

ANGLE_1 = 2016-10-14T08:23:00.000 74.3572261277309
ANGLE_2 = 2016-10-14T08:23:00.000 73.27398734375
RANGE = 2016-10-14T08:23:00.000 170307653.660042

ANGLE_1 = 2016-10-14T08:24:00.000 74.0324976148995
ANGLE_2 = 2016-10-14T08:24:00.000 73.48006695009687
RANGE = 2016-10-14T08:24:00.000 170308403.88073674

ANGLE_1 = 2016-10-14T08:25:00.000 73.70097711396171
ANGLE_2 = 2016-10-14T08:25:00.000 73.68604232150022
RANGE = 2016-10-14T08:25:00.000 170309154.20906103

ANGLE_1 = 2016-10-14T08:26:00.000 73.36252416113568
ANGLE_2 = 2016-10-14T08:26:00.000 73.89168634350105
RANGE = 2016-10-14T08:26:00.000 170309904.61000523

ANGLE_1 = 2016-10-14T08:27:00.000 73.01746123598264
ANGLE_2 = 2016-10-14T08:27:00.000 74.09673208291208
RANGE = 2016-10-14T08:27:00.000 170310655.1115468

ANGLE_1 = 2016-10-14T08:28:00.000 72.6646882285919
ANGLE_2 = 2016-10-14T08:28:00.000 74.30126698332717
RANGE = 2016-10-14T08:28:00.000 170311405.71012384

ANGLE_1 = 2016-10-14T08:29:00.000 72.30436876459427
ANGLE_2 = 2016-10-14T08:29:00.000 74.50602163404038
RANGE = 2016-10-14T08:29:00.000 170312156.3864175

ANGLE_1 = 2016-10-14T08:30:00.000 71.93553184743621
ANGLE_2 = 2016-10-14T08:30:00.000 74.71017321280502
RANGE = 2016-10-14T08:30:00.000 170312907.1810522

ANGLE_1 = 2016-10-14T08:31:00.000 71.55940884478295
ANGLE_2 = 2016-10-14T08:31:00.000 74.9137958900475
RANGE = 2016-10-14T08:31:00.000 170313658.0011194

ANGLE_1 = 2016-10-14T08:32:00.000 71.17432397726519
ANGLE_2 = 2016-10-14T08:32:00.000 75.11666516067625
RANGE = 2016-10-14T08:32:00.000 170314408.93651888

ANGLE_1 = 2016-10-14T08:33:00.000 70.77993216662412
ANGLE_2 = 2016-10-14T08:33:00.000 75.31991284672705
RANGE = 2016-10-14T08:33:00.000 170315159.9565807

ANGLE_1 = 2016-10-14T08:34:00.000 70.37695298882771
ANGLE_2 = 2016-10-14T08:34:00.000 75.5218230424091
RANGE = 2016-10-14T08:34:00.000 170315911.11501125

ANGLE_1 = 2016-10-14T08:35:00.000 69.96309373416943
ANGLE_2 = 2016-10-14T08:35:00.000 75.72304605976399
RANGE = 2016-10-14T08:35:00.000 170316662.31131303

ANGLE_1 = 2016-10-14T08:36:00.000 69.53994574697397
ANGLE_2 = 2016-10-14T08:36:00.000 75.92392317066188
RANGE = 2016-10-14T08:36:00.000 170317413.62444487

ANGLE_1 = 2016-10-14T08:37:00.000 69.1071319693106
ANGLE_2 = 2016-10-14T08:37:00.000 76.12447381920106
RANGE = 2016-10-14T08:37:00.000 170318164.98452154

ANGLE_1 = 2016-10-14T08:38:00.000 68.66261922107932
ANGLE_2 = 2016-10-14T08:38:00.000 76.32440044546675
RANGE = 2016-10-14T08:38:00.000 170318916.4802441

ANGLE_1 = 2016-10-14T08:39:00.000 68.20697306127958
ANGLE_2 = 2016-10-14T08:39:00.000 76.5240998454946
RANGE = 2016-10-14T08:39:00.000 170319668.05198652

ANGLE_1 = 2016-10-14T08:40:00.000 67.73998251732894
ANGLE_2 = 2016-10-14T08:40:00.000 76.72327687473552
RANGE = 2016-10-14T08:40:00.000 170320419.69615763

ANGLE_1 = 2016-10-14T08:41:00.000 67.2602424077574
ANGLE_2 = 2016-10-14T08:41:00.000 76.92075263597219
RANGE = 2016-10-14T08:41:00.000 170321171.45198357

ANGLE_1 = 2016-10-14T08:42:00.000 66.7679826842376
ANGLE_2 = 2016-10-14T08:42:00.000 77.11823184675691
RANGE = 2016-10-14T08:42:00.000 170321923.31964034

ANGLE_1 = 2016-10-14T08:43:00.000 66.2620093288609
ANGLE_2 = 2016-10-14T08:43:00.000 77.31513582361151
RANGE = 2016-10-14T08:43:00.000 170322675.28125653

ANGLE_1 = 2016-10-14T08:44:00.000 65.74261582609711
ANGLE_2 = 2016-10-14T08:44:00.000 77.51015095664526
RANGE = 2016-10-14T08:44:00.000 170323427.27494675

ANGLE_1 = 2016-10-14T08:45:00.000 65.20657877791284
ANGLE_2 = 2016-10-14T08:45:00.000 77.70524494873467
RANGE = 2016-10-14T08:45:00.000 170324179.40823808

ANGLE_1 = 2016-10-14T08:46:00.000 64.65828471534286
ANGLE_2 = 2016-10-14T08:46:00.000 77.89944389778039
RANGE = 2016-10-14T08:46:00.000 170324931.54890156

ANGLE_1 = 2016-10-14T08:47:00.000 64.09260366887676
ANGLE_2 = 2016-10-14T08:47:00.000 78.09316353678709
RANGE = 2016-10-14T08:47:00.000 170325683.873235

ANGLE_1 = 2016-10-14T08:48:00.000 63.51075891968851
ANGLE_2 = 2016-10-14T08:48:00.000 78.28512309334675
RANGE = 2016-10-14T08:48:00.000 170326436.30660313

ANGLE_1 = 2016-10-14T08:49:00.000 62.911290088378685
ANGLE_2 = 2016-10-14T08:49:00.000 78.47655409587652
RANGE = 2016-10-14T08:49:00.000 170327188.7320346

ANGLE_1 = 2016-10-14T08:50:00.000 62.294409430932326
ANGLE_2 = 2016-10-14T08:50:00.000 78.66680390539804
RANGE = 2016-10-14T08:50:00.000 170327941.31160438

ANGLE_1 = 2016-10-14T08:51:00.000 61.65822497900566
ANGLE_2 = 2016-10-14T08:51:00.000 78.8555133216286
RANGE = 2016-10-14T08:51:00.000 170328693.98199347

ANGLE_1 = 2016-10-14T08:52:00.000 61.00162190528185
ANGLE_2 = 2016-10-14T08:52:00.000 79.04348461133299
RANGE = 2016-10-14T08:52:00.000 170329446.70827958

ANGLE_1 = 2016-10-14T08:53:00.000 60.32542093512783
ANGLE_2 = 2016-10-14T08:53:00.000 79.23058784880796
RANGE = 2016-10-14T08:53:00.000 170330199.57068977

ANGLE_1 = 2016-10-14T08:54:00.000 59.62677004473476
ANGLE_2 = 2016-10-14T08:54:00.000 79.41634329859126
RANGE = 2016-10-14T08:54:00.000 170330952.54152587

ANGLE_1 = 2016-10-14T08:55:00.000 58.905772993339006
ANGLE_2 = 2016-10-14T08:55:00.000 79.60059771346083
RANGE = 2016-10-14T08:55:00.000 170331705.49462903

ANGLE_1 = 2016-10-14T08:56:00.000 58.1612625905707
ANGLE_2 = 2016-10-14T08:56:00.000 79.78369290379126
RANGE = 2016-10-14T08:56:00.000 170332458.60669765

ANGLE_1 = 2016-10-14T08:57:00.000 57.39181371176026
ANGLE_2 = 2016-10-14T08:57:00.000 79.96497546809772
RANGE = 2016-10-14T08:57:00.000 170333211.81814083

ANGLE_1 = 2016-10-14T08:58:00.000 56.5965932067955
ANGLE_2 = 2016-10-14T08:58:00.000 80.1448867850017
RANGE = 2016-10-14T08:58:00.000 170333965.13335872

ANGLE_1 = 2016-10-14T08:59:00.000 55.77442207877834
ANGLE_2 = 2016-10-14T08:59:00.000 80.32247536601159
RANGE = 2016-10-14T08:59:00.000 170334718.5268408

ANGLE_1 = 2016-10-14T09:00:00.000 54.92294780930118
ANGLE_2 = 2016-10-14T09:00:00.000 80.49883624700944
RANGE = 2016-10-14T09:00:00.000 170335471.99899608

ANGLE_1 = 2016-10-14T09:01:00.000 54.0425801064658
ANGLE_2 = 2016-10-14T09:01:00.000 80.67316657882287
RANGE = 2016-10-14T09:01:00.000 170336225.59541872

ANGLE_1 = 2016-10-14T09:02:00.000 53.130979215534175
ANGLE_2 = 2016-10-14T09:02:00.000 80.84596883766893
RANGE = 2016-10-14T09:02:00.000 170336979.2500252

ANGLE_1 = 2016-10-14T09:03:00.000 52.1868267288679
ANGLE_2 = 2016-10-14T09:03:00.000 81.01633652505147
RANGE = 2016-10-14T09:03:00.000 170337732.97619757

ANGLE_1 = 2016-10-14T09:04:00.000 51.20872443830036
ANGLE_2 = 2016-10-14T09:04:00.000 81.1838543125612
RANGE = 2016-10-14T09:04:00.000 170338486.8469589

ANGLE_1 = 2016-10-14T09:05:00.000 50.19581424102171
ANGLE_2 = 2016-10-14T09:05:00.000 81.35055056244911
RANGE = 2016-10-14T09:05:00.000 170339240.78048947

ANGLE_1 = 2016-10-14T09:06:00.000 49.14561226098237
ANGLE_2 = 2016-10-14T09:06:00.000 81.512945952939
RANGE = 2016-10-14T09:06:00.000 170339994.7713526

ANGLE_1 = 2016-10-14T09:07:00.000 48.056780461166
ANGLE_2 = 2016-10-14T09:07:00.000 81.67459457564206
RANGE = 2016-10-14T09:07:00.000 170340748.952536

ANGLE_1 = 2016-10-14T09:08:00.000 46.928107495366746
ANGLE_2 = 2016-10-14T09:08:00.000 81.83203540124377
RANGE = 2016-10-14T09:08:00.000 170341503.1506956

ANGLE_1 = 2016-10-14T09:09:00.000 45.75696260626445
ANGLE_2 = 2016-10-14T09:09:00.000 81.98727605059022
RANGE = 2016-10-14T09:09:00.000 170342257.46060404

ANGLE_1 = 2016-10-14T09:10:00.000 44.542931828450385
ANGLE_2 = 2016-10-14T09:10:00.000 82.13962787245369
RANGE = 2016-10-14T09:10:00.000 170343011.83345577

ANGLE_1 = 2016-10-14T09:11:00.000 43.28441640789069
ANGLE_2 = 2016-10-14T09:11:00.000 82.28768281440068
RANGE = 2016-10-14T09:11:00.000 170343766.32288462

ANGLE_1 = 2016-10-14T09:12:00.000 41.9797802244079
ANGLE_2 = 2016-10-14T09:12:00.000 82.43319485242147
RANGE = 2016-10-14T09:12:00.000 170344520.9427406

ANGLE_1 = 2016-10-14T09:13:00.000 40.626595880064976
ANGLE_2 = 2016-10-14T09:13:00.000 82.57425522805343
RANGE = 2016-10-14T09:13:00.000 170345275.61473978

ANGLE_1 = 2016-10-14T09:14:00.000 39.224077628776854
ANGLE_2 = 2016-10-14T09:14:00.000 82.71218600325352
RANGE = 2016-10-14T09:14:00.000 170346030.38247183

ANGLE_1 = 2016-10-14T09:15:00.000 37.76989689581038
ANGLE_2 = 2016-10-14T09:15:00.000 82.84526923383928
RANGE = 2016-10-14T09:15:00.000 170346785.23319742

ANGLE_1 = 2016-10-14T09:16:00.000 36.264845067456406
ANGLE_2 = 2016-10-14T09:16:00.000 82.9747543665013
RANGE = 2016-10-14T09:16:00.000 170347540.20472175

ANGLE_1 = 2016-10-14T09:17:00.000 34.705189948529416
ANGLE_2 = 2016-10-14T09:17:00.000 83.09854534486348
RANGE = 2016-10-14T09:17:00.000 170348295.26199785

ANGLE_1 = 2016-10-14T09:18:00.000 33.09368565218364
ANGLE_2 = 2016-10-14T09:18:00.000 83.2185159948073
RANGE = 2016-10-14T09:18:00.000 170349050.37641394

ANGLE_1 = 2016-10-14T09:19:00.000 31.42640013241026
ANGLE_2 = 2016-10-14T09:19:00.000 83.33304638122233
RANGE = 2016-10-14T09:19:00.000 170349805.59350544

ANGLE_1 = 2016-10-14T09:20:00.000 29.70452032041571
ANGLE_2 = 2016-10-14T09:20:00.000 83.44149234921812
RANGE = 2016-10-14T09:20:00.000 170350560.96317452

ANGLE_1 = 2016-10-14T09:21:00.000 27.928759220555804
ANGLE_2 = 2016-10-14T09:21:00.000 83.54508517346464
RANGE = 2016-10-14T09:21:00.000 170351316.3771701

ANGLE_1 = 2016-10-14T09:22:00.000 26.098520018620203
ANGLE_2 = 2016-10-14T09:22:00.000 83.64184825346157
RANGE = 2016-10-14T09:22:00.000 170352071.8810211

ANGLE_1 = 2016-10-14T09:23:00.000 24.214932242322135
ANGLE_2 = 2016-10-14T09:23:00.000 83.73322017152427
RANGE = 2016-10-14T09:23:00.000 170352827.46445036

ANGLE_1 = 2016-10-14T09:24:00.000 22.279782804658996
ANGLE_2 = 2016-10-14T09:24:00.000 83.81790125143671
RANGE = 2016-10-14T09:24:00.000 170353583.1829721

ANGLE_1 = 2016-10-14T09:25:00.000 20.29441147892659
ANGLE_2 = 2016-10-14T09:25:00.000 83.89596104952022
RANGE = 2016-10-14T09:25:00.000 170354338.96988094

ANGLE_1 = 2016-10-14T09:26:00.000 18.26168001685069
ANGLE_2 = 2016-10-14T09:26:00.000 83.96609656306482
RANGE = 2016-10-14T09:26:00.000 170355094.83398014

ANGLE_1 = 2016-10-14T09:27:00.000 16.185504179957057
ANGLE_2 = 2016-10-14T09:27:00.000 84.03006153347211
RANGE = 2016-10-14T09:27:00.000 170355850.81666648

ANGLE_1 = 2016-10-14T09:28:00.000 14.067637687766375
ANGLE_2 = 2016-10-14T09:28:00.000 84.08542584209658
RANGE = 2016-10-14T09:28:00.000 170356606.88059282

ANGLE_1 = 2016-10-14T09:29:00.000 11.913643745048203
ANGLE_2 = 2016-10-14T09:29:00.000 84.13373388063977
RANGE = 2016-10-14T09:29:00.000 170357363.0352106

ANGLE_1 = 2016-10-14T09:30:00.000 9.727761319140765
ANGLE_2 = 2016-10-14T09:30:00.000 84.17375144322385
RANGE = 2016-10-14T09:30:00.000 170358119.30961958

ANGLE_1 = 2016-10-14T09:31:00.000 7.51630064705063
ANGLE_2 = 2016-10-14T09:31:00.000 84.20579697146306
RANGE = 2016-10-14T09:31:00.000 170358875.6328403

ANGLE_1 = 2016-10-14T09:32:00.000 5.28306888601046
ANGLE_2 = 2016-10-14T09:32:00.000 84.2293660770285
RANGE = 2016-10-14T09:32:00.000 170359632.05234674

ANGLE_1 = 2016-10-14T09:33:00.000 3.035639284996126
ANGLE_2 = 2016-10-14T09:33:00.000 84.24522623821906
RANGE = 2016-10-14T09:33:00.000 170360388.60307822

ANGLE_1 = 2016-10-14T09:34:00.000 0.7783805263958933
ANGLE_2 = 2016-10-14T09:34:00.000 84.2517915487435
RANGE = 2016-10-14T09:34:00.000 170361145.22479013

ANGLE_1 = 2016-10-14T09:35:00.000 358.5200778242823
ANGLE_2 = 2016-10-14T09:35:00.000 84.25125469026203
RANGE = 2016-10-14T09:35:00.000 170361901.9347019

ANGLE_1 = 2016-10-14T09:36:00.000 356.2658285973757
ANGLE_2 = 2016-10-14T09:36:00.000 84.24115622878908
RANGE = 2016-10-14T09:36:00.000 170362658.72439533

ANGLE_1 = 2016-10-14T09:37:00.000 354.02174412142404
ANGLE_2 = 2016-10-14T09:37:00.000 84.2228509472047
RANGE = 2016-10-14T09:37:00.000 170363415.7053042

ANGLE_1 = 2016-10-14T09:38:00.000 351.79559394705586
ANGLE_2 = 2016-10-14T09:38:00.000 84.19621676429612
RANGE = 2016-10-14T09:38:00.000 170364172.6375021

ANGLE_1 = 2016-10-14T09:39:00.000 349.59146233389976
ANGLE_2 = 2016-10-14T09:39:00.000 84.16178301927727
RANGE = 2016-10-14T09:39:00.000 170364929.71006286

ANGLE_1 = 2016-10-14T09:40:00.000 347.41494613150917
ANGLE_2 = 2016-10-14T09:40:00.000 84.11921808860838
RANGE = 2016-10-14T09:40:00.000 170365686.89141476

ANGLE_1 = 2016-10-14T09:41:00.000 345.27264587629753
ANGLE_2 = 2016-10-14T09:41:00.000 84.06732254487498
RANGE = 2016-10-14T09:41:00.000 170366444.18692583

ANGLE_1 = 2016-10-14T09:42:00.000 343.1683378363114
ANGLE_2 = 2016-10-14T09:42:00.000 84.00999455727097
RANGE = 2016-10-14T09:42:00.000 170367201.5664104

ANGLE_1 = 2016-10-14T09:43:00.000 341.10603534259883
ANGLE_2 = 2016-10-14T09:43:00.000 83.94396451241465
RANGE = 2016-10-14T09:43:00.000 170367959.00617754

ANGLE_1 = 2016-10-14T09:44:00.000 339.0886283478985
ANGLE_2 = 2016-10-14T09:44:00.000 83.87093243165158
RANGE = 2016-10-14T09:44:00.000 170368716.55028242

ANGLE_1 = 2016-10-14T09:45:00.000 337.1189831451276
ANGLE_2 = 2016-10-14T09:45:00.000 83.7907733856846
RANGE = 2016-10-14T09:45:00.000 170369474.18302816

ANGLE_1 = 2016-10-14T09:46:00.000 335.2008166752695
ANGLE_2 = 2016-10-14T09:46:00.000 83.704285862287
RANGE = 2016-10-14T09:46:00.000 170370231.95804906

ANGLE_1 = 2016-10-14T09:47:00.000 333.3350752109789
ANGLE_2 = 2016-10-14T09:47:00.000 83.61081226794306
RANGE = 2016-10-14T09:47:00.000 170370989.74378422

ANGLE_1 = 2016-10-14T09:48:00.000 331.52167885072805
ANGLE_2 = 2016-10-14T09:48:00.000 83.51130944747403
RANGE = 2016-10-14T09:48:00.000 170371747.65704054

ANGLE_1 = 2016-10-14T09:49:00.000 329.7630439745445
ANGLE_2 = 2016-10-14T09:49:00.000 83.40643729737279
RANGE = 2016-10-14T09:49:00.000 170372505.68260726

ANGLE_1 = 2016-10-14T09:50:00.000 328.05974337766565
ANGLE_2 = 2016-10-14T09:50:00.000 83.29556744471611
RANGE = 2016-10-14T09:50:00.000 170373263.7997836

ANGLE_1 = 2016-10-14T09:51:00.000 326.41118395407875
ANGLE_2 = 2016-10-14T09:51:00.000 83.18016646193615
RANGE = 2016-10-14T09:51:00.000 170374021.97378895

ANGLE_1 = 2016-10-14T09:52:00.000 324.8164788833775
ANGLE_2 = 2016-10-14T09:52:00.000 83.05835504654205
RANGE = 2016-10-14T09:52:00.000 170374780.28621107

ANGLE_1 = 2016-10-14T09:53:00.000 323.2751573994823
ANGLE_2 = 2016-10-14T09:53:00.000 82.93233166371995
RANGE = 2016-10-14T09:53:00.000 170375538.64488336

ANGLE_1 = 2016-10-14T09:54:00.000 321.7871014311775
ANGLE_2 = 2016-10-14T09:54:00.000 82.80209789790979
RANGE = 2016-10-14T09:54:00.000 170376297.15008286

ANGLE_1 = 2016-10-14T09:55:00.000 320.3511436828038
ANGLE_2 = 2016-10-14T09:55:00.000 82.66716835499314
RANGE = 2016-10-14T09:55:00.000 170377055.73013997

ANGLE_1 = 2016-10-14T09:56:00.000 318.9641336609291
ANGLE_2 = 2016-10-14T09:56:00.000 82.5283358421075
RANGE = 2016-10-14T09:56:00.000 170377814.36858207

ANGLE_1 = 2016-10-14T09:57:00.000 317.6264706106082
ANGLE_2 = 2016-10-14T09:57:00.000 82.3854277251765
RANGE = 2016-10-14T09:57:00.000 170378573.15442967

ANGLE_1 = 2016-10-14T09:58:00.000 316.33624287057097
ANGLE_2 = 2016-10-14T09:58:00.000 82.23959565351673
RANGE = 2016-10-14T09:58:00.000 170379331.99083024

ANGLE_1 = 2016-10-14T09:59:00.000 315.09278649040505
ANGLE_2 = 2016-10-14T09:59:00.000 82.08949775248821
RANGE = 2016-10-14T09:59:00.000 170380090.95338002

ANGLE_1 = 2016-10-14T10:00:00.000 313.8932626552174
ANGLE_2 = 2016-10-14T10:00:00.000 81.93650426918722
RANGE = 2016-10-14T10:00:00.000 170380849.97403947

ANGLE_1 = 2016-10-14T10:01:00.000 312.7370252499614
ANGLE_2 = 2016-10-14T10:01:00.000 81.78048386559233
RANGE = 2016-10-14T10:01:00.000 170381609.0710412

ANGLE_1 = 2016-10-14T10:02:00.000 311.62164949870777
ANGLE_2 = 2016-10-14T10:02:00.000 81.62217692224564
RANGE = 2016-10-14T10:02:00.000 170382368.29078704

ANGLE_1 = 2016-10-14T10:03:00.000 310.5452373347008
ANGLE_2 = 2016-10-14T10:03:00.000 81.46003203698984
RANGE = 2016-10-14T10:03:00.000 170383127.62145665

ANGLE_1 = 2016-10-14T10:04:00.000 309.50746846888643
ANGLE_2 = 2016-10-14T10:04:00.000 81.29542024471732
RANGE = 2016-10-14T10:04:00.000 170383887.018704

ANGLE_1 = 2016-10-14T10:05:00.000 308.50543750816416
ANGLE_2 = 2016-10-14T10:05:00.000 81.12958451727617
RANGE = 2016-10-14T10:05:00.000 170384646.50222853

ANGLE_1 = 2016-10-14T10:06:00.000 307.5399233403107
ANGLE_2 = 2016-10-14T10:06:00.000 80.96041746356417
RANGE = 2016-10-14T10:06:00.000 170385406.09277675

ANGLE_1 = 2016-10-14T10:07:00.000 306.6063337290801
ANGLE_2 = 2016-10-14T10:07:00.000 80.78922801086406
RANGE = 2016-10-14T10:07:00.000 170386165.77829483

ANGLE_1 = 2016-10-14T10:08:00.000 305.70534453131256
ANGLE_2 = 2016-10-14T10:08:00.000 80.61618606564086
RANGE = 2016-10-14T10:08:00.000 170386925.52945653

ANGLE_1 = 2016-10-14T10:09:00.000 304.83414319831087
ANGLE_2 = 2016-10-14T10:09:00.000 80.44061836926038
RANGE = 2016-10-14T10:09:00.000 170387685.39715424

ANGLE_1 = 2016-10-14T10:10:00.000 303.9927333053489
ANGLE_2 = 2016-10-14T10:10:00.000 80.26465926220628
RANGE = 2016-10-14T10:10:00.000 170388445.31775618

ANGLE_1 = 2016-10-14T10:11:00.000 303.17936353621286
ANGLE_2 = 2016-10-14T10:11:00.000 80.08562394923365
RANGE = 2016-10-14T10:11:00.000 170389205.38904816

ANGLE_1 = 2016-10-14T10:12:00.000 302.39347001795545
ANGLE_2 = 2016-10-14T10:12:00.000 79.90533270514568
RANGE = 2016-10-14T10:12:00.000 170389965.49524298

ANGLE_1 = 2016-10-14T10:13:00.000 301.6307639126105
ANGLE_2 = 2016-10-14T10:13:00.000 79.72279308910178
RANGE = 2016-10-14T10:13:00.000 170390725.72799012

ANGLE_1 = 2016-10-14T10:14:00.000 300.89477562557687
ANGLE_2 = 2016-10-14T10:14:00.000 79.54025913174839
RANGE = 2016-10-14T10:14:00.000 170391486.0608418

ANGLE_1 = 2016-10-14T10:15:00.000 300.1808214094893
ANGLE_2 = 2016-10-14T10:15:00.000 79.35557417987418
RANGE = 2016-10-14T10:15:00.000 170392246.44445294

ANGLE_1 = 2016-10-14T10:16:00.000 299.49029215499576
ANGLE_2 = 2016-10-14T10:16:00.000 79.16926232779232
RANGE = 2016-10-14T10:16:00.000 170393006.93574542

ANGLE_1 = 2016-10-14T10:17:00.000 298.82010075016916
ANGLE_2 = 2016-10-14T10:17:00.000 78.98225894286956
RANGE = 2016-10-14T10:17:00.000 170393767.50506702

ANGLE_1 = 2016-10-14T10:18:00.000 298.1707672003162
ANGLE_2 = 2016-10-14T10:18:00.000 78.79371627569921
RANGE = 2016-10-14T10:18:00.000 170394528.22062236

ANGLE_1 = 2016-10-14T10:19:00.000 297.5409569570592
ANGLE_2 = 2016-10-14T10:19:00.000 78.60415215811202
RANGE = 2016-10-14T10:19:00.000 170395288.9784353

ANGLE_1 = 2016-10-14T10:20:00.000 296.92962729492154
ANGLE_2 = 2016-10-14T10:20:00.000 78.41319627468056
RANGE = 2016-10-14T10:20:00.000 170396049.85208267

ANGLE_1 = 2016-10-14T10:21:00.000 296.33595702455693
ANGLE_2 = 2016-10-14T10:21:00.000 78.22207261656183
RANGE = 2016-10-14T10:21:00.000 170396810.82352218

ANGLE_1 = 2016-10-14T10:22:00.000 295.7596811258187
