2nd Assignment - Navigation/tdm/NEW_NORCIA_EXM_20161015T040944_20161015T145627.tdm

CCSDS_TDM_VERS = 2.0

COMMENT This TDM contains synthetic data, not from real observations

CREATION_DATE = 2021-11-26T14:48:46.651789
ORIGINATOR = POLIMI-DAER

META_START
TIME_SYSTEM = UTC
START_TIME = 2016-10-15T04:09:44.432
STOP_TIME = 2016-10-15T14:56:27.328
PARTICIPANT_1 = NEW_NORCIA
PARTICIPANT_2 = EXM
MODE = SEQUENTIAL
PATH = 1,2,1
RANGE_UNITS = km
ANGLE_TYPE = AZEL
META_STOP

DATA_START

ANGLE_1 = 2016-10-15T04:09:44.432 108.06273001247799
ANGLE_2 = 2016-10-15T04:09:44.432 19.999759166568015
RANGE = 2016-10-15T04:09:44.432 171208654.1391478

ANGLE_1 = 2016-10-15T04:10:00.000 108.03565381290876
ANGLE_2 = 2016-10-15T04:10:00.000 20.052780030738948
RANGE = 2016-10-15T04:10:00.000 171208844.46735197

ANGLE_1 = 2016-10-15T04:11:00.000 107.9303534813577
ANGLE_2 = 2016-10-15T04:11:00.000 20.25693044315086
RANGE = 2016-10-15T04:11:00.000 171209578.19833985

ANGLE_1 = 2016-10-15T04:12:00.000 107.82607228902755
ANGLE_2 = 2016-10-15T04:12:00.000 20.46068150146547
RANGE = 2016-10-15T04:12:00.000 171210311.87564248

ANGLE_1 = 2016-10-15T04:13:00.000 107.72187508890708
ANGLE_2 = 2016-10-15T04:13:00.000 20.665262993334334
RANGE = 2016-10-15T04:13:00.000 171211045.59504792

ANGLE_1 = 2016-10-15T04:14:00.000 107.61734288470268
ANGLE_2 = 2016-10-15T04:14:00.000 20.868888517768738
RANGE = 2016-10-15T04:14:00.000 171211779.31426597

ANGLE_1 = 2016-10-15T04:15:00.000 107.51283622332973
ANGLE_2 = 2016-10-15T04:15:00.000 21.07346622268697
RANGE = 2016-10-15T04:15:00.000 171212513.05965015

ANGLE_1 = 2016-10-15T04:16:00.000 107.40883571337551
ANGLE_2 = 2016-10-15T04:16:00.000 21.277470085457082
RANGE = 2016-10-15T04:16:00.000 171213246.778907

ANGLE_1 = 2016-10-15T04:17:00.000 107.30429905439507
ANGLE_2 = 2016-10-15T04:17:00.000 21.481753090424736
RANGE = 2016-10-15T04:17:00.000 171213980.60944492

ANGLE_1 = 2016-10-15T04:18:00.000 107.20039982769079
ANGLE_2 = 2016-10-15T04:18:00.000 21.68694602951194
RANGE = 2016-10-15T04:18:00.000 171214714.38034

ANGLE_1 = 2016-10-15T04:19:00.000 107.09650653245613
ANGLE_2 = 2016-10-15T04:19:00.000 21.892573463955056
RANGE = 2016-10-15T04:19:00.000 171215448.19626358

ANGLE_1 = 2016-10-15T04:20:00.000 106.99219238431121
ANGLE_2 = 2016-10-15T04:20:00.000 22.09643091626884
RANGE = 2016-10-15T04:20:00.000 171216182.0002954

ANGLE_1 = 2016-10-15T04:21:00.000 106.88913805866315
ANGLE_2 = 2016-10-15T04:21:00.000 22.301660512761153
RANGE = 2016-10-15T04:21:00.000 171216915.89558023

ANGLE_1 = 2016-10-15T04:22:00.000 106.7854808002896
ANGLE_2 = 2016-10-15T04:22:00.000 22.50668795144865
RANGE = 2016-10-15T04:22:00.000 171217649.72032854

ANGLE_1 = 2016-10-15T04:23:00.000 106.68328348652821
ANGLE_2 = 2016-10-15T04:23:00.000 22.712583221195764
RANGE = 2016-10-15T04:23:00.000 171218383.6508258

ANGLE_1 = 2016-10-15T04:24:00.000 106.57927431379836
ANGLE_2 = 2016-10-15T04:24:00.000 22.91738571596712
RANGE = 2016-10-15T04:24:00.000 171219117.5193545

ANGLE_1 = 2016-10-15T04:25:00.000 106.4758879777247
ANGLE_2 = 2016-10-15T04:25:00.000 23.122847995146966
RANGE = 2016-10-15T04:25:00.000 171219851.4092643

ANGLE_1 = 2016-10-15T04:26:00.000 106.37287843395262
ANGLE_2 = 2016-10-15T04:26:00.000 23.32862448898656
RANGE = 2016-10-15T04:26:00.000 171220585.36110342

ANGLE_1 = 2016-10-15T04:27:00.000 106.26913567070405
ANGLE_2 = 2016-10-15T04:27:00.000 23.534590091759142
RANGE = 2016-10-15T04:27:00.000 171221319.30850452

ANGLE_1 = 2016-10-15T04:28:00.000 106.16630878696017
ANGLE_2 = 2016-10-15T04:28:00.000 23.74053972760993
RANGE = 2016-10-15T04:28:00.000 171222053.304225

ANGLE_1 = 2016-10-15T04:29:00.000 106.06368994048586
ANGLE_2 = 2016-10-15T04:29:00.000 23.945873389621706
RANGE = 2016-10-15T04:29:00.000 171222787.30138972

ANGLE_1 = 2016-10-15T04:30:00.000 105.9607432814967
ANGLE_2 = 2016-10-15T04:30:00.000 24.151972942577807
RANGE = 2016-10-15T04:30:00.000 171223521.32254475

ANGLE_1 = 2016-10-15T04:31:00.000 105.85812497204557
ANGLE_2 = 2016-10-15T04:31:00.000 24.358309673393954
RANGE = 2016-10-15T04:31:00.000 171224255.35873368

ANGLE_1 = 2016-10-15T04:32:00.000 105.75575262041065
ANGLE_2 = 2016-10-15T04:32:00.000 24.564230340030797
RANGE = 2016-10-15T04:32:00.000 171224989.40186775

ANGLE_1 = 2016-10-15T04:33:00.000 105.65338047035911
ANGLE_2 = 2016-10-15T04:33:00.000 24.770882647234103
RANGE = 2016-10-15T04:33:00.000 171225723.46325657

ANGLE_1 = 2016-10-15T04:34:00.000 105.55098648896357
ANGLE_2 = 2016-10-15T04:34:00.000 24.977099197062238
RANGE = 2016-10-15T04:34:00.000 171226457.57340586

ANGLE_1 = 2016-10-15T04:35:00.000 105.44886039396167
ANGLE_2 = 2016-10-15T04:35:00.000 25.183362290082602
RANGE = 2016-10-15T04:35:00.000 171227191.76495805

ANGLE_1 = 2016-10-15T04:36:00.000 105.34608392480881
ANGLE_2 = 2016-10-15T04:36:00.000 25.39027125024384
RANGE = 2016-10-15T04:36:00.000 171227925.88627654

ANGLE_1 = 2016-10-15T04:37:00.000 105.24501011252467
ANGLE_2 = 2016-10-15T04:37:00.000 25.596864763611144
RANGE = 2016-10-15T04:37:00.000 171228660.07598683

ANGLE_1 = 2016-10-15T04:38:00.000 105.14235345351172
ANGLE_2 = 2016-10-15T04:38:00.000 25.803809954802222
RANGE = 2016-10-15T04:38:00.000 171229394.28047714

ANGLE_1 = 2016-10-15T04:39:00.000 105.04037551351415
ANGLE_2 = 2016-10-15T04:39:00.000 26.01073051594535
RANGE = 2016-10-15T04:39:00.000 171230128.51298562

ANGLE_1 = 2016-10-15T04:40:00.000 104.93819693579375
ANGLE_2 = 2016-10-15T04:40:00.000 26.218036356922955
RANGE = 2016-10-15T04:40:00.000 171230862.70874232

ANGLE_1 = 2016-10-15T04:41:00.000 104.8365392927172
ANGLE_2 = 2016-10-15T04:41:00.000 26.425292443013426
RANGE = 2016-10-15T04:41:00.000 171231597.02472523

ANGLE_1 = 2016-10-15T04:42:00.000 104.73500836103014
ANGLE_2 = 2016-10-15T04:42:00.000 26.63228595237179
RANGE = 2016-10-15T04:42:00.000 171232331.28253657

ANGLE_1 = 2016-10-15T04:43:00.000 104.63266425395501
ANGLE_2 = 2016-10-15T04:43:00.000 26.839789493461865
RANGE = 2016-10-15T04:43:00.000 171233065.65359548

ANGLE_1 = 2016-10-15T04:44:00.000 104.5312379499414
ANGLE_2 = 2016-10-15T04:44:00.000 27.046915094811297
RANGE = 2016-10-15T04:44:00.000 171233800.0030992

ANGLE_1 = 2016-10-15T04:45:00.000 104.42924965894058
ANGLE_2 = 2016-10-15T04:45:00.000 27.2544909161481
RANGE = 2016-10-15T04:45:00.000 171234534.38686243

ANGLE_1 = 2016-10-15T04:46:00.000 104.3281425498097
ANGLE_2 = 2016-10-15T04:46:00.000 27.462113904690227
RANGE = 2016-10-15T04:46:00.000 171235268.78883296

ANGLE_1 = 2016-10-15T04:47:00.000 104.2274034842153
ANGLE_2 = 2016-10-15T04:47:00.000 27.669635854458882
RANGE = 2016-10-15T04:47:00.000 171236003.23301682

ANGLE_1 = 2016-10-15T04:48:00.000 104.12436635954579
ANGLE_2 = 2016-10-15T04:48:00.000 27.878085730119242
RANGE = 2016-10-15T04:48:00.000 171236737.68365636

ANGLE_1 = 2016-10-15T04:49:00.000 104.02345841401493
ANGLE_2 = 2016-10-15T04:49:00.000 28.085064891949145
RANGE = 2016-10-15T04:49:00.000 171237472.25374353

ANGLE_1 = 2016-10-15T04:50:00.000 103.92227983880682
ANGLE_2 = 2016-10-15T04:50:00.000 28.2933215828997
RANGE = 2016-10-15T04:50:00.000 171238206.73277974

ANGLE_1 = 2016-10-15T04:51:00.000 103.82085243387645
ANGLE_2 = 2016-10-15T04:51:00.000 28.50190109042254
RANGE = 2016-10-15T04:51:00.000 171238941.2677462

ANGLE_1 = 2016-10-15T04:52:00.000 103.7199182168234
ANGLE_2 = 2016-10-15T04:52:00.000 28.709935110193342
RANGE = 2016-10-15T04:52:00.000 171239675.88138992

ANGLE_1 = 2016-10-15T04:53:00.000 103.61798172384161
ANGLE_2 = 2016-10-15T04:53:00.000 28.91799140026225
RANGE = 2016-10-15T04:53:00.000 171240410.4836184

ANGLE_1 = 2016-10-15T04:54:00.000 103.51648492280454
ANGLE_2 = 2016-10-15T04:54:00.000 29.126209885981453
RANGE = 2016-10-15T04:54:00.000 171241145.11584386

ANGLE_1 = 2016-10-15T04:55:00.000 103.41627028236599
ANGLE_2 = 2016-10-15T04:55:00.000 29.33488931690598
RANGE = 2016-10-15T04:55:00.000 171241879.8259982

ANGLE_1 = 2016-10-15T04:56:00.000 103.31469868902123
ANGLE_2 = 2016-10-15T04:56:00.000 29.54353958204804
RANGE = 2016-10-15T04:56:00.000 171242614.52611297

ANGLE_1 = 2016-10-15T04:57:00.000 103.21331772630465
ANGLE_2 = 2016-10-15T04:57:00.000 29.75182911135625
RANGE = 2016-10-15T04:57:00.000 171243349.24269915

ANGLE_1 = 2016-10-15T04:58:00.000 103.11236869130288
ANGLE_2 = 2016-10-15T04:58:00.000 29.961006615279285
RANGE = 2016-10-15T04:58:00.000 171244084.00467044

ANGLE_1 = 2016-10-15T04:59:00.000 103.0105969053021
ANGLE_2 = 2016-10-15T04:59:00.000 30.169870296232055
RANGE = 2016-10-15T04:59:00.000 171244818.80151227

ANGLE_1 = 2016-10-15T05:00:00.000 102.90978638949937
ANGLE_2 = 2016-10-15T05:00:00.000 30.378136522845043
RANGE = 2016-10-15T05:00:00.000 171245553.65651998

ANGLE_1 = 2016-10-15T05:01:00.000 102.80922572840353
ANGLE_2 = 2016-10-15T05:01:00.000 30.587434564006383
RANGE = 2016-10-15T05:01:00.000 171246288.50398833

ANGLE_1 = 2016-10-15T05:02:00.000 102.70787091896311
ANGLE_2 = 2016-10-15T05:02:00.000 30.796554199255553
RANGE = 2016-10-15T05:02:00.000 171247023.40811446

ANGLE_1 = 2016-10-15T05:03:00.000 102.60693868531389
ANGLE_2 = 2016-10-15T05:03:00.000 31.005640949999204
RANGE = 2016-10-15T05:03:00.000 171247758.34730116

ANGLE_1 = 2016-10-15T05:04:00.000 102.50617590177411
ANGLE_2 = 2016-10-15T05:04:00.000 31.21475886677158
RANGE = 2016-10-15T05:04:00.000 171248493.34216204

ANGLE_1 = 2016-10-15T05:05:00.000 102.4052786866985
ANGLE_2 = 2016-10-15T05:05:00.000 31.423752322216036
RANGE = 2016-10-15T05:05:00.000 171249228.3267032

ANGLE_1 = 2016-10-15T05:06:00.000 102.3038489881947
ANGLE_2 = 2016-10-15T05:06:00.000 31.63334418385378
RANGE = 2016-10-15T05:06:00.000 171249963.35609695

ANGLE_1 = 2016-10-15T05:07:00.000 102.20294203283302
ANGLE_2 = 2016-10-15T05:07:00.000 31.842659396997668
RANGE = 2016-10-15T05:07:00.000 171250698.42883775

ANGLE_1 = 2016-10-15T05:08:00.000 102.10193166771182
ANGLE_2 = 2016-10-15T05:08:00.000 32.05241508959082
RANGE = 2016-10-15T05:08:00.000 171251433.5939798

ANGLE_1 = 2016-10-15T05:09:00.000 102.00093677551956
ANGLE_2 = 2016-10-15T05:09:00.000 32.26144011751175
RANGE = 2016-10-15T05:09:00.000 171252168.69530207

ANGLE_1 = 2016-10-15T05:10:00.000 101.89984424183777
ANGLE_2 = 2016-10-15T05:10:00.000 32.47215318617538
RANGE = 2016-10-15T05:10:00.000 171252903.88630807

ANGLE_1 = 2016-10-15T05:11:00.000 101.79929859560187
ANGLE_2 = 2016-10-15T05:11:00.000 32.6814888874544
RANGE = 2016-10-15T05:11:00.000 171253639.12352982

ANGLE_1 = 2016-10-15T05:12:00.000 101.697729057995
ANGLE_2 = 2016-10-15T05:12:00.000 32.89106234647849
RANGE = 2016-10-15T05:12:00.000 171254374.3787685

ANGLE_1 = 2016-10-15T05:13:00.000 101.59652782428829
ANGLE_2 = 2016-10-15T05:13:00.000 33.10024386187951
RANGE = 2016-10-15T05:13:00.000 171255109.68036518

ANGLE_1 = 2016-10-15T05:14:00.000 101.4963144844846
ANGLE_2 = 2016-10-15T05:14:00.000 33.311895856716355
RANGE = 2016-10-15T05:14:00.000 171255845.04341054

ANGLE_1 = 2016-10-15T05:15:00.000 101.3951294079226
ANGLE_2 = 2016-10-15T05:15:00.000 33.52097946160238
RANGE = 2016-10-15T05:15:00.000 171256580.37994328

ANGLE_1 = 2016-10-15T05:16:00.000 101.29363160584676
ANGLE_2 = 2016-10-15T05:16:00.000 33.73101463583934
RANGE = 2016-10-15T05:16:00.000 171257315.77920082

ANGLE_1 = 2016-10-15T05:17:00.000 101.19379378568759
ANGLE_2 = 2016-10-15T05:17:00.000 33.941964787042195
RANGE = 2016-10-15T05:17:00.000 171258051.27979344

ANGLE_1 = 2016-10-15T05:18:00.000 101.09202198098558
ANGLE_2 = 2016-10-15T05:18:00.000 34.151817183561874
RANGE = 2016-10-15T05:18:00.000 171258786.75238177

ANGLE_1 = 2016-10-15T05:19:00.000 100.99081745649947
ANGLE_2 = 2016-10-15T05:19:00.000 34.362576985463555
RANGE = 2016-10-15T05:19:00.000 171259522.29773855

ANGLE_1 = 2016-10-15T05:20:00.000 100.88940623114522
ANGLE_2 = 2016-10-15T05:20:00.000 34.57276103124197
RANGE = 2016-10-15T05:20:00.000 171260257.8826358

ANGLE_1 = 2016-10-15T05:21:00.000 100.7882842463816
ANGLE_2 = 2016-10-15T05:21:00.000 34.78327291485253
RANGE = 2016-10-15T05:21:00.000 171260993.4998738

ANGLE_1 = 2016-10-15T05:22:00.000 100.68722597058867
ANGLE_2 = 2016-10-15T05:22:00.000 34.99392807541669
RANGE = 2016-10-15T05:22:00.000 171261729.13812864

ANGLE_1 = 2016-10-15T05:23:00.000 100.58506191911681
ANGLE_2 = 2016-10-15T05:23:00.000 35.2042732640887
RANGE = 2016-10-15T05:23:00.000 171262464.8468033

ANGLE_1 = 2016-10-15T05:24:00.000 100.48413466347593
ANGLE_2 = 2016-10-15T05:24:00.000 35.415174725750546
RANGE = 2016-10-15T05:24:00.000 171263200.5775253

ANGLE_1 = 2016-10-15T05:25:00.000 100.38272565171214
ANGLE_2 = 2016-10-15T05:25:00.000 35.62642276321359
RANGE = 2016-10-15T05:25:00.000 171263936.338298

ANGLE_1 = 2016-10-15T05:26:00.000 100.28062973844582
ANGLE_2 = 2016-10-15T05:26:00.000 35.83694535437177
RANGE = 2016-10-15T05:26:00.000 171264672.17501152

ANGLE_1 = 2016-10-15T05:27:00.000 100.17963156291266
ANGLE_2 = 2016-10-15T05:27:00.000 36.048199013968315
RANGE = 2016-10-15T05:27:00.000 171265408.0598387

ANGLE_1 = 2016-10-15T05:28:00.000 100.07749215630294
ANGLE_2 = 2016-10-15T05:28:00.000 36.25852065969384
RANGE = 2016-10-15T05:28:00.000 171266143.91072673

ANGLE_1 = 2016-10-15T05:29:00.000 99.97621537514905
ANGLE_2 = 2016-10-15T05:29:00.000 36.469736573353984
RANGE = 2016-10-15T05:29:00.000 171266879.90653104

ANGLE_1 = 2016-10-15T05:30:00.000 99.87467068720655
ANGLE_2 = 2016-10-15T05:30:00.000 36.68062457129621
RANGE = 2016-10-15T05:30:00.000 171267615.8958633

ANGLE_1 = 2016-10-15T05:31:00.000 99.77228106613482
ANGLE_2 = 2016-10-15T05:31:00.000 36.89220958479234
RANGE = 2016-10-15T05:31:00.000 171268351.91749632

ANGLE_1 = 2016-10-15T05:32:00.000 99.67014530931331
ANGLE_2 = 2016-10-15T05:32:00.000 37.10298190311663
RANGE = 2016-10-15T05:32:00.000 171269088.00675023

ANGLE_1 = 2016-10-15T05:33:00.000 99.56842222200562
ANGLE_2 = 2016-10-15T05:33:00.000 37.314290952532915
RANGE = 2016-10-15T05:33:00.000 171269824.11814025

ANGLE_1 = 2016-10-15T05:34:00.000 99.46680017280231
ANGLE_2 = 2016-10-15T05:34:00.000 37.52634358621039
RANGE = 2016-10-15T05:34:00.000 171270560.34191263

ANGLE_1 = 2016-10-15T05:35:00.000 99.36488226159052
ANGLE_2 = 2016-10-15T05:35:00.000 37.738115773596164
RANGE = 2016-10-15T05:35:00.000 171271296.55572405

ANGLE_1 = 2016-10-15T05:36:00.000 99.26314745473779
ANGLE_2 = 2016-10-15T05:36:00.000 37.948819048324765
RANGE = 2016-10-15T05:36:00.000 171272032.82705885

ANGLE_1 = 2016-10-15T05:37:00.000 99.16016742844603
ANGLE_2 = 2016-10-15T05:37:00.000 38.16075315841425
RANGE = 2016-10-15T05:37:00.000 171272769.1510168

ANGLE_1 = 2016-10-15T05:38:00.000 99.05796238958342
ANGLE_2 = 2016-10-15T05:38:00.000 38.372823545044376
RANGE = 2016-10-15T05:38:00.000 171273505.53321746

ANGLE_1 = 2016-10-15T05:39:00.000 98.95593142041704
ANGLE_2 = 2016-10-15T05:39:00.000 38.58392586005271
RANGE = 2016-10-15T05:39:00.000 171274241.89131522

ANGLE_1 = 2016-10-15T05:40:00.000 98.85284149417963
ANGLE_2 = 2016-10-15T05:40:00.000 38.795798337880626
RANGE = 2016-10-15T05:40:00.000 171274978.37163216

ANGLE_1 = 2016-10-15T05:41:00.000 98.75098164570433
ANGLE_2 = 2016-10-15T05:41:00.000 39.00789237492077
RANGE = 2016-10-15T05:41:00.000 171275714.87961435

ANGLE_1 = 2016-10-15T05:42:00.000 98.64765149223625
ANGLE_2 = 2016-10-15T05:42:00.000 39.21911776990343
RANGE = 2016-10-15T05:42:00.000 171276451.42704007

ANGLE_1 = 2016-10-15T05:43:00.000 98.54447826290533
ANGLE_2 = 2016-10-15T05:43:00.000 39.431731527949495
RANGE = 2016-10-15T05:43:00.000 171277188.0716746

ANGLE_1 = 2016-10-15T05:44:00.000 98.44169238938265
ANGLE_2 = 2016-10-15T05:44:00.000 39.64298329016655
RANGE = 2016-10-15T05:44:00.000 171277924.69717064

ANGLE_1 = 2016-10-15T05:45:00.000 98.33894378819487
ANGLE_2 = 2016-10-15T05:45:00.000 39.85602839655478
RANGE = 2016-10-15T05:45:00.000 171278661.3998726

ANGLE_1 = 2016-10-15T05:46:00.000 98.23513088190268
ANGLE_2 = 2016-10-15T05:46:00.000 40.06728279610194
RANGE = 2016-10-15T05:46:00.000 171279398.17738733

ANGLE_1 = 2016-10-15T05:47:00.000 98.13231672266
ANGLE_2 = 2016-10-15T05:47:00.000 40.279147904998865
RANGE = 2016-10-15T05:47:00.000 171280134.92458817

ANGLE_1 = 2016-10-15T05:48:00.000 98.02890304583104
ANGLE_2 = 2016-10-15T05:48:00.000 40.49177693715181
RANGE = 2016-10-15T05:48:00.000 171280871.7833806

ANGLE_1 = 2016-10-15T05:49:00.000 97.92477793136504
ANGLE_2 = 2016-10-15T05:49:00.000 40.704182684126145
RANGE = 2016-10-15T05:49:00.000 171281608.71397611

ANGLE_1 = 2016-10-15T05:50:00.000 97.82091905683386
ANGLE_2 = 2016-10-15T05:50:00.000 40.91680971262238
RANGE = 2016-10-15T05:50:00.000 171282345.66260275

ANGLE_1 = 2016-10-15T05:51:00.000 97.71753446125808
ANGLE_2 = 2016-10-15T05:51:00.000 41.12876538225296
RANGE = 2016-10-15T05:51:00.000 171283082.67664406

ANGLE_1 = 2016-10-15T05:52:00.000 97.61314640867745
ANGLE_2 = 2016-10-15T05:52:00.000 41.341587388476775
RANGE = 2016-10-15T05:52:00.000 171283819.7009219

ANGLE_1 = 2016-10-15T05:53:00.000 97.50848443126283
ANGLE_2 = 2016-10-15T05:53:00.000 41.553741555198606
RANGE = 2016-10-15T05:53:00.000 171284556.83699483

ANGLE_1 = 2016-10-15T05:54:00.000 97.4043785116597
ANGLE_2 = 2016-10-15T05:54:00.000 41.76628683781874
RANGE = 2016-10-15T05:54:00.000 171285294.0012904

ANGLE_1 = 2016-10-15T05:55:00.000 97.29952720211739
ANGLE_2 = 2016-10-15T05:55:00.000 41.97869878782629
RANGE = 2016-10-15T05:55:00.000 171286031.18367493

ANGLE_1 = 2016-10-15T05:56:00.000 97.19487959897205
ANGLE_2 = 2016-10-15T05:56:00.000 42.19146981839031
RANGE = 2016-10-15T05:56:00.000 171286768.47004804

ANGLE_1 = 2016-10-15T05:57:00.000 97.09065105043852
ANGLE_2 = 2016-10-15T05:57:00.000 42.40445550739508
RANGE = 2016-10-15T05:57:00.000 171287505.78905633

ANGLE_1 = 2016-10-15T05:58:00.000 96.98496328208572
ANGLE_2 = 2016-10-15T05:58:00.000 42.61660090383582
RANGE = 2016-10-15T05:58:00.000 171288243.1613928

ANGLE_1 = 2016-10-15T05:59:00.000 96.88023391586742
ANGLE_2 = 2016-10-15T05:59:00.000 42.82957125442222
RANGE = 2016-10-15T05:59:00.000 171288980.60825413

ANGLE_1 = 2016-10-15T06:00:00.000 96.7746978805764
ANGLE_2 = 2016-10-15T06:00:00.000 43.04304123290508
RANGE = 2016-10-15T06:00:00.000 171289718.08761176

ANGLE_1 = 2016-10-15T06:01:00.000 96.66927658547597
ANGLE_2 = 2016-10-15T06:01:00.000 43.25555642286326
RANGE = 2016-10-15T06:01:00.000 171290455.65091813

ANGLE_1 = 2016-10-15T06:02:00.000 96.56234561977269
ANGLE_2 = 2016-10-15T06:02:00.000 43.46858271699901
RANGE = 2016-10-15T06:02:00.000 171291193.21504378

ANGLE_1 = 2016-10-15T06:03:00.000 96.45743754418929
ANGLE_2 = 2016-10-15T06:03:00.000 43.681436874579944
RANGE = 2016-10-15T06:03:00.000 171291930.84791657

ANGLE_1 = 2016-10-15T06:04:00.000 96.35026941516162
ANGLE_2 = 2016-10-15T06:04:00.000 43.89415600776977
RANGE = 2016-10-15T06:04:00.000 171292668.55889475

ANGLE_1 = 2016-10-15T06:05:00.000 96.24430145262819
ANGLE_2 = 2016-10-15T06:05:00.000 44.106880050666646
RANGE = 2016-10-15T06:05:00.000 171293406.32430944

ANGLE_1 = 2016-10-15T06:06:00.000 96.13758206062505
ANGLE_2 = 2016-10-15T06:06:00.000 44.320667042768655
RANGE = 2016-10-15T06:06:00.000 171294144.09543726

ANGLE_1 = 2016-10-15T06:07:00.000 96.0304114455197
ANGLE_2 = 2016-10-15T06:07:00.000 44.533816381142096
RANGE = 2016-10-15T06:07:00.000 171294882.03686586

ANGLE_1 = 2016-10-15T06:08:00.000 95.9236135650389
ANGLE_2 = 2016-10-15T06:08:00.000 44.746687279536786
RANGE = 2016-10-15T06:08:00.000 171295619.95792496

ANGLE_1 = 2016-10-15T06:09:00.000 95.81640664217629
ANGLE_2 = 2016-10-15T06:09:00.000 44.959837894086824
RANGE = 2016-10-15T06:09:00.000 171296357.93516982

ANGLE_1 = 2016-10-15T06:10:00.000 95.70867282685391
ANGLE_2 = 2016-10-15T06:10:00.000 45.17283416226064
RANGE = 2016-10-15T06:10:00.000 171297095.976739

ANGLE_1 = 2016-10-15T06:11:00.000 95.60145753641208
ANGLE_2 = 2016-10-15T06:11:00.000 45.38697571193873
RANGE = 2016-10-15T06:11:00.000 171297834.06006786

ANGLE_1 = 2016-10-15T06:12:00.000 95.49295752339485
ANGLE_2 = 2016-10-15T06:12:00.000 45.59955597809635
RANGE = 2016-10-15T06:12:00.000 171298572.25820008

ANGLE_1 = 2016-10-15T06:13:00.000 95.3849374586306
ANGLE_2 = 2016-10-15T06:13:00.000 45.81321376858627
RANGE = 2016-10-15T06:13:00.000 171299310.47330555

ANGLE_1 = 2016-10-15T06:14:00.000 95.27613820978603
ANGLE_2 = 2016-10-15T06:14:00.000 46.02745752359249
RANGE = 2016-10-15T06:14:00.000 171300048.74526304

ANGLE_1 = 2016-10-15T06:15:00.000 95.16669557558893
ANGLE_2 = 2016-10-15T06:15:00.000 46.240011568221085
RANGE = 2016-10-15T06:15:00.000 171300787.06297576

ANGLE_1 = 2016-10-15T06:16:00.000 95.0579550115173
ANGLE_2 = 2016-10-15T06:16:00.000 46.45384815279552
RANGE = 2016-10-15T06:16:00.000 171301525.50059503

ANGLE_1 = 2016-10-15T06:17:00.000 94.94849819007511
ANGLE_2 = 2016-10-15T06:17:00.000 46.6667953207424
RANGE = 2016-10-15T06:17:00.000 171302263.94033843

ANGLE_1 = 2016-10-15T06:18:00.000 94.83919139815562
ANGLE_2 = 2016-10-15T06:18:00.000 46.8807986301538
RANGE = 2016-10-15T06:18:00.000 171303002.4822784

ANGLE_1 = 2016-10-15T06:19:00.000 94.72874344970631
ANGLE_2 = 2016-10-15T06:19:00.000 47.09401178895622
RANGE = 2016-10-15T06:19:00.000 171303741.05528882

ANGLE_1 = 2016-10-15T06:20:00.000 94.61888122649238
ANGLE_2 = 2016-10-15T06:20:00.000 47.30722390746639
RANGE = 2016-10-15T06:20:00.000 171304479.70439357

ANGLE_1 = 2016-10-15T06:21:00.000 94.50722212697256
ANGLE_2 = 2016-10-15T06:21:00.000 47.52162773683799
RANGE = 2016-10-15T06:21:00.000 171305218.41479573

ANGLE_1 = 2016-10-15T06:22:00.000 94.39664079780091
ANGLE_2 = 2016-10-15T06:22:00.000 47.7354066215224
RANGE = 2016-10-15T06:22:00.000 171305957.1513787

ANGLE_1 = 2016-10-15T06:23:00.000 94.28614115168172
ANGLE_2 = 2016-10-15T06:23:00.000 47.94875107730396
RANGE = 2016-10-15T06:23:00.000 171306695.96579844

ANGLE_1 = 2016-10-15T06:24:00.000 94.17374659777812
ANGLE_2 = 2016-10-15T06:24:00.000 48.16212913612939
RANGE = 2016-10-15T06:24:00.000 171307434.89553055

ANGLE_1 = 2016-10-15T06:25:00.000 94.06243807423492
ANGLE_2 = 2016-10-15T06:25:00.000 48.37606102447276
RANGE = 2016-10-15T06:25:00.000 171308173.8294795

ANGLE_1 = 2016-10-15T06:26:00.000 93.9497923375092
ANGLE_2 = 2016-10-15T06:26:00.000 48.58969316541525
RANGE = 2016-10-15T06:26:00.000 171308912.83497885

ANGLE_1 = 2016-10-15T06:27:00.000 93.83774078403026
ANGLE_2 = 2016-10-15T06:27:00.000 48.80431337423165
RANGE = 2016-10-15T06:27:00.000 171309651.9014547

ANGLE_1 = 2016-10-15T06:28:00.000 93.7241485060526
ANGLE_2 = 2016-10-15T06:28:00.000 49.01750336106934
RANGE = 2016-10-15T06:28:00.000 171310391.04410154

ANGLE_1 = 2016-10-15T06:29:00.000 93.61142270868913
ANGLE_2 = 2016-10-15T06:29:00.000 49.23218804610333
RANGE = 2016-10-15T06:29:00.000 171311130.26132205

ANGLE_1 = 2016-10-15T06:30:00.000 93.4980946466465
ANGLE_2 = 2016-10-15T06:30:00.000 49.44559633790506
RANGE = 2016-10-15T06:30:00.000 171311869.51401788

ANGLE_1 = 2016-10-15T06:31:00.000 93.38404057707308
ANGLE_2 = 2016-10-15T06:31:00.000 49.66020781074419
RANGE = 2016-10-15T06:31:00.000 171312608.87799704

ANGLE_1 = 2016-10-15T06:32:00.000 93.26908315571438
ANGLE_2 = 2016-10-15T06:32:00.000 49.87343978262798
RANGE = 2016-10-15T06:32:00.000 171313348.24763876

ANGLE_1 = 2016-10-15T06:33:00.000 93.15402239692966
ANGLE_2 = 2016-10-15T06:33:00.000 50.0882356540927
RANGE = 2016-10-15T06:33:00.000 171314087.70338625

ANGLE_1 = 2016-10-15T06:34:00.000 93.03869916207975
ANGLE_2 = 2016-10-15T06:34:00.000 50.30176138082992
RANGE = 2016-10-15T06:34:00.000 171314827.23296112

ANGLE_1 = 2016-10-15T06:35:00.000 92.92303456182054
ANGLE_2 = 2016-10-15T06:35:00.000 50.51626786606416
RANGE = 2016-10-15T06:35:00.000 171315566.8300476

ANGLE_1 = 2016-10-15T06:36:00.000 92.80628996567167
ANGLE_2 = 2016-10-15T06:36:00.000 50.729619108192544
RANGE = 2016-10-15T06:36:00.000 171316306.4785081

ANGLE_1 = 2016-10-15T06:37:00.000 92.69048606337383
ANGLE_2 = 2016-10-15T06:37:00.000 50.94358755200951
RANGE = 2016-10-15T06:37:00.000 171317046.19989467

ANGLE_1 = 2016-10-15T06:38:00.000 92.57386137977052
ANGLE_2 = 2016-10-15T06:38:00.000 51.1579943351045
RANGE = 2016-10-15T06:38:00.000 171317785.99612242

ANGLE_1 = 2016-10-15T06:39:00.000 92.4560705693497
ANGLE_2 = 2016-10-15T06:39:00.000 51.37171502366295
RANGE = 2016-10-15T06:39:00.000 171318525.8391409

ANGLE_1 = 2016-10-15T06:40:00.000 92.33801024001409
ANGLE_2 = 2016-10-15T06:40:00.000 51.58612506655632
RANGE = 2016-10-15T06:40:00.000 171319265.75519842

ANGLE_1 = 2016-10-15T06:41:00.000 92.22023796096313
ANGLE_2 = 2016-10-15T06:41:00.000 51.80045950628956
RANGE = 2016-10-15T06:41:00.000 171320005.77854314

ANGLE_1 = 2016-10-15T06:42:00.000 92.10088638814749
ANGLE_2 = 2016-10-15T06:42:00.000 52.014745841004014
RANGE = 2016-10-15T06:42:00.000 171320745.81327218

ANGLE_1 = 2016-10-15T06:43:00.000 91.98164866973605
ANGLE_2 = 2016-10-15T06:43:00.000 52.229009506064266
RANGE = 2016-10-15T06:43:00.000 171321485.93968734

ANGLE_1 = 2016-10-15T06:44:00.000 91.8618127376523
ANGLE_2 = 2016-10-15T06:44:00.000 52.44332058977417
RANGE = 2016-10-15T06:44:00.000 171322226.13252622

ANGLE_1 = 2016-10-15T06:45:00.000 91.74178759383051
ANGLE_2 = 2016-10-15T06:45:00.000 52.657786945595475
RANGE = 2016-10-15T06:45:00.000 171322966.38130808

ANGLE_1 = 2016-10-15T06:46:00.000 91.62079849897526
ANGLE_2 = 2016-10-15T06:46:00.000 52.87186115598443
RANGE = 2016-10-15T06:46:00.000 171323706.71046042

ANGLE_1 = 2016-10-15T06:47:00.000 91.4995156810765
ANGLE_2 = 2016-10-15T06:47:00.000 53.08611221281769
RANGE = 2016-10-15T06:47:00.000 171324447.11671978

ANGLE_1 = 2016-10-15T06:48:00.000 91.37724931699664
ANGLE_2 = 2016-10-15T06:48:00.000 53.30058959114762
RANGE = 2016-10-15T06:48:00.000 171325187.5671895

ANGLE_1 = 2016-10-15T06:49:00.000 91.25463812275146
ANGLE_2 = 2016-10-15T06:49:00.000 53.51491066848946
RANGE = 2016-10-15T06:49:00.000 171325928.09334227

ANGLE_1 = 2016-10-15T06:50:00.000 91.1313416368916
ANGLE_2 = 2016-10-15T06:50:00.000 53.72846779950772
RANGE = 2016-10-15T06:50:00.000 171326668.69544023

ANGLE_1 = 2016-10-15T06:51:00.000 91.00764460769432
ANGLE_2 = 2016-10-15T06:51:00.000 53.94305195955496
RANGE = 2016-10-15T06:51:00.000 171327409.41193852

ANGLE_1 = 2016-10-15T06:52:00.000 90.88378450505408
ANGLE_2 = 2016-10-15T06:52:00.000 54.15731665816313
RANGE = 2016-10-15T06:52:00.000 171328150.18465823

ANGLE_1 = 2016-10-15T06:53:00.000 90.75926062346888
ANGLE_2 = 2016-10-15T06:53:00.000 54.37204027422572
RANGE = 2016-10-15T06:53:00.000 171328890.93172282

ANGLE_1 = 2016-10-15T06:54:00.000 90.6334535442713
ANGLE_2 = 2016-10-15T06:54:00.000 54.5861166522307
RANGE = 2016-10-15T06:54:00.000 171329631.82517055

ANGLE_1 = 2016-10-15T06:55:00.000 90.5063816971642
ANGLE_2 = 2016-10-15T06:55:00.000 54.800554939287345
RANGE = 2016-10-15T06:55:00.000 171330372.8079804

ANGLE_1 = 2016-10-15T06:56:00.000 90.38050621642851
ANGLE_2 = 2016-10-15T06:56:00.000 55.01484894200476
RANGE = 2016-10-15T06:56:00.000 171331113.85509995

ANGLE_1 = 2016-10-15T06:57:00.000 90.2528271560546
ANGLE_2 = 2016-10-15T06:57:00.000 55.22884370655279
RANGE = 2016-10-15T06:57:00.000 171331854.9494494

ANGLE_1 = 2016-10-15T06:58:00.000 90.12456456107243
ANGLE_2 = 2016-10-15T06:58:00.000 55.44374715028573
RANGE = 2016-10-15T06:58:00.000 171332596.08391693

ANGLE_1 = 2016-10-15T06:59:00.000 89.99477697753254
ANGLE_2 = 2016-10-15T06:59:00.000 55.65723171769545
RANGE = 2016-10-15T06:59:00.000 171333337.3355531

ANGLE_1 = 2016-10-15T07:00:00.000 89.86602846012688
ANGLE_2 = 2016-10-15T07:00:00.000 55.87225045958232
RANGE = 2016-10-15T07:00:00.000 171334078.6713685

ANGLE_1 = 2016-10-15T07:01:00.000 89.73578061031449
ANGLE_2 = 2016-10-15T07:01:00.000 56.086580053718514
RANGE = 2016-10-15T07:01:00.000 171334820.0583896

ANGLE_1 = 2016-10-15T07:02:00.000 89.60453229869789
ANGLE_2 = 2016-10-15T07:02:00.000 56.30110322441949
RANGE = 2016-10-15T07:02:00.000 171335561.5127304

ANGLE_1 = 2016-10-15T07:03:00.000 89.47345955961492
ANGLE_2 = 2016-10-15T07:03:00.000 56.51536148583536
RANGE = 2016-10-15T07:03:00.000 171336303.05298823

ANGLE_1 = 2016-10-15T07:04:00.000 89.34085509685991
ANGLE_2 = 2016-10-15T07:04:00.000 56.729607611267866
RANGE = 2016-10-15T07:04:00.000 171337044.64109492

ANGLE_1 = 2016-10-15T07:05:00.000 89.20707894976451
ANGLE_2 = 2016-10-15T07:05:00.000 56.943765252967616
RANGE = 2016-10-15T07:05:00.000 171337786.34624377

ANGLE_1 = 2016-10-15T07:06:00.000 89.07290294831208
ANGLE_2 = 2016-10-15T07:06:00.000 57.157785858430636
RANGE = 2016-10-15T07:06:00.000 171338528.09197247

ANGLE_1 = 2016-10-15T07:07:00.000 88.93778521443153
ANGLE_2 = 2016-10-15T07:07:00.000 57.37237115490582
RANGE = 2016-10-15T07:07:00.000 171339269.92447007

ANGLE_1 = 2016-10-15T07:08:00.000 88.80214949352651
ANGLE_2 = 2016-10-15T07:08:00.000 57.58666028843445
RANGE = 2016-10-15T07:08:00.000 171340011.84390256

ANGLE_1 = 2016-10-15T07:09:00.000 88.665263031665
ANGLE_2 = 2016-10-15T07:09:00.000 57.80082748508418
RANGE = 2016-10-15T07:09:00.000 171340753.80386305

ANGLE_1 = 2016-10-15T07:10:00.000 88.52779663980638
ANGLE_2 = 2016-10-15T07:10:00.000 58.01503927365364
RANGE = 2016-10-15T07:10:00.000 171341495.86196858

ANGLE_1 = 2016-10-15T07:11:00.000 88.38947206105031
ANGLE_2 = 2016-10-15T07:11:00.000 58.2294947085765
RANGE = 2016-10-15T07:11:00.000 171342237.99447012

ANGLE_1 = 2016-10-15T07:12:00.000 88.25015658595471
ANGLE_2 = 2016-10-15T07:12:00.000 58.443964763633346
RANGE = 2016-10-15T07:12:00.000 171342980.1686412

ANGLE_1 = 2016-10-15T07:13:00.000 88.10980681688086
ANGLE_2 = 2016-10-15T07:13:00.000 58.658317345918775
RANGE = 2016-10-15T07:13:00.000 171343722.46369967

ANGLE_1 = 2016-10-15T07:14:00.000 87.96887243428586
ANGLE_2 = 2016-10-15T07:14:00.000 58.87209037662682
RANGE = 2016-10-15T07:14:00.000 171344464.80733132

ANGLE_1 = 2016-10-15T07:15:00.000 87.82707478775954
ANGLE_2 = 2016-10-15T07:15:00.000 59.0865995655392
RANGE = 2016-10-15T07:15:00.000 171345207.27519965

ANGLE_1 = 2016-10-15T07:16:00.000 87.68278217390117
ANGLE_2 = 2016-10-15T07:16:00.000 59.300402099024744
RANGE = 2016-10-15T07:16:00.000 171345949.76557335

ANGLE_1 = 2016-10-15T07:17:00.000 87.53879677174693
ANGLE_2 = 2016-10-15T07:17:00.000 59.51522120942103
RANGE = 2016-10-15T07:17:00.000 171346692.34934258

ANGLE_1 = 2016-10-15T07:18:00.000 87.39334551315713
ANGLE_2 = 2016-10-15T07:18:00.000 59.729060908154594
RANGE = 2016-10-15T07:18:00.000 171347435.02005163

ANGLE_1 = 2016-10-15T07:19:00.000 87.24730464188887
ANGLE_2 = 2016-10-15T07:19:00.000 59.94295028683021
RANGE = 2016-10-15T07:19:00.000 171348177.74783236

ANGLE_1 = 2016-10-15T07:20:00.000 87.09911123615467
ANGLE_2 = 2016-10-15T07:20:00.000 60.15717950574083
RANGE = 2016-10-15T07:20:00.000 171348920.5307668

ANGLE_1 = 2016-10-15T07:21:00.000 86.95059362771262
ANGLE_2 = 2016-10-15T07:21:00.000 60.37083431877078
RANGE = 2016-10-15T07:21:00.000 171349663.45555636

ANGLE_1 = 2016-10-15T07:22:00.000 86.80090017814835
ANGLE_2 = 2016-10-15T07:22:00.000 60.584881759893754
RANGE = 2016-10-15T07:22:00.000 171350406.4037782

ANGLE_1 = 2016-10-15T07:23:00.000 86.65026299853201
ANGLE_2 = 2016-10-15T07:23:00.000 60.7999023624167
RANGE = 2016-10-15T07:23:00.000 171351149.48021218

ANGLE_1 = 2016-10-15T07:24:00.000 86.49806680760987
ANGLE_2 = 2016-10-15T07:24:00.000 61.013200923224005
RANGE = 2016-10-15T07:24:00.000 171351892.56801456

ANGLE_1 = 2016-10-15T07:25:00.000 86.34442863536664
ANGLE_2 = 2016-10-15T07:25:00.000 61.22707223929833
RANGE = 2016-10-15T07:25:00.000 171352635.79275507

ANGLE_1 = 2016-10-15T07:26:00.000 86.18928129962678
ANGLE_2 = 2016-10-15T07:26:00.000 61.44044289912619
RANGE = 2016-10-15T07:26:00.000 171353379.0558125

ANGLE_1 = 2016-10-15T07:27:00.000 86.03321684648103
ANGLE_2 = 2016-10-15T07:27:00.000 61.654619220589794
RANGE = 2016-10-15T07:27:00.000 171354122.43109748

ANGLE_1 = 2016-10-15T07:28:00.000 85.87615251825201
ANGLE_2 = 2016-10-15T07:28:00.000 61.86901295007538
RANGE = 2016-10-15T07:28:00.000 171354865.85757592

ANGLE_1 = 2016-10-15T07:29:00.000 85.71795109786096
ANGLE_2 = 2016-10-15T07:29:00.000 62.08255556631454
RANGE = 2016-10-15T07:29:00.000 171355609.3922619

ANGLE_1 = 2016-10-15T07:30:00.000 85.5571762489711
ANGLE_2 = 2016-10-15T07:30:00.000 62.295981255731824
RANGE = 2016-10-15T07:30:00.000 171356352.97664922

ANGLE_1 = 2016-10-15T07:31:00.000 85.395901557381
ANGLE_2 = 2016-10-15T07:31:00.000 62.51020989883293
RANGE = 2016-10-15T07:31:00.000 171357096.6467146

ANGLE_1 = 2016-10-15T07:32:00.000 85.23273354370649
ANGLE_2 = 2016-10-15T07:32:00.000 62.72348218001723
RANGE = 2016-10-15T07:32:00.000 171357840.43032062

ANGLE_1 = 2016-10-15T07:33:00.000 85.06828407790299
ANGLE_2 = 2016-10-15T07:33:00.000 62.93664843793922
RANGE = 2016-10-15T07:33:00.000 171358584.26635894

ANGLE_1 = 2016-10-15T07:34:00.000 84.90255851481885
ANGLE_2 = 2016-10-15T07:34:00.000 63.151252748068906
RANGE = 2016-10-15T07:34:00.000 171359328.1645214

ANGLE_1 = 2016-10-15T07:35:00.000 84.73497086412188
ANGLE_2 = 2016-10-15T07:35:00.000 63.36387774553605
RANGE = 2016-10-15T07:35:00.000 171360072.16833553

ANGLE_1 = 2016-10-15T07:36:00.000 84.56482137454178
ANGLE_2 = 2016-10-15T07:36:00.000 63.57784477663896
RANGE = 2016-10-15T07:36:00.000 171360816.22785157

ANGLE_1 = 2016-10-15T07:37:00.000 84.39421623710348
ANGLE_2 = 2016-10-15T07:37:00.000 63.79040077573639
RANGE = 2016-10-15T07:37:00.000 171361560.40156582

ANGLE_1 = 2016-10-15T07:38:00.000 84.22133269754504
ANGLE_2 = 2016-10-15T07:38:00.000 64.00372255148974
RANGE = 2016-10-15T07:38:00.000 171362304.6255347

ANGLE_1 = 2016-10-15T07:39:00.000 84.04722318967822
ANGLE_2 = 2016-10-15T07:39:00.000 64.21692786584376
RANGE = 2016-10-15T07:39:00.000 171363048.94820827

ANGLE_1 = 2016-10-15T07:40:00.000 83.87077530942383
ANGLE_2 = 2016-10-15T07:40:00.000 64.43023752506035
RANGE = 2016-10-15T07:40:00.000 171363793.35412103

ANGLE_1 = 2016-10-15T07:41:00.000 83.6934380264621
ANGLE_2 = 2016-10-15T07:41:00.000 64.64302156939827
RANGE = 2016-10-15T07:41:00.000 171364537.85079828

ANGLE_1 = 2016-10-15T07:42:00.000 83.51318796205283
ANGLE_2 = 2016-10-15T07:42:00.000 64.85632765556731
RANGE = 2016-10-15T07:42:00.000 171365282.38692158

ANGLE_1 = 2016-10-15T07:43:00.000 83.33155822192033
ANGLE_2 = 2016-10-15T07:43:00.000 65.06924570915082
RANGE = 2016-10-15T07:43:00.000 171366027.03349012

ANGLE_1 = 2016-10-15T07:44:00.000 83.14756899386742
ANGLE_2 = 2016-10-15T07:44:00.000 65.28230705278688
RANGE = 2016-10-15T07:44:00.000 171366771.7568162

ANGLE_1 = 2016-10-15T07:45:00.000 82.96078849004255
ANGLE_2 = 2016-10-15T07:45:00.000 65.4950368173325
RANGE = 2016-10-15T07:45:00.000 171367516.5659171

ANGLE_1 = 2016-10-15T07:46:00.000 82.7740463627833
ANGLE_2 = 2016-10-15T07:46:00.000 65.70724645910384
RANGE = 2016-10-15T07:46:00.000 171368261.5005216

ANGLE_1 = 2016-10-15T07:47:00.000 82.583573299414
ANGLE_2 = 2016-10-15T07:47:00.000 65.91969014677414
RANGE = 2016-10-15T07:47:00.000 171369006.43223223

ANGLE_1 = 2016-10-15T07:48:00.000 82.3910396321989
ANGLE_2 = 2016-10-15T07:48:00.000 66.13241391908983
RANGE = 2016-10-15T07:48:00.000 171369751.5239706

ANGLE_1 = 2016-10-15T07:49:00.000 82.19723757650179
ANGLE_2 = 2016-10-15T07:49:00.000 66.34537304952906
RANGE = 2016-10-15T07:49:00.000 171370496.67443717

ANGLE_1 = 2016-10-15T07:50:00.000 82.00102311512788
ANGLE_2 = 2016-10-15T07:50:00.000 66.55764530751466
RANGE = 2016-10-15T07:50:00.000 171371241.8761556

ANGLE_1 = 2016-10-15T07:51:00.000 81.80148392036786
ANGLE_2 = 2016-10-15T07:51:00.000 66.76970195195129
RANGE = 2016-10-15T07:51:00.000 171371987.17354918

ANGLE_1 = 2016-10-15T07:52:00.000 81.59949597936235
ANGLE_2 = 2016-10-15T07:52:00.000 66.98106507125382
RANGE = 2016-10-15T07:52:00.000 171372732.5786623

ANGLE_1 = 2016-10-15T07:53:00.000 81.39540831609773
ANGLE_2 = 2016-10-15T07:53:00.000 67.1939633597664
RANGE = 2016-10-15T07:53:00.000 171373478.05788854

ANGLE_1 = 2016-10-15T07:54:00.000 81.18901169244165
ANGLE_2 = 2016-10-15T07:54:00.000 67.40592612423963
RANGE = 2016-10-15T07:54:00.000 171374223.61854944

ANGLE_1 = 2016-10-15T07:55:00.000 80.9793890136051
ANGLE_2 = 2016-10-15T07:55:00.000 67.61772590456995
RANGE = 2016-10-15T07:55:00.000 171374969.25375587

ANGLE_1 = 2016-10-15T07:56:00.000 80.76643396207211
ANGLE_2 = 2016-10-15T07:56:00.000 67.82892935735522
RANGE = 2016-10-15T07:56:00.000 171375714.97816718

ANGLE_1 = 2016-10-15T07:57:00.000 80.55188921369064
ANGLE_2 = 2016-10-15T07:57:00.000 68.04054007863984
RANGE = 2016-10-15T07:57:00.000 171376460.80300203

ANGLE_1 = 2016-10-15T07:58:00.000 80.33392037827117
ANGLE_2 = 2016-10-15T07:58:00.000 68.25201408874759
RANGE = 2016-10-15T07:58:00.000 171377206.6941593

ANGLE_1 = 2016-10-15T07:59:00.000 80.11234216920813
ANGLE_2 = 2016-10-15T07:59:00.000 68.46339630209344
RANGE = 2016-10-15T07:59:00.000 171377952.6684866

ANGLE_1 = 2016-10-15T08:00:00.000 79.88831283594104
ANGLE_2 = 2016-10-15T08:00:00.000 68.67401898598023
RANGE = 2016-10-15T08:00:00.000 171378698.7580149

ANGLE_1 = 2016-10-15T08:01:00.000 79.66093431555834
ANGLE_2 = 2016-10-15T08:01:00.000 68.88543746008112
RANGE = 2016-10-15T08:01:00.000 171379444.88071838

ANGLE_1 = 2016-10-15T08:02:00.000 79.43071679113194
ANGLE_2 = 2016-10-15T08:02:00.000 69.09551329698138
RANGE = 2016-10-15T08:02:00.000 171380191.11915684

ANGLE_1 = 2016-10-15T08:03:00.000 79.19678144411782
ANGLE_2 = 2016-10-15T08:03:00.000 69.30634971172697
RANGE = 2016-10-15T08:03:00.000 171380937.45267528

ANGLE_1 = 2016-10-15T08:04:00.000 78.9591271539689
ANGLE_2 = 2016-10-15T08:04:00.000 69.51718348291261
RANGE = 2016-10-15T08:04:00.000 171381683.87918648

ANGLE_1 = 2016-10-15T08:05:00.000 78.71891886341868
ANGLE_2 = 2016-10-15T08:05:00.000 69.72760576953782
RANGE = 2016-10-15T08:05:00.000 171382430.36340386

ANGLE_1 = 2016-10-15T08:06:00.000 78.47355133107553
ANGLE_2 = 2016-10-15T08:06:00.000 69.93706689015532
RANGE = 2016-10-15T08:06:00.000 171383176.9659005

ANGLE_1 = 2016-10-15T08:07:00.000 78.225141322653
ANGLE_2 = 2016-10-15T08:07:00.000 70.14714231653295
RANGE = 2016-10-15T08:07:00.000 171383923.6170596

ANGLE_1 = 2016-10-15T08:08:00.000 77.97313256563343
ANGLE_2 = 2016-10-15T08:08:00.000 70.35740180657594
RANGE = 2016-10-15T08:08:00.000 171384670.36560762

ANGLE_1 = 2016-10-15T08:09:00.000 77.7168195378506
ANGLE_2 = 2016-10-15T08:09:00.000 70.56708540122295
RANGE = 2016-10-15T08:09:00.000 171385417.19058156

ANGLE_1 = 2016-10-15T08:10:00.000 77.4558921714806
ANGLE_2 = 2016-10-15T08:10:00.000 70.77668115632886
RANGE = 2016-10-15T08:10:00.000 171386164.10644814

ANGLE_1 = 2016-10-15T08:11:00.000 77.19087807771014
ANGLE_2 = 2016-10-15T08:11:00.000 70.98497317450044
RANGE = 2016-10-15T08:11:00.000 171386911.14002413

ANGLE_1 = 2016-10-15T08:12:00.000 76.92207090296755
ANGLE_2 = 2016-10-15T08:12:00.000 71.19422096606245
RANGE = 2016-10-15T08:12:00.000 171387658.26185188

ANGLE_1 = 2016-10-15T08:13:00.000 76.64765445677673
ANGLE_2 = 2016-10-15T08:13:00.000 71.40272497337422
RANGE = 2016-10-15T08:13:00.000 171388405.4250049

ANGLE_1 = 2016-10-15T08:14:00.000 76.36904593212866
ANGLE_2 = 2016-10-15T08:14:00.000 71.61052554152245
RANGE = 2016-10-15T08:14:00.000 171389152.69064692

ANGLE_1 = 2016-10-15T08:15:00.000 76.08474502100519
ANGLE_2 = 2016-10-15T08:15:00.000 71.81974467578405
RANGE = 2016-10-15T08:15:00.000 171389900.0352886

ANGLE_1 = 2016-10-15T08:16:00.000 75.79564266679914
ANGLE_2 = 2016-10-15T08:16:00.000 72.02663315536253
RANGE = 2016-10-15T08:16:00.000 171390647.4870204

ANGLE_1 = 2016-10-15T08:17:00.000 75.50172069269779
ANGLE_2 = 2016-10-15T08:17:00.000 72.23472784519758
RANGE = 2016-10-15T08:17:00.000 171391395.03927833

ANGLE_1 = 2016-10-15T08:18:00.000 75.2023647931985
ANGLE_2 = 2016-10-15T08:18:00.000 72.44153817196202
RANGE = 2016-10-15T08:18:00.000 171392142.65064567

ANGLE_1 = 2016-10-15T08:19:00.000 74.89767219927099
ANGLE_2 = 2016-10-15T08:19:00.000 72.6488223500796
RANGE = 2016-10-15T08:19:00.000 171392890.3896404

ANGLE_1 = 2016-10-15T08:20:00.000 74.58609475915067
ANGLE_2 = 2016-10-15T08:20:00.000 72.85539577023728
RANGE = 2016-10-15T08:20:00.000 171393638.16869548

ANGLE_1 = 2016-10-15T08:21:00.000 74.26915522229
ANGLE_2 = 2016-10-15T08:21:00.000 73.0621737580365
RANGE = 2016-10-15T08:21:00.000 171394386.05812722

ANGLE_1 = 2016-10-15T08:22:00.000 73.94614529631234
ANGLE_2 = 2016-10-15T08:22:00.000 73.26780682318474
RANGE = 2016-10-15T08:22:00.000 171395134.04522124

ANGLE_1 = 2016-10-15T08:23:00.000 73.61606349908747
ANGLE_2 = 2016-10-15T08:23:00.000 73.47446890812257
RANGE = 2016-10-15T08:23:00.000 171395882.0948091

ANGLE_1 = 2016-10-15T08:24:00.000 73.27971879092475
ANGLE_2 = 2016-10-15T08:24:00.000 73.67961156420628
RANGE = 2016-10-15T08:24:00.000 171396630.22713584

ANGLE_1 = 2016-10-15T08:25:00.000 72.93640809963946
ANGLE_2 = 2016-10-15T08:25:00.000 73.88497051599417
RANGE = 2016-10-15T08:25:00.000 171397378.49022138

ANGLE_1 = 2016-10-15T08:26:00.000 72.58594970921922
ANGLE_2 = 2016-10-15T08:26:00.000 74.08951365557242
RANGE = 2016-10-15T08:26:00.000 171398126.8206567

ANGLE_1 = 2016-10-15T08:27:00.000 72.22803516483431
ANGLE_2 = 2016-10-15T08:27:00.000 74.29438270390942
RANGE = 2016-10-15T08:27:00.000 171398875.25691205

ANGLE_1 = 2016-10-15T08:28:00.000 71.86130728558238
ANGLE_2 = 2016-10-15T08:28:00.000 74.49809978245139
RANGE = 2016-10-15T08:28:00.000 171399623.73621354

ANGLE_1 = 2016-10-15T08:29:00.000 71.48763722638829
ANGLE_2 = 2016-10-15T08:29:00.000 74.70139382195069
RANGE = 2016-10-15T08:29:00.000 171400372.321577

ANGLE_1 = 2016-10-15T08:30:00.000 71.10548495230407
ANGLE_2 = 2016-10-15T08:30:00.000 74.9041324679458
RANGE = 2016-10-15T08:30:00.000 171401121.0279582

ANGLE_1 = 2016-10-15T08:31:00.000 70.71423191760294
ANGLE_2 = 2016-10-15T08:31:00.000 75.10626453249512
RANGE = 2016-10-15T08:31:00.000 171401869.8399162

ANGLE_1 = 2016-10-15T08:32:00.000 70.31393338323964
ANGLE_2 = 2016-10-15T08:32:00.000 75.30909972819683
RANGE = 2016-10-15T08:32:00.000 171402618.65750402

ANGLE_1 = 2016-10-15T08:33:00.000 69.90393633484544
ANGLE_2 = 2016-10-15T08:33:00.000 75.51009193435348
RANGE = 2016-10-15T08:33:00.000 171403367.62700203

ANGLE_1 = 2016-10-15T08:34:00.000 69.48553416200865
ANGLE_2 = 2016-10-15T08:34:00.000 75.71115495964864
RANGE = 2016-10-15T08:34:00.000 171404116.67763168

ANGLE_1 = 2016-10-15T08:35:00.000 69.05664739333655
ANGLE_2 = 2016-10-15T08:35:00.000 75.9117775598591
RANGE = 2016-10-15T08:35:00.000 171404865.82582283

ANGLE_1 = 2016-10-15T08:36:00.000 68.61578745096553
ANGLE_2 = 2016-10-15T08:36:00.000 76.11232032450927
RANGE = 2016-10-15T08:36:00.000 171405615.00246692

ANGLE_1 = 2016-10-15T08:37:00.000 68.164572590502
ANGLE_2 = 2016-10-15T08:37:00.000 76.31123484634979
RANGE = 2016-10-15T08:37:00.000 171406364.3479777

ANGLE_1 = 2016-10-15T08:38:00.000 67.70159465614579
ANGLE_2 = 2016-10-15T08:38:00.000 76.50929365639695
RANGE = 2016-10-15T08:38:00.000 171407113.71816117

ANGLE_1 = 2016-10-15T08:39:00.000 67.22857407701244
ANGLE_2 = 2016-10-15T08:39:00.000 76.70740635820616
RANGE = 2016-10-15T08:39:00.000 171407863.21976948

ANGLE_1 = 2016-10-15T08:40:00.000 66.73991949635622
ANGLE_2 = 2016-10-15T08:40:00.000 76.90506849039696
RANGE = 2016-10-15T08:40:00.000 171408612.82735014

ANGLE_1 = 2016-10-15T08:41:00.000 66.24166389341704
ANGLE_2 = 2016-10-15T08:41:00.000 77.10162265793845
RANGE = 2016-10-15T08:41:00.000 171409362.51932523

ANGLE_1 = 2016-10-15T08:42:00.000 65.72757647735945
ANGLE_2 = 2016-10-15T08:42:00.000 77.29697493130712
RANGE = 2016-10-15T08:42:00.000 171410112.25896934

ANGLE_1 = 2016-10-15T08:43:00.000 65.20030084691653
ANGLE_2 = 2016-10-15T08:43:00.000 77.49238847939792
RANGE = 2016-10-15T08:43:00.000 171410862.10982412

ANGLE_1 = 2016-10-15T08:44:00.000 64.65797490112442
ANGLE_2 = 2016-10-15T08:44:00.000 77.68619651089672
RANGE = 2016-10-15T08:44:00.000 171411612.03519416

ANGLE_1 = 2016-10-15T08:45:00.000 64.10062815499137
ANGLE_2 = 2016-10-15T08:45:00.000 77.87964134607314
RANGE = 2016-10-15T08:45:00.000 171412362.05407545

ANGLE_1 = 2016-10-15T08:46:00.000 63.527269919874904
ANGLE_2 = 2016-10-15T08:46:00.000 78.07188702619914
RANGE = 2016-10-15T08:46:00.000 171413112.21889815

ANGLE_1 = 2016-10-15T08:47:00.000 62.93679842809274
ANGLE_2 = 2016-10-15T08:47:00.000 78.26319503627195
RANGE = 2016-10-15T08:47:00.000 171413862.38279775

ANGLE_1 = 2016-10-15T08:48:00.000 62.32952845192657
ANGLE_2 = 2016-10-15T08:48:00.000 78.45327226041793
RANGE = 2016-10-15T08:48:00.000 171414612.7293881

ANGLE_1 = 2016-10-15T08:49:00.000 61.70294900028389
ANGLE_2 = 2016-10-15T08:49:00.000 78.64245336045349
RANGE = 2016-10-15T08:49:00.000 171415363.12527823

ANGLE_1 = 2016-10-15T08:50:00.000 61.05841486383623
ANGLE_2 = 2016-10-15T08:50:00.000 78.83140325333345
RANGE = 2016-10-15T08:50:00.000 171416113.62807426

ANGLE_1 = 2016-10-15T08:51:00.000 60.39369944445723
ANGLE_2 = 2016-10-15T08:51:00.000 79.01793388488974
RANGE = 2016-10-15T08:51:00.000 171416864.2372888

ANGLE_1 = 2016-10-15T08:52:00.000 59.70794045326091
ANGLE_2 = 2016-10-15T08:52:00.000 79.20414109517442
RANGE = 2016-10-15T08:52:00.000 171417614.88082632

ANGLE_1 = 2016-10-15T08:53:00.000 59.00043043184174
ANGLE_2 = 2016-10-15T08:53:00.000 79.38797607561533
RANGE = 2016-10-15T08:53:00.000 171418365.6376311

ANGLE_1 = 2016-10-15T08:54:00.000 58.2701129713242
ANGLE_2 = 2016-10-15T08:54:00.000 79.57134724439877
RANGE = 2016-10-15T08:54:00.000 171419116.53083542

ANGLE_1 = 2016-10-15T08:55:00.000 57.51600574179136
ANGLE_2 = 2016-10-15T08:55:00.000 79.75305294698818
RANGE = 2016-10-15T08:55:00.000 171419867.4587756

ANGLE_1 = 2016-10-15T08:56:00.000 56.737607320342526
ANGLE_2 = 2016-10-15T08:56:00.000 79.93242855213221
RANGE = 2016-10-15T08:56:00.000 171420618.49668705

ANGLE_1 = 2016-10-15T08:57:00.000 55.93277139031228
ANGLE_2 = 2016-10-15T08:57:00.000 80.11097531579048
RANGE = 2016-10-15T08:57:00.000 171421369.64070854

ANGLE_1 = 2016-10-15T08:58:00.000 55.10142755614403
ANGLE_2 = 2016-10-15T08:58:00.000 80.28775368291232
RANGE = 2016-10-15T08:58:00.000 171422120.853108

ANGLE_1 = 2016-10-15T08:59:00.000 54.2401764515097
ANGLE_2 = 2016-10-15T08:59:00.000 80.46275271706874
RANGE = 2016-10-15T08:59:00.000 171422872.1512045

ANGLE_1 = 2016-10-15T09:00:00.000 53.34960480775355
ANGLE_2 = 2016-10-15T09:00:00.000 80.63514842030973
RANGE = 2016-10-15T09:00:00.000 171423623.5631447

ANGLE_1 = 2016-10-15T09:01:00.000 52.42890725952289
ANGLE_2 = 2016-10-15T09:01:00.000 80.80626169672409
RANGE = 2016-10-15T09:01:00.000 171424375.07158265

ANGLE_1 = 2016-10-15T09:02:00.000 51.47565834593926
ANGLE_2 = 2016-10-15T09:02:00.000 80.97516462578434
RANGE = 2016-10-15T09:02:00.000 171425126.6616363

ANGLE_1 = 2016-10-15T09:03:00.000 50.48819747191603
ANGLE_2 = 2016-10-15T09:03:00.000 81.14174255172256
RANGE = 2016-10-15T09:03:00.000 171425878.32426962

ANGLE_1 = 2016-10-15T09:04:00.000 49.466158540665774
ANGLE_2 = 2016-10-15T09:04:00.000 81.30615309325408
RANGE = 2016-10-15T09:04:00.000 171426630.10280383

ANGLE_1 = 2016-10-15T09:05:00.000 48.407164714887834
ANGLE_2 = 2016-10-15T09:05:00.000 81.46710120798156
RANGE = 2016-10-15T09:05:00.000 171427381.95082495

ANGLE_1 = 2016-10-15T09:06:00.000 47.30949066352333
ANGLE_2 = 2016-10-15T09:06:00.000 81.62611395101108
RANGE = 2016-10-15T09:06:00.000 171428133.9295317

ANGLE_1 = 2016-10-15T09:07:00.000 46.173267843391216
ANGLE_2 = 2016-10-15T09:07:00.000 81.7819625915614
RANGE = 2016-10-15T09:07:00.000 171428885.94983533

ANGLE_1 = 2016-10-15T09:08:00.000 44.99397768475658
ANGLE_2 = 2016-10-15T09:08:00.000 81.93536626578957
RANGE = 2016-10-15T09:08:00.000 171429638.10238814

ANGLE_1 = 2016-10-15T09:09:00.000 43.7740303633917
ANGLE_2 = 2016-10-15T09:09:00.000 82.08468912726597
RANGE = 2016-10-15T09:09:00.000 171430390.35154676

ANGLE_1 = 2016-10-15T09:10:00.000 42.50832022874118
ANGLE_2 = 2016-10-15T09:10:00.000 82.23226843470823
RANGE = 2016-10-15T09:10:00.000 171431142.6550557

ANGLE_1 = 2016-10-15T09:11:00.000 41.19767786084492
ANGLE_2 = 2016-10-15T09:11:00.000 82.37453257175392
RANGE = 2016-10-15T09:11:00.000 171431895.10595727

ANGLE_1 = 2016-10-15T09:12:00.000 39.83954940952027
ANGLE_2 = 2016-10-15T09:12:00.000 82.51388848334746
RANGE = 2016-10-15T09:12:00.000 171432647.58210313

ANGLE_1 = 2016-10-15T09:13:00.000 38.434047635178125
ANGLE_2 = 2016-10-15T09:13:00.000 82.64958493556529
RANGE = 2016-10-15T09:13:00.000 171433400.2100077

ANGLE_1 = 2016-10-15T09:14:00.000 36.97677236939275
ANGLE_2 = 2016-10-15T09:14:00.000 82.78009101677593
RANGE = 2016-10-15T09:14:00.000 171434152.90417293

ANGLE_1 = 2016-10-15T09:15:00.000 35.469951060774285
ANGLE_2 = 2016-10-15T09:15:00.000 82.9069272878573
RANGE = 2016-10-15T09:15:00.000 171434905.68594027

ANGLE_1 = 2016-10-15T09:16:00.000 33.91149556279857
ANGLE_2 = 2016-10-15T09:16:00.000 83.02846862366155
RANGE = 2016-10-15T09:16:00.000 171435658.57052994

ANGLE_1 = 2016-10-15T09:17:00.000 32.3015905157756
ANGLE_2 = 2016-10-15T09:17:00.000 83.1455971954679
RANGE = 2016-10-15T09:17:00.000 171436411.53359193

ANGLE_1 = 2016-10-15T09:18:00.000 30.638018847691804
ANGLE_2 = 2016-10-15T09:18:00.000 83.25774943914622
RANGE = 2016-10-15T09:18:00.000 171437164.6176675

ANGLE_1 = 2016-10-15T09:19:00.000 28.92247038262294
ANGLE_2 = 2016-10-15T09:19:00.000 83.36420287317816
RANGE = 2016-10-15T09:19:00.000 171437917.79518506

ANGLE_1 = 2016-10-15T09:20:00.000 27.154045447239174
ANGLE_2 = 2016-10-15T09:20:00.000 83.4647264485167
RANGE = 2016-10-15T09:20:00.000 171438671.04961342

ANGLE_1 = 2016-10-15T09:21:00.000 25.33405419689807
ANGLE_2 = 2016-10-15T09:21:00.000 83.55949630808641
RANGE = 2016-10-15T09:21:00.000 171439424.36119056

ANGLE_1 = 2016-10-15T09:22:00.000 23.46333361622617
ANGLE_2 = 2016-10-15T09:22:00.000 83.6482941268349
RANGE = 2016-10-15T09:22:00.000 171440177.81862804

ANGLE_1 = 2016-10-15T09:23:00.000 21.542737539715233
ANGLE_2 = 2016-10-15T09:23:00.000 83.73009728864608
RANGE = 2016-10-15T09:23:00.000 171440931.33742046

ANGLE_1 = 2016-10-15T09:24:00.000 19.576048478895178
ANGLE_2 = 2016-10-15T09:24:00.000 83.80522674882418
RANGE = 2016-10-15T09:24:00.000 171441684.94961193

ANGLE_1 = 2016-10-15T09:25:00.000 17.564215504065356
ANGLE_2 = 2016-10-15T09:25:00.000 83.87318116603392
RANGE = 2016-10-15T09:25:00.000 171442438.63591406

ANGLE_1 = 2016-10-15T09:26:00.000 15.50996381095155
ANGLE_2 = 2016-10-15T09:26:00.000 83.93448262150396
RANGE = 2016-10-15T09:26:00.000 171443192.473903

ANGLE_1 = 2016-10-15T09:27:00.000 13.418941724357932
ANGLE_2 = 2016-10-15T09:27:00.000 83.98791631508941
RANGE = 2016-10-15T09:27:00.000 171443946.4020281

ANGLE_1 = 2016-10-15T09:28:00.000 11.293913592398498
ANGLE_2 = 2016-10-15T09:28:00.000 84.03380940908525
RANGE = 2016-10-15T09:28:00.000 171444700.34695914

ANGLE_1 = 2016-10-15T09:29:00.000 9.139207267604267
ANGLE_2 = 2016-10-15T09:29:00.000 84.07176226593585
RANGE = 2016-10-15T09:29:00.000 171445454.45604053

ANGLE_1 = 2016-10-15T09:30:00.000 6.961096930258517
ANGLE_2 = 2016-10-15T09:30:00.000 84.10166421843172
RANGE = 2016-10-15T09:30:00.000 171446208.65020037

ANGLE_1 = 2016-10-15T09:31:00.000 4.763486276966803
ANGLE_2 = 2016-10-15T09:31:00.000 84.12362153921316
RANGE = 2016-10-15T09:31:00.000 171446962.882009

ANGLE_1 = 2016-10-15T09:32:00.000 2.553438711802413
ANGLE_2 = 2016-10-15T09:32:00.000 84.13707048837055
RANGE = 2016-10-15T09:32:00.000 171447717.2851539

ANGLE_1 = 2016-10-15T09:33:00.000 0.3360008589685507
ANGLE_2 = 2016-10-15T09:33:00.000 84.14208394586494
RANGE = 2016-10-15T09:33:00.000 171448471.7471409

ANGLE_1 = 2016-10-15T09:34:00.000 358.11828193128434
ANGLE_2 = 2016-10-15T09:34:00.000 84.1395544340561
RANGE = 2016-10-15T09:34:00.000 171449226.30747706

ANGLE_1 = 2016-10-15T09:35:00.000 355.9052659914614
ANGLE_2 = 2016-10-15T09:35:00.000 84.1281493209815
RANGE = 2016-10-15T09:35:00.000 171449980.96328756

ANGLE_1 = 2016-10-15T09:36:00.000 353.7044206769347
ANGLE_2 = 2016-10-15T09:36:00.000 84.10894836735298
RANGE = 2016-10-15T09:36:00.000 171450735.69183886

ANGLE_1 = 2016-10-15T09:37:00.000 351.51979405270856
ANGLE_2 = 2016-10-15T09:37:00.000 84.08048141736748
RANGE = 2016-10-15T09:37:00.000 171451490.47863513

ANGLE_1 = 2016-10-15T09:38:00.000 349.3573986092885
ANGLE_2 = 2016-10-15T09:38:00.000 84.04542283362244
RANGE = 2016-10-15T09:38:00.000 171452245.42585132

ANGLE_1 = 2016-10-15T09:39:00.000 347.2243051686908
ANGLE_2 = 2016-10-15T09:39:00.000 84.00179304831101
RANGE = 2016-10-15T09:39:00.000 171453000.43847147

ANGLE_1 = 2016-10-15T09:40:00.000 345.12202854378853
ANGLE_2 = 2016-10-15T09:40:00.000 83.95014536192903
RANGE = 2016-10-15T09:40:00.000 171453755.5569691

ANGLE_1 = 2016-10-15T09:41:00.000 343.05823900125137
ANGLE_2 = 2016-10-15T09:41:00.000 83.89138836214217
RANGE = 2016-10-15T09:41:00.000 171454510.75881928

ANGLE_1 = 2016-10-15T09:42:00.000 341.034035863183
ANGLE_2 = 2016-10-15T09:42:00.000 83.82547191111732
RANGE = 2016-10-15T09:42:00.000 171455266.07205856

ANGLE_1 = 2016-10-15T09:43:00.000 339.0534522345347
ANGLE_2 = 2016-10-15T09:43:00.000 83.75260925332373
RANGE = 2016-10-15T09:43:00.000 171456021.43832466

ANGLE_1 = 2016-10-15T09:44:00.000 337.1195954036135
ANGLE_2 = 2016-10-15T09:44:00.000 83.67227241451901
RANGE = 2016-10-15T09:44:00.000 171456776.88301694

ANGLE_1 = 2016-10-15T09:45:00.000 335.2343749645266
ANGLE_2 = 2016-10-15T09:45:00.000 83.58498105791365
RANGE = 2016-10-15T09:45:00.000 171457532.47713873

ANGLE_1 = 2016-10-15T09:46:00.000 333.3995829141656
ANGLE_2 = 2016-10-15T09:46:00.000 83.49235442672338
RANGE = 2016-10-15T09:46:00.000 171458288.15482137

ANGLE_1 = 2016-10-15T09:47:00.000 331.61634841258285
ANGLE_2 = 2016-10-15T09:47:00.000 83.39326721475624
RANGE = 2016-10-15T09:47:00.000 171459043.92608732

ANGLE_1 = 2016-10-15T09:48:00.000 329.8852700581459
ANGLE_2 = 2016-10-15T09:48:00.000 83.2882163843413
RANGE = 2016-10-15T09:48:00.000 171459799.7405787

ANGLE_1 = 2016-10-15T09:49:00.000 328.2075330892557
ANGLE_2 = 2016-10-15T09:49:00.000 83.17842483405481
RANGE = 2016-10-15T09:49:00.000 171460555.7001702

ANGLE_1 = 2016-10-15T09:50:00.000 326.5817776959567
ANGLE_2 = 2016-10-15T09:50:00.000 83.06187405031227
RANGE = 2016-10-15T09:50:00.000 171461311.7395701

ANGLE_1 = 2016-10-15T09:51:00.000 325.00877156594123
ANGLE_2 = 2016-10-15T09:51:00.000 82.94188995241582
RANGE = 2016-10-15T09:51:00.000 171462067.8563712

ANGLE_1 = 2016-10-15T09:52:00.000 323.48725015661324
ANGLE_2 = 2016-10-15T09:52:00.000 82.81628467775636
RANGE = 2016-10-15T09:52:00.000 171462824.07680592

ANGLE_1 = 2016-10-15T09:53:00.000 322.0169201921336
ANGLE_2 = 2016-10-15T09:53:00.000 82.68698554937934
RANGE = 2016-10-15T09:53:00.000 171463580.38745132

ANGLE_1 = 2016-10-15T09:54:00.000 320.59666800898077
ANGLE_2 = 2016-10-15T09:54:00.000 82.55286130114338
RANGE = 2016-10-15T09:54:00.000 171464336.79384914

ANGLE_1 = 2016-10-15T09:55:00.000 319.2249739885701
ANGLE_2 = 2016-10-15T09:55:00.000 82.41465739193107
RANGE = 2016-10-15T09:55:00.000 171465093.30309102

ANGLE_1 = 2016-10-15T09:56:00.000 317.9007053241235
ANGLE_2 = 2016-10-15T09:56:00.000 82.27233558068382
RANGE = 2016-10-15T09:56:00.000 171465849.85656038

ANGLE_1 = 2016-10-15T09:57:00.000 316.6225442199221
ANGLE_2 = 2016-10-15T09:57:00.000 82.12649010623186
RANGE = 2016-10-15T09:57:00.000 171466606.57777944

ANGLE_1 = 2016-10-15T09:58:00.000 315.38877911672597
ANGLE_2 = 2016-10-15T09:58:00.000 81.97788993659819
RANGE = 2016-10-15T09:58:00.000 171467363.32698953

ANGLE_1 = 2016-10-15T09:59:00.000 314.19908159146246
ANGLE_2 = 2016-10-15T09:59:00.000 81.82602850606531
RANGE = 2016-10-15T09:59:00.000 171468120.18584675

ANGLE_1 = 2016-10-15T10:00:00.000 313.05051815409627
ANGLE_2 = 2016-10-15T10:00:00.000 81.67091157259222
RANGE = 2016-10-15T10:00:00.000 171468877.16445354

ANGLE_1 = 2016-10-15T10:01:00.000 311.9417219961486
ANGLE_2 = 2016-10-15T10:01:00.000 81.51269868966301
RANGE = 2016-10-15T10:01:00.000 171469634.255033

ANGLE_1 = 2016-10-15T10:02:00.000 310.87233720447546
ANGLE_2 = 2016-10-15T10:02:00.000 81.35196244627097
RANGE = 2016-10-15T10:02:00.000 171470391.3674695

ANGLE_1 = 2016-10-15T10:03:00.000 309.8395768999599
ANGLE_2 = 2016-10-15T10:03:00.000 81.18819759133397
RANGE = 2016-10-15T10:03:00.000 171471148.60051024

ANGLE_1 = 2016-10-15T10:04:00.000 308.842534705247
ANGLE_2 = 2016-10-15T10:04:00.000 81.02242162620243
RANGE = 2016-10-15T10:04:00.000 171471905.9176173

ANGLE_1 = 2016-10-15T10:05:00.000 307.87946177732596
ANGLE_2 = 2016-10-15T10:05:00.000 80.85449751464176
RANGE = 2016-10-15T10:05:00.000 171472663.344601

ANGLE_1 = 2016-10-15T10:06:00.000 306.94978862110224
ANGLE_2 = 2016-10-15T10:06:00.000 80.68415151789125
RANGE = 2016-10-15T10:06:00.000 171473420.8801132

ANGLE_1 = 2016-10-15T10:07:00.000 306.05117501145685
ANGLE_2 = 2016-10-15T10:07:00.000 80.51187894175182
RANGE = 2016-10-15T10:07:00.000 171474178.45599982

ANGLE_1 = 2016-10-15T10:08:00.000 305.18244569874423
ANGLE_2 = 2016-10-15T10:08:00.000 80.33777096987141
RANGE = 2016-10-15T10:08:00.000 171474936.1654207

ANGLE_1 = 2016-10-15T10:09:00.000 304.3421754085381
ANGLE_2 = 2016-10-15T10:09:00.000 80.16121832733165
RANGE = 2016-10-15T10:09:00.000 171475693.9595963

ANGLE_1 = 2016-10-15T10:10:00.000 303.5290914933015
ANGLE_2 = 2016-10-15T10:10:00.000 79.98379782977746
RANGE = 2016-10-15T10:10:00.000 171476451.84365135

ANGLE_1 = 2016-10-15T10:11:00.000 302.74374532529373
ANGLE_2 = 2016-10-15T10:11:00.000 79.80399968344044
RANGE = 2016-10-15T10:11:00.000 171477209.83343983

ANGLE_1 = 2016-10-15T10:12:00.000 301.9829341443462
ANGLE_2 = 2016-10-15T10:12:00.000 79.62272495460523
RANGE = 2016-10-15T10:12:00.000 171477967.86223143

ANGLE_1 = 2016-10-15T10:13:00.000 301.24576387135664
ANGLE_2 = 2016-10-15T10:13:00.000 79.44025198910798
RANGE = 2016-10-15T10:13:00.000 171478726.01198253

ANGLE_1 = 2016-10-15T10:14:00.000 300.5317693142088
ANGLE_2 = 2016-10-15T10:14:00.000 79.2568293750462
RANGE = 2016-10-15T10:14:00.000 171479484.2546418

ANGLE_1 = 2016-10-15T10:15:00.000 299.8393749837318
ANGLE_2 = 2016-10-15T10:15:00.000 79.07033161426823
RANGE = 2016-10-15T10:15:00.000 171480242.6181593

ANGLE_1 = 2016-10-15T10:16:00.000 299.16980836837024
ANGLE_2 = 2016-10-15T10:16:00.000 78.88390072819669
RANGE = 2016-10-15T10:16:00.000 171481001.0254766

ANGLE_1 = 2016-10-15T10:17:00.000 298.5187225915321
ANGLE_2 = 2016-10-15T10:17:00.000 78.6963727121321
RANGE = 2016-10-15T10:17:00.000 171481759.61986

ANGLE_1 = 2016-10-15T10:18:00.000 297.8877999395061
ANGLE_2 = 2016-10-15T10:18:00.000 78.50702756148245
RANGE = 2016-10-15T10:18:00.000 171482518.1685756

ANGLE_1 = 2016-10-15T10:19:00.000 297.27519240385493
ANGLE_2 = 2016-10-15T10:19:00.000 78.31749006400716
RANGE = 2016-10-15T10:19:00.000 171483276.84949768

ANGLE_1 = 2016-10-15T10:20:00.000 296.68010352384124
ANGLE_2 = 2016-10-15T10:20:00.000 78.12619563793423
RANGE = 2016-10-15T10:20:00.000 171484035.71345344

ANGLE_1 = 2016-10-15T10:21:00.000 296.1013806929124
