2nd Assignment - Navigation/tdm/NEW_NORCIA_EXM_20161013T041139_20161013T145918.tdm

CCSDS_TDM_VERS = 2.0

COMMENT This TDM contains synthetic data, not from real observations

CREATION_DATE = 2021-11-26T14:48:46.610822
ORIGINATOR = POLIMI-DAER

META_START
TIME_SYSTEM = UTC
START_TIME = 2016-10-13T04:11:39.820
STOP_TIME = 2016-10-13T14:59:18.601
PARTICIPANT_1 = NEW_NORCIA
PARTICIPANT_2 = EXM
MODE = SEQUENTIAL
PATH = 1,2,1
RANGE_UNITS = km
ANGLE_TYPE = AZEL
META_STOP

DATA_START

ANGLE_1 = 2016-10-13T04:11:39.820 108.31918989202381
ANGLE_2 = 2016-10-13T04:11:39.820 19.99980513363972
RANGE = 2016-10-13T04:11:39.820 169029425.50244802

ANGLE_1 = 2016-10-13T04:12:00.000 108.28387344312925
ANGLE_2 = 2016-10-13T04:12:00.000 20.06875891863849
RANGE = 2016-10-13T04:12:00.000 169029673.74051535

ANGLE_1 = 2016-10-13T04:13:00.000 108.18008143120727
ANGLE_2 = 2016-10-13T04:13:00.000 20.271586485730463
RANGE = 2016-10-13T04:13:00.000 169030411.7790962

ANGLE_1 = 2016-10-13T04:14:00.000 108.075260432264
ANGLE_2 = 2016-10-13T04:14:00.000 20.475799343289165
RANGE = 2016-10-13T04:14:00.000 169031149.80075288

ANGLE_1 = 2016-10-13T04:15:00.000 107.97088985066083
ANGLE_2 = 2016-10-13T04:15:00.000 20.679663585850456
RANGE = 2016-10-13T04:15:00.000 169031887.90842727

ANGLE_1 = 2016-10-13T04:16:00.000 107.86706759254679
ANGLE_2 = 2016-10-13T04:16:00.000 20.883312758025195
RANGE = 2016-10-13T04:16:00.000 169032625.97097006

ANGLE_1 = 2016-10-13T04:17:00.000 107.76317015306127
ANGLE_2 = 2016-10-13T04:17:00.000 21.087459846731534
RANGE = 2016-10-13T04:17:00.000 169033364.0959025

ANGLE_1 = 2016-10-13T04:18:00.000 107.65919425167253
ANGLE_2 = 2016-10-13T04:18:00.000 21.291762190018233
RANGE = 2016-10-13T04:18:00.000 169034102.19633695

ANGLE_1 = 2016-10-13T04:19:00.000 107.55496039228603
ANGLE_2 = 2016-10-13T04:19:00.000 21.49551145327403
RANGE = 2016-10-13T04:19:00.000 169034840.34026468

ANGLE_1 = 2016-10-13T04:20:00.000 107.45151078752968
ANGLE_2 = 2016-10-13T04:20:00.000 21.700751267810666
RANGE = 2016-10-13T04:20:00.000 169035578.46853173

ANGLE_1 = 2016-10-13T04:21:00.000 107.34827624472146
ANGLE_2 = 2016-10-13T04:21:00.000 21.905021283757854
RANGE = 2016-10-13T04:21:00.000 169036316.62713486

ANGLE_1 = 2016-10-13T04:22:00.000 107.24475403455776
ANGLE_2 = 2016-10-13T04:22:00.000 22.10939365372205
RANGE = 2016-10-13T04:22:00.000 169037054.83384687

ANGLE_1 = 2016-10-13T04:23:00.000 107.14128833801811
ANGLE_2 = 2016-10-13T04:23:00.000 22.314563942946474
RANGE = 2016-10-13T04:23:00.000 169037793.01032895

ANGLE_1 = 2016-10-13T04:24:00.000 107.03810015683347
ANGLE_2 = 2016-10-13T04:24:00.000 22.519467752601056
RANGE = 2016-10-13T04:24:00.000 169038531.23012203

ANGLE_1 = 2016-10-13T04:25:00.000 106.93597247436858
ANGLE_2 = 2016-10-13T04:25:00.000 22.724739696583203
RANGE = 2016-10-13T04:25:00.000 169039269.44887224

ANGLE_1 = 2016-10-13T04:26:00.000 106.83252500806331
ANGLE_2 = 2016-10-13T04:26:00.000 22.92948609349277
RANGE = 2016-10-13T04:26:00.000 169040007.68605617

ANGLE_1 = 2016-10-13T04:27:00.000 106.72949679682081
ANGLE_2 = 2016-10-13T04:27:00.000 23.134032961192748
RANGE = 2016-10-13T04:27:00.000 169040745.94537136

ANGLE_1 = 2016-10-13T04:28:00.000 106.62696590208509
ANGLE_2 = 2016-10-13T04:28:00.000 23.339846648663517
RANGE = 2016-10-13T04:28:00.000 169041484.2601506

ANGLE_1 = 2016-10-13T04:29:00.000 106.52506211263953
ANGLE_2 = 2016-10-13T04:29:00.000 23.545628262657967
RANGE = 2016-10-13T04:29:00.000 169042222.59146413

ANGLE_1 = 2016-10-13T04:30:00.000 106.42249396142503
ANGLE_2 = 2016-10-13T04:30:00.000 23.750537977317606
RANGE = 2016-10-13T04:30:00.000 169042960.8930534

ANGLE_1 = 2016-10-13T04:31:00.000 106.32059075471273
ANGLE_2 = 2016-10-13T04:31:00.000 23.956408280745315
RANGE = 2016-10-13T04:31:00.000 169043699.24609417

ANGLE_1 = 2016-10-13T04:32:00.000 106.21766099315128
ANGLE_2 = 2016-10-13T04:32:00.000 24.162311650964735
RANGE = 2016-10-13T04:32:00.000 169044437.6242939

ANGLE_1 = 2016-10-13T04:33:00.000 106.11535991193988
ANGLE_2 = 2016-10-13T04:33:00.000 24.36823289886589
RANGE = 2016-10-13T04:33:00.000 169045176.00027776

ANGLE_1 = 2016-10-13T04:34:00.000 106.01244495962602
ANGLE_2 = 2016-10-13T04:34:00.000 24.574000461796686
RANGE = 2016-10-13T04:34:00.000 169045914.43599844

ANGLE_1 = 2016-10-13T04:35:00.000 105.91010532677075
ANGLE_2 = 2016-10-13T04:35:00.000 24.779812175858268
RANGE = 2016-10-13T04:35:00.000 169046652.833491

ANGLE_1 = 2016-10-13T04:36:00.000 105.80909679533542
ANGLE_2 = 2016-10-13T04:36:00.000 24.985958316206833
RANGE = 2016-10-13T04:36:00.000 169047391.27562797

ANGLE_1 = 2016-10-13T04:37:00.000 105.70706016762483
ANGLE_2 = 2016-10-13T04:37:00.000 25.192471769400374
RANGE = 2016-10-13T04:37:00.000 169048129.7851837

ANGLE_1 = 2016-10-13T04:38:00.000 105.60516260407024
ANGLE_2 = 2016-10-13T04:38:00.000 25.399122541056144
RANGE = 2016-10-13T04:38:00.000 169048868.26209158

ANGLE_1 = 2016-10-13T04:39:00.000 105.50360012693162
ANGLE_2 = 2016-10-13T04:39:00.000 25.605325289517776
RANGE = 2016-10-13T04:39:00.000 169049606.8352748

ANGLE_1 = 2016-10-13T04:40:00.000 105.40174343164244
ANGLE_2 = 2016-10-13T04:40:00.000 25.811615196719124
RANGE = 2016-10-13T04:40:00.000 169050345.3591265

ANGLE_1 = 2016-10-13T04:41:00.000 105.30089028121158
ANGLE_2 = 2016-10-13T04:41:00.000 26.018543367219706
RANGE = 2016-10-13T04:41:00.000 169051083.96519238

ANGLE_1 = 2016-10-13T04:42:00.000 105.19942698822219
ANGLE_2 = 2016-10-13T04:42:00.000 26.225201496084626
RANGE = 2016-10-13T04:42:00.000 169051822.5467163

ANGLE_1 = 2016-10-13T04:43:00.000 105.09783014277362
ANGLE_2 = 2016-10-13T04:43:00.000 26.432607011358684
RANGE = 2016-10-13T04:43:00.000 169052561.17287847

ANGLE_1 = 2016-10-13T04:44:00.000 104.99638008677576
ANGLE_2 = 2016-10-13T04:44:00.000 26.638902797566505
RANGE = 2016-10-13T04:44:00.000 169053299.84197605

ANGLE_1 = 2016-10-13T04:45:00.000 104.89443663600643
ANGLE_2 = 2016-10-13T04:45:00.000 26.847067028984522
RANGE = 2016-10-13T04:45:00.000 169054038.52782074

ANGLE_1 = 2016-10-13T04:46:00.000 104.79461870658794
ANGLE_2 = 2016-10-13T04:46:00.000 27.053290883128085
RANGE = 2016-10-13T04:46:00.000 169054777.20268223

ANGLE_1 = 2016-10-13T04:47:00.000 104.69281444804541
ANGLE_2 = 2016-10-13T04:47:00.000 27.260871571396063
RANGE = 2016-10-13T04:47:00.000 169055515.94398686

ANGLE_1 = 2016-10-13T04:48:00.000 104.59219785990093
ANGLE_2 = 2016-10-13T04:48:00.000 27.468694694561986
RANGE = 2016-10-13T04:48:00.000 169056254.69123617

ANGLE_1 = 2016-10-13T04:49:00.000 104.49044386343809
ANGLE_2 = 2016-10-13T04:49:00.000 27.67580257989608
RANGE = 2016-10-13T04:49:00.000 169056993.48228025

ANGLE_1 = 2016-10-13T04:50:00.000 104.38933369205176
ANGLE_2 = 2016-10-13T04:50:00.000 27.88338004222098
RANGE = 2016-10-13T04:50:00.000 169057732.33012828

ANGLE_1 = 2016-10-13T04:51:00.000 104.2884709744945
ANGLE_2 = 2016-10-13T04:51:00.000 28.09059970045055
RANGE = 2016-10-13T04:51:00.000 169058471.1693654

ANGLE_1 = 2016-10-13T04:52:00.000 104.18768629421074
ANGLE_2 = 2016-10-13T04:52:00.000 28.29873478266708
RANGE = 2016-10-13T04:52:00.000 169059209.9905731

ANGLE_1 = 2016-10-13T04:53:00.000 104.08726281635808
ANGLE_2 = 2016-10-13T04:53:00.000 28.50655353282766
RANGE = 2016-10-13T04:53:00.000 169059948.94564125

ANGLE_1 = 2016-10-13T04:54:00.000 103.98667578564475
ANGLE_2 = 2016-10-13T04:54:00.000 28.714577206446183
RANGE = 2016-10-13T04:54:00.000 169060687.84796306

ANGLE_1 = 2016-10-13T04:55:00.000 103.88584686670539
ANGLE_2 = 2016-10-13T04:55:00.000 28.92247258746366
RANGE = 2016-10-13T04:55:00.000 169061426.8120746

ANGLE_1 = 2016-10-13T04:56:00.000 103.78536057894107
ANGLE_2 = 2016-10-13T04:56:00.000 29.13069728472989
RANGE = 2016-10-13T04:56:00.000 169062165.83060846

ANGLE_1 = 2016-10-13T04:57:00.000 103.68437471127183
ANGLE_2 = 2016-10-13T04:57:00.000 29.33826025570417
RANGE = 2016-10-13T04:57:00.000 169062904.83753824

ANGLE_1 = 2016-10-13T04:58:00.000 103.58332239864386
ANGLE_2 = 2016-10-13T04:58:00.000 29.547357897976077
RANGE = 2016-10-13T04:58:00.000 169063643.89506775

ANGLE_1 = 2016-10-13T04:59:00.000 103.4836427365131
ANGLE_2 = 2016-10-13T04:59:00.000 29.755620888753434
RANGE = 2016-10-13T04:59:00.000 169064382.99593127

ANGLE_1 = 2016-10-13T05:00:00.000 103.38336736531127
ANGLE_2 = 2016-10-13T05:00:00.000 29.96375781714387
RANGE = 2016-10-13T05:00:00.000 169065122.09555894

ANGLE_1 = 2016-10-13T05:01:00.000 103.28187790131484
ANGLE_2 = 2016-10-13T05:01:00.000 30.17273233776533
RANGE = 2016-10-13T05:01:00.000 169065861.25619498

ANGLE_1 = 2016-10-13T05:02:00.000 103.18108178613794
ANGLE_2 = 2016-10-13T05:02:00.000 30.381116728456036
RANGE = 2016-10-13T05:02:00.000 169066600.44020897

ANGLE_1 = 2016-10-13T05:03:00.000 103.08148205270344
ANGLE_2 = 2016-10-13T05:03:00.000 30.589945475408854
RANGE = 2016-10-13T05:03:00.000 169067339.63026667

ANGLE_1 = 2016-10-13T05:04:00.000 102.98043836672036
ANGLE_2 = 2016-10-13T05:04:00.000 30.7983425108189
RANGE = 2016-10-13T05:04:00.000 169068078.8820854

ANGLE_1 = 2016-10-13T05:05:00.000 102.88049747342775
ANGLE_2 = 2016-10-13T05:05:00.000 31.007944101169365
RANGE = 2016-10-13T05:05:00.000 169068818.16610956

ANGLE_1 = 2016-10-13T05:06:00.000 102.7800897344373
ANGLE_2 = 2016-10-13T05:06:00.000 31.216523199862593
RANGE = 2016-10-13T05:06:00.000 169069557.4977706

ANGLE_1 = 2016-10-13T05:07:00.000 102.67951856477974
ANGLE_2 = 2016-10-13T05:07:00.000 31.425425421862716
RANGE = 2016-10-13T05:07:00.000 169070296.85062882

ANGLE_1 = 2016-10-13T05:08:00.000 102.57871455633442
ANGLE_2 = 2016-10-13T05:08:00.000 31.63488321356702
RANGE = 2016-10-13T05:08:00.000 169071036.1842139

ANGLE_1 = 2016-10-13T05:09:00.000 102.47839981558117
ANGLE_2 = 2016-10-13T05:09:00.000 31.843991579546017
RANGE = 2016-10-13T05:09:00.000 169071775.64326376

ANGLE_1 = 2016-10-13T05:10:00.000 102.37831494439496
ANGLE_2 = 2016-10-13T05:10:00.000 32.053244045122916
RANGE = 2016-10-13T05:10:00.000 169072515.13080752

ANGLE_1 = 2016-10-13T05:11:00.000 102.27834215139677
ANGLE_2 = 2016-10-13T05:11:00.000 32.26270081876438
RANGE = 2016-10-13T05:11:00.000 169073254.60589045

ANGLE_1 = 2016-10-13T05:12:00.000 102.17776483365664
ANGLE_2 = 2016-10-13T05:12:00.000 32.472274887593585
RANGE = 2016-10-13T05:12:00.000 169073994.12267882

ANGLE_1 = 2016-10-13T05:13:00.000 102.07718392533498
ANGLE_2 = 2016-10-13T05:13:00.000 32.68159429198129
RANGE = 2016-10-13T05:13:00.000 169074733.68600246

ANGLE_1 = 2016-10-13T05:14:00.000 101.97685595073152
ANGLE_2 = 2016-10-13T05:14:00.000 32.89144132983789
RANGE = 2016-10-13T05:14:00.000 169075473.28718588

ANGLE_1 = 2016-10-13T05:15:00.000 101.87694004149303
ANGLE_2 = 2016-10-13T05:15:00.000 33.10102397603488
RANGE = 2016-10-13T05:15:00.000 169076212.95583358

ANGLE_1 = 2016-10-13T05:16:00.000 101.77630342458241
ANGLE_2 = 2016-10-13T05:16:00.000 33.31068802760191
RANGE = 2016-10-13T05:16:00.000 169076952.61098823

ANGLE_1 = 2016-10-13T05:17:00.000 101.67587289976586
ANGLE_2 = 2016-10-13T05:17:00.000 33.520813102183126
RANGE = 2016-10-13T05:17:00.000 169077692.3458355

ANGLE_1 = 2016-10-13T05:18:00.000 101.57601361607244
ANGLE_2 = 2016-10-13T05:18:00.000 33.730828046258615
RANGE = 2016-10-13T05:18:00.000 169078432.08635083

ANGLE_1 = 2016-10-13T05:19:00.000 101.47476811769245
ANGLE_2 = 2016-10-13T05:19:00.000 33.9405796925501
RANGE = 2016-10-13T05:19:00.000 169079171.9038452

ANGLE_1 = 2016-10-13T05:20:00.000 101.37502657424967
ANGLE_2 = 2016-10-13T05:20:00.000 34.15051914600187
RANGE = 2016-10-13T05:20:00.000 169079911.75434542

ANGLE_1 = 2016-10-13T05:21:00.000 101.27445798793644
ANGLE_2 = 2016-10-13T05:21:00.000 34.36103787910606
RANGE = 2016-10-13T05:21:00.000 169080651.61985773

ANGLE_1 = 2016-10-13T05:22:00.000 101.17324148496904
ANGLE_2 = 2016-10-13T05:22:00.000 34.571344895175045
RANGE = 2016-10-13T05:22:00.000 169081391.51207396

ANGLE_1 = 2016-10-13T05:23:00.000 101.07320164750996
ANGLE_2 = 2016-10-13T05:23:00.000 34.781816387877754
RANGE = 2016-10-13T05:23:00.000 169082131.4661896

ANGLE_1 = 2016-10-13T05:24:00.000 100.97292343638189
ANGLE_2 = 2016-10-13T05:24:00.000 34.991527091035145
RANGE = 2016-10-13T05:24:00.000 169082871.4863044

ANGLE_1 = 2016-10-13T05:25:00.000 100.87223935200865
ANGLE_2 = 2016-10-13T05:25:00.000 35.202506217970274
RANGE = 2016-10-13T05:25:00.000 169083611.54571715

ANGLE_1 = 2016-10-13T05:26:00.000 100.77149128184814
ANGLE_2 = 2016-10-13T05:26:00.000 35.41295893624461
RANGE = 2016-10-13T05:26:00.000 169084351.59092528

ANGLE_1 = 2016-10-13T05:27:00.000 100.67029806191015
ANGLE_2 = 2016-10-13T05:27:00.000 35.62341105684447
RANGE = 2016-10-13T05:27:00.000 169085091.72689635

ANGLE_1 = 2016-10-13T05:28:00.000 100.56985835505245
ANGLE_2 = 2016-10-13T05:28:00.000 35.8341303049661
RANGE = 2016-10-13T05:28:00.000 169085831.89291632

ANGLE_1 = 2016-10-13T05:29:00.000 100.4686342443008
ANGLE_2 = 2016-10-13T05:29:00.000 36.044699021352834
RANGE = 2016-10-13T05:29:00.000 169086572.11722305

ANGLE_1 = 2016-10-13T05:30:00.000 100.36879253270382
ANGLE_2 = 2016-10-13T05:30:00.000 36.255703352812134
RANGE = 2016-10-13T05:30:00.000 169087312.34269294

ANGLE_1 = 2016-10-13T05:31:00.000 100.26727909508132
ANGLE_2 = 2016-10-13T05:31:00.000 36.4662524849322
RANGE = 2016-10-13T05:31:00.000 169088052.64311326

ANGLE_1 = 2016-10-13T05:32:00.000 100.16691211176014
ANGLE_2 = 2016-10-13T05:32:00.000 36.67698187416865
RANGE = 2016-10-13T05:32:00.000 169088792.99733323

ANGLE_1 = 2016-10-13T05:33:00.000 100.06581104121871
ANGLE_2 = 2016-10-13T05:33:00.000 36.88874343775062
RANGE = 2016-10-13T05:33:00.000 169089533.3569262

ANGLE_1 = 2016-10-13T05:34:00.000 99.9652063573721
ANGLE_2 = 2016-10-13T05:34:00.000 37.10014858267445
RANGE = 2016-10-13T05:34:00.000 169090273.80230674

ANGLE_1 = 2016-10-13T05:35:00.000 99.86330330301914
ANGLE_2 = 2016-10-13T05:35:00.000 37.31044237998544
RANGE = 2016-10-13T05:35:00.000 169091014.2534322

ANGLE_1 = 2016-10-13T05:36:00.000 99.76249039069631
ANGLE_2 = 2016-10-13T05:36:00.000 37.521858357777774
RANGE = 2016-10-13T05:36:00.000 169091754.7936368

ANGLE_1 = 2016-10-13T05:37:00.000 99.66043183464046
ANGLE_2 = 2016-10-13T05:37:00.000 37.73304418116353
RANGE = 2016-10-13T05:37:00.000 169092495.36787766

ANGLE_1 = 2016-10-13T05:38:00.000 99.55967738333216
ANGLE_2 = 2016-10-13T05:38:00.000 37.94417097090351
RANGE = 2016-10-13T05:38:00.000 169093235.98048437

ANGLE_1 = 2016-10-13T05:39:00.000 99.4580737368994
ANGLE_2 = 2016-10-13T05:39:00.000 38.15562562049154
RANGE = 2016-10-13T05:39:00.000 169093976.60970503

ANGLE_1 = 2016-10-13T05:40:00.000 99.35680959277246
ANGLE_2 = 2016-10-13T05:40:00.000 38.36752664499992
RANGE = 2016-10-13T05:40:00.000 169094717.34328136

ANGLE_1 = 2016-10-13T05:41:00.000 99.25561105436701
ANGLE_2 = 2016-10-13T05:41:00.000 38.57855457256883
RANGE = 2016-10-13T05:41:00.000 169095458.0992571

ANGLE_1 = 2016-10-13T05:42:00.000 99.15383521899311
ANGLE_2 = 2016-10-13T05:42:00.000 38.790421159404524
RANGE = 2016-10-13T05:42:00.000 169096198.88460764

ANGLE_1 = 2016-10-13T05:43:00.000 99.0515082380918
ANGLE_2 = 2016-10-13T05:43:00.000 39.002174625721075
RANGE = 2016-10-13T05:43:00.000 169096939.7259551

ANGLE_1 = 2016-10-13T05:44:00.000 98.94994211043056
ANGLE_2 = 2016-10-13T05:44:00.000 39.2134697974136
RANGE = 2016-10-13T05:44:00.000 169097680.6084493

ANGLE_1 = 2016-10-13T05:45:00.000 98.84802330519987
ANGLE_2 = 2016-10-13T05:45:00.000 39.425789527981614
RANGE = 2016-10-13T05:45:00.000 169098421.55097872

ANGLE_1 = 2016-10-13T05:46:00.000 98.7454453128481
ANGLE_2 = 2016-10-13T05:46:00.000 39.63776419434664
RANGE = 2016-10-13T05:46:00.000 169099162.55061692

ANGLE_1 = 2016-10-13T05:47:00.000 98.6438845320682
ANGLE_2 = 2016-10-13T05:47:00.000 39.84932705834608
RANGE = 2016-10-13T05:47:00.000 169099903.57495934

ANGLE_1 = 2016-10-13T05:48:00.000 98.54132774523616
ANGLE_2 = 2016-10-13T05:48:00.000 40.06146283309965
RANGE = 2016-10-13T05:48:00.000 169100644.69194892

ANGLE_1 = 2016-10-13T05:49:00.000 98.43879619705685
ANGLE_2 = 2016-10-13T05:49:00.000 40.27276782635318
RANGE = 2016-10-13T05:49:00.000 169101385.81729484

ANGLE_1 = 2016-10-13T05:50:00.000 98.33658553010399
ANGLE_2 = 2016-10-13T05:50:00.000 40.48509149249228
RANGE = 2016-10-13T05:50:00.000 169102127.01517323

ANGLE_1 = 2016-10-13T05:51:00.000 98.2335558684147
ANGLE_2 = 2016-10-13T05:51:00.000 40.697664538063734
RANGE = 2016-10-13T05:51:00.000 169102868.27196178

ANGLE_1 = 2016-10-13T05:52:00.000 98.13026531017678
ANGLE_2 = 2016-10-13T05:52:00.000 40.90956122630277
RANGE = 2016-10-13T05:52:00.000 169103609.5285505

ANGLE_1 = 2016-10-13T05:53:00.000 98.02874950330273
ANGLE_2 = 2016-10-13T05:53:00.000 41.12197424665778
RANGE = 2016-10-13T05:53:00.000 169104350.8610984

ANGLE_1 = 2016-10-13T05:54:00.000 97.92383366618155
ANGLE_2 = 2016-10-13T05:54:00.000 41.33382788282794
RANGE = 2016-10-13T05:54:00.000 169105092.25438318

ANGLE_1 = 2016-10-13T05:55:00.000 97.82127379005574
ANGLE_2 = 2016-10-13T05:55:00.000 41.54630771369885
RANGE = 2016-10-13T05:55:00.000 169105833.69469777

ANGLE_1 = 2016-10-13T05:56:00.000 97.7182858890543
ANGLE_2 = 2016-10-13T05:56:00.000 41.758456914410395
RANGE = 2016-10-13T05:56:00.000 169106575.22252816

ANGLE_1 = 2016-10-13T05:57:00.000 97.61438701689781
ANGLE_2 = 2016-10-13T05:57:00.000 41.9704669124183
RANGE = 2016-10-13T05:57:00.000 169107316.78078246

ANGLE_1 = 2016-10-13T05:58:00.000 97.5116433450402
ANGLE_2 = 2016-10-13T05:58:00.000 42.18343107818149
RANGE = 2016-10-13T05:58:00.000 169108058.3693941

ANGLE_1 = 2016-10-13T05:59:00.000 97.40731625060167
ANGLE_2 = 2016-10-13T05:59:00.000 42.39568127338857
RANGE = 2016-10-13T05:59:00.000 169108800.03224075

ANGLE_1 = 2016-10-13T06:00:00.000 97.30311964558052
ANGLE_2 = 2016-10-13T06:00:00.000 42.60854917815386
RANGE = 2016-10-13T06:00:00.000 169109541.71104705

ANGLE_1 = 2016-10-13T06:01:00.000 97.19909671382845
ANGLE_2 = 2016-10-13T06:01:00.000 42.82125167896984
RANGE = 2016-10-13T06:01:00.000 169110283.50941637

ANGLE_1 = 2016-10-13T06:02:00.000 97.0943459987194
ANGLE_2 = 2016-10-13T06:02:00.000 43.03393907446734
RANGE = 2016-10-13T06:02:00.000 169111025.3162912

ANGLE_1 = 2016-10-13T06:03:00.000 96.98997772509469
ANGLE_2 = 2016-10-13T06:03:00.000 43.24659210272169
RANGE = 2016-10-13T06:03:00.000 169111767.19174254

ANGLE_1 = 2016-10-13T06:04:00.000 96.88559823180022
ANGLE_2 = 2016-10-13T06:04:00.000 43.46012071990186
RANGE = 2016-10-13T06:04:00.000 169112509.11456662

ANGLE_1 = 2016-10-13T06:05:00.000 96.78079672343524
ANGLE_2 = 2016-10-13T06:05:00.000 43.672134140736574
RANGE = 2016-10-13T06:05:00.000 169113251.0644614

ANGLE_1 = 2016-10-13T06:06:00.000 96.67672974119424
ANGLE_2 = 2016-10-13T06:06:00.000 43.884787646397896
RANGE = 2016-10-13T06:06:00.000 169113993.13766152

ANGLE_1 = 2016-10-13T06:07:00.000 96.57101657440468
ANGLE_2 = 2016-10-13T06:07:00.000 44.09807482023845
RANGE = 2016-10-13T06:07:00.000 169114735.26492646

ANGLE_1 = 2016-10-13T06:08:00.000 96.46411011837529
ANGLE_2 = 2016-10-13T06:08:00.000 44.31052114977277
RANGE = 2016-10-13T06:08:00.000 169115477.4372762

ANGLE_1 = 2016-10-13T06:09:00.000 96.35837756853466
ANGLE_2 = 2016-10-13T06:09:00.000 44.52356491578523
RANGE = 2016-10-13T06:09:00.000 169116219.60316092

ANGLE_1 = 2016-10-13T06:10:00.000 96.25340079091053
ANGLE_2 = 2016-10-13T06:10:00.000 44.73739819106191
RANGE = 2016-10-13T06:10:00.000 169116961.87997553

ANGLE_1 = 2016-10-13T06:11:00.000 96.14750536798023
ANGLE_2 = 2016-10-13T06:11:00.000 44.950188460846356
RANGE = 2016-10-13T06:11:00.000 169117704.17185572

ANGLE_1 = 2016-10-13T06:12:00.000 96.04103532374286
ANGLE_2 = 2016-10-13T06:12:00.000 45.163542108524034
RANGE = 2016-10-13T06:12:00.000 169118446.59956452

ANGLE_1 = 2016-10-13T06:13:00.000 95.93439581107624
ANGLE_2 = 2016-10-13T06:13:00.000 45.37684685333323
RANGE = 2016-10-13T06:13:00.000 169119189.00269204

ANGLE_1 = 2016-10-13T06:14:00.000 95.82720048146561
ANGLE_2 = 2016-10-13T06:14:00.000 45.58933990310389
RANGE = 2016-10-13T06:14:00.000 169119931.51641592

ANGLE_1 = 2016-10-13T06:15:00.000 95.72069058809352
ANGLE_2 = 2016-10-13T06:15:00.000 45.80357297574098
RANGE = 2016-10-13T06:15:00.000 169120674.04609156

ANGLE_1 = 2016-10-13T06:16:00.000 95.61331099700553
ANGLE_2 = 2016-10-13T06:16:00.000 46.01625014649261
RANGE = 2016-10-13T06:16:00.000 169121416.67673498

ANGLE_1 = 2016-10-13T06:17:00.000 95.50593150220114
ANGLE_2 = 2016-10-13T06:17:00.000 46.22933836860759
RANGE = 2016-10-13T06:17:00.000 169122159.32786876

ANGLE_1 = 2016-10-13T06:18:00.000 95.39776715932346
ANGLE_2 = 2016-10-13T06:18:00.000 46.442919393229474
RANGE = 2016-10-13T06:18:00.000 169122902.07639903

ANGLE_1 = 2016-10-13T06:19:00.000 95.28984700295213
ANGLE_2 = 2016-10-13T06:19:00.000 46.656295382394944
RANGE = 2016-10-13T06:19:00.000 169123644.85607252

ANGLE_1 = 2016-10-13T06:20:00.000 95.1814420926765
ANGLE_2 = 2016-10-13T06:20:00.000 46.86956822909176
RANGE = 2016-10-13T06:20:00.000 169124387.7470245

ANGLE_1 = 2016-10-13T06:21:00.000 95.07285400727635
ANGLE_2 = 2016-10-13T06:21:00.000 47.08312219002354
RANGE = 2016-10-13T06:21:00.000 169125130.62511468

ANGLE_1 = 2016-10-13T06:22:00.000 94.96320835995225
ANGLE_2 = 2016-10-13T06:22:00.000 47.29630980693245
RANGE = 2016-10-13T06:22:00.000 169125873.6064983

ANGLE_1 = 2016-10-13T06:23:00.000 94.85490024057816
ANGLE_2 = 2016-10-13T06:23:00.000 47.510578969986696
RANGE = 2016-10-13T06:23:00.000 169126616.65288666

ANGLE_1 = 2016-10-13T06:24:00.000 94.74586189715755
ANGLE_2 = 2016-10-13T06:24:00.000 47.72352174993772
RANGE = 2016-10-13T06:24:00.000 169127359.73691726

ANGLE_1 = 2016-10-13T06:25:00.000 94.63577267016822
ANGLE_2 = 2016-10-13T06:25:00.000 47.93738234859396
RANGE = 2016-10-13T06:25:00.000 169128102.9075774

ANGLE_1 = 2016-10-13T06:26:00.000 94.5255377570793
ANGLE_2 = 2016-10-13T06:26:00.000 48.1512907684689
RANGE = 2016-10-13T06:26:00.000 169128846.1277574

ANGLE_1 = 2016-10-13T06:27:00.000 94.41541889971772
ANGLE_2 = 2016-10-13T06:27:00.000 48.36495792048486
RANGE = 2016-10-13T06:27:00.000 169129589.4071866

ANGLE_1 = 2016-10-13T06:28:00.000 94.30412943005362
ANGLE_2 = 2016-10-13T06:28:00.000 48.578612768144275
RANGE = 2016-10-13T06:28:00.000 169130332.74881136

ANGLE_1 = 2016-10-13T06:29:00.000 94.19279923278376
ANGLE_2 = 2016-10-13T06:29:00.000 48.792209080792645
RANGE = 2016-10-13T06:29:00.000 169131076.16648793

ANGLE_1 = 2016-10-13T06:30:00.000 94.08233288926387
ANGLE_2 = 2016-10-13T06:30:00.000 49.006608829553066
RANGE = 2016-10-13T06:30:00.000 169131819.61517525

ANGLE_1 = 2016-10-13T06:31:00.000 93.96991925976505
ANGLE_2 = 2016-10-13T06:31:00.000 49.22039381100117
RANGE = 2016-10-13T06:31:00.000 169132563.17832467

ANGLE_1 = 2016-10-13T06:32:00.000 93.85848720848729
ANGLE_2 = 2016-10-13T06:32:00.000 49.433879850140535
RANGE = 2016-10-13T06:32:00.000 169133306.7588592

ANGLE_1 = 2016-10-13T06:33:00.000 93.74526100269178
ANGLE_2 = 2016-10-13T06:33:00.000 49.64765655082099
RANGE = 2016-10-13T06:33:00.000 169134050.41151267

ANGLE_1 = 2016-10-13T06:34:00.000 93.63226358315656
ANGLE_2 = 2016-10-13T06:34:00.000 49.86132863982698
RANGE = 2016-10-13T06:34:00.000 169134794.15095055

ANGLE_1 = 2016-10-13T06:35:00.000 93.51940278499389
ANGLE_2 = 2016-10-13T06:35:00.000 50.07491678111611
RANGE = 2016-10-13T06:35:00.000 169135537.961304

ANGLE_1 = 2016-10-13T06:36:00.000 93.40522531395538
ANGLE_2 = 2016-10-13T06:36:00.000 50.289257919694386
RANGE = 2016-10-13T06:36:00.000 169136281.78126803

ANGLE_1 = 2016-10-13T06:37:00.000 93.29113473700684
ANGLE_2 = 2016-10-13T06:37:00.000 50.50363730146995
RANGE = 2016-10-13T06:37:00.000 169137025.7247685

ANGLE_1 = 2016-10-13T06:38:00.000 93.17691644932728
ANGLE_2 = 2016-10-13T06:38:00.000 50.71717309041209
RANGE = 2016-10-13T06:38:00.000 169137769.71500617

ANGLE_1 = 2016-10-13T06:39:00.000 93.06216617830253
ANGLE_2 = 2016-10-13T06:39:00.000 50.93130192563422
RANGE = 2016-10-13T06:39:00.000 169138513.75581142

ANGLE_1 = 2016-10-13T06:40:00.000 92.94684411090066
ANGLE_2 = 2016-10-13T06:40:00.000 51.14556933925169
RANGE = 2016-10-13T06:40:00.000 169139257.82749122

ANGLE_1 = 2016-10-13T06:41:00.000 92.83135930721883
ANGLE_2 = 2016-10-13T06:41:00.000 51.3597718007593
RANGE = 2016-10-13T06:41:00.000 169140002.05177948

ANGLE_1 = 2016-10-13T06:42:00.000 92.71504373515566
ANGLE_2 = 2016-10-13T06:42:00.000 51.57360283583675
RANGE = 2016-10-13T06:42:00.000 169140746.30682975

ANGLE_1 = 2016-10-13T06:43:00.000 92.5990521676006
ANGLE_2 = 2016-10-13T06:43:00.000 51.78746849548948
RANGE = 2016-10-13T06:43:00.000 169141490.64516205

ANGLE_1 = 2016-10-13T06:44:00.000 92.48126640808714
ANGLE_2 = 2016-10-13T06:44:00.000 52.002095954647686
RANGE = 2016-10-13T06:44:00.000 169142234.97157085

ANGLE_1 = 2016-10-13T06:45:00.000 92.36368349359743
ANGLE_2 = 2016-10-13T06:45:00.000 52.216592272357914
RANGE = 2016-10-13T06:45:00.000 169142979.44953895

ANGLE_1 = 2016-10-13T06:46:00.000 92.24570654869314
ANGLE_2 = 2016-10-13T06:46:00.000 52.43011596839921
RANGE = 2016-10-13T06:46:00.000 169143724.0100735

ANGLE_1 = 2016-10-13T06:47:00.000 92.12706769154225
ANGLE_2 = 2016-10-13T06:47:00.000 52.64478583171496
RANGE = 2016-10-13T06:47:00.000 169144468.52539405

ANGLE_1 = 2016-10-13T06:48:00.000 92.00860183880428
ANGLE_2 = 2016-10-13T06:48:00.000 52.85928648601956
RANGE = 2016-10-13T06:48:00.000 169145213.20623788

ANGLE_1 = 2016-10-13T06:49:00.000 91.88933233132366
ANGLE_2 = 2016-10-13T06:49:00.000 53.07275906874213
RANGE = 2016-10-13T06:49:00.000 169145957.9370367

ANGLE_1 = 2016-10-13T06:50:00.000 91.76837018977085
ANGLE_2 = 2016-10-13T06:50:00.000 53.286940592197006
RANGE = 2016-10-13T06:50:00.000 169146702.730626

ANGLE_1 = 2016-10-13T06:51:00.000 91.64789238423464
ANGLE_2 = 2016-10-13T06:51:00.000 53.50127575419416
RANGE = 2016-10-13T06:51:00.000 169147447.5846653

ANGLE_1 = 2016-10-13T06:52:00.000 91.52714168703001
ANGLE_2 = 2016-10-13T06:52:00.000 53.715454890350436
RANGE = 2016-10-13T06:52:00.000 169148192.52739275

ANGLE_1 = 2016-10-13T06:53:00.000 91.40616962786015
ANGLE_2 = 2016-10-13T06:53:00.000 53.93002937759537
RANGE = 2016-10-13T06:53:00.000 169148937.54772002

ANGLE_1 = 2016-10-13T06:54:00.000 91.28313121245486
ANGLE_2 = 2016-10-13T06:54:00.000 54.14409026215503
RANGE = 2016-10-13T06:54:00.000 169149682.62611443

ANGLE_1 = 2016-10-13T06:55:00.000 91.16019447297973
ANGLE_2 = 2016-10-13T06:55:00.000 54.358206705744124
RANGE = 2016-10-13T06:55:00.000 169150427.73436487

ANGLE_1 = 2016-10-13T06:56:00.000 91.03704403482641
ANGLE_2 = 2016-10-13T06:56:00.000 54.57256683227205
RANGE = 2016-10-13T06:56:00.000 169151172.9649913

ANGLE_1 = 2016-10-13T06:57:00.000 90.91248705503834
ANGLE_2 = 2016-10-13T06:57:00.000 54.78706330577552
RANGE = 2016-10-13T06:57:00.000 169151918.23327875

ANGLE_1 = 2016-10-13T06:58:00.000 90.78842508722448
ANGLE_2 = 2016-10-13T06:58:00.000 55.00101468066799
RANGE = 2016-10-13T06:58:00.000 169152663.5837832

ANGLE_1 = 2016-10-13T06:59:00.000 90.66305055334138
ANGLE_2 = 2016-10-13T06:59:00.000 55.21589547816399
RANGE = 2016-10-13T06:59:00.000 169153409.03599477

ANGLE_1 = 2016-10-13T07:00:00.000 90.53727296937413
ANGLE_2 = 2016-10-13T07:00:00.000 55.4298266795008
RANGE = 2016-10-13T07:00:00.000 169154154.53235158

ANGLE_1 = 2016-10-13T07:01:00.000 90.41125073657247
ANGLE_2 = 2016-10-13T07:01:00.000 55.64460412749256
RANGE = 2016-10-13T07:01:00.000 169154900.09052196

ANGLE_1 = 2016-10-13T07:02:00.000 90.28322669391201
ANGLE_2 = 2016-10-13T07:02:00.000 55.8584395110939
RANGE = 2016-10-13T07:02:00.000 169155645.74320003

ANGLE_1 = 2016-10-13T07:03:00.000 90.15556737096014
ANGLE_2 = 2016-10-13T07:03:00.000 56.073140929055526
RANGE = 2016-10-13T07:03:00.000 169156391.45236284

ANGLE_1 = 2016-10-13T07:04:00.000 90.02685724345208
ANGLE_2 = 2016-10-13T07:04:00.000 56.28746602358354
RANGE = 2016-10-13T07:04:00.000 169157137.2234551

ANGLE_1 = 2016-10-13T07:05:00.000 89.89790343459572
ANGLE_2 = 2016-10-13T07:05:00.000 56.50206126632924
RANGE = 2016-10-13T07:05:00.000 169157883.08798277

ANGLE_1 = 2016-10-13T07:06:00.000 89.76706818808928
ANGLE_2 = 2016-10-13T07:06:00.000 56.71615459253961
RANGE = 2016-10-13T07:06:00.000 169158629.00423312

ANGLE_1 = 2016-10-13T07:07:00.000 89.6363212280525
ANGLE_2 = 2016-10-13T07:07:00.000 56.930580392743025
RANGE = 2016-10-13T07:07:00.000 169159375.01220116

ANGLE_1 = 2016-10-13T07:08:00.000 89.5046647759666
ANGLE_2 = 2016-10-13T07:08:00.000 57.14456684418448
RANGE = 2016-10-13T07:08:00.000 169160121.11682615

ANGLE_1 = 2016-10-13T07:09:00.000 89.37282003353012
ANGLE_2 = 2016-10-13T07:09:00.000 57.359063764409605
RANGE = 2016-10-13T07:09:00.000 169160867.26121238

ANGLE_1 = 2016-10-13T07:10:00.000 89.23944291996406
ANGLE_2 = 2016-10-13T07:10:00.000 57.573604137168616
RANGE = 2016-10-13T07:10:00.000 169161613.48590726

ANGLE_1 = 2016-10-13T07:11:00.000 89.10487052323313
ANGLE_2 = 2016-10-13T07:11:00.000 57.787784755175046
RANGE = 2016-10-13T07:11:00.000 169162359.80357328

ANGLE_1 = 2016-10-13T07:12:00.000 88.96993100002359
ANGLE_2 = 2016-10-13T07:12:00.000 58.001925393346234
RANGE = 2016-10-13T07:12:00.000 169163106.1882532

ANGLE_1 = 2016-10-13T07:13:00.000 88.83449513865175
ANGLE_2 = 2016-10-13T07:13:00.000 58.216429698357665
RANGE = 2016-10-13T07:13:00.000 169163852.6170118

ANGLE_1 = 2016-10-13T07:14:00.000 88.69755225643492
ANGLE_2 = 2016-10-13T07:14:00.000 58.4305701562308
RANGE = 2016-10-13T07:14:00.000 169164599.12521616

ANGLE_1 = 2016-10-13T07:15:00.000 88.56042988114297
ANGLE_2 = 2016-10-13T07:15:00.000 58.64520368596879
RANGE = 2016-10-13T07:15:00.000 169165345.73666033

ANGLE_1 = 2016-10-13T07:16:00.000 88.42157356741156
ANGLE_2 = 2016-10-13T07:16:00.000 58.85935180925182
RANGE = 2016-10-13T07:16:00.000 169166092.38474658

ANGLE_1 = 2016-10-13T07:17:00.000 88.28265051712651
ANGLE_2 = 2016-10-13T07:17:00.000 59.073792727776016
RANGE = 2016-10-13T07:17:00.000 169166839.15785477

ANGLE_1 = 2016-10-13T07:18:00.000 88.14154178466917
ANGLE_2 = 2016-10-13T07:18:00.000 59.28802478007324
RANGE = 2016-10-13T07:18:00.000 169167585.99801284

ANGLE_1 = 2016-10-13T07:19:00.000 87.99980345071769
ANGLE_2 = 2016-10-13T07:19:00.000 59.50198985746864
RANGE = 2016-10-13T07:19:00.000 169168332.8877208

ANGLE_1 = 2016-10-13T07:20:00.000 87.85815406351246
ANGLE_2 = 2016-10-13T07:20:00.000 59.715709425752564
RANGE = 2016-10-13T07:20:00.000 169169079.86922193

ANGLE_1 = 2016-10-13T07:21:00.000 87.71537424913387
ANGLE_2 = 2016-10-13T07:21:00.000 59.93021385384209
RANGE = 2016-10-13T07:21:00.000 169169826.94485122

ANGLE_1 = 2016-10-13T07:22:00.000 87.57015671971469
ANGLE_2 = 2016-10-13T07:22:00.000 60.14438036413926
RANGE = 2016-10-13T07:22:00.000 169170574.08128408

ANGLE_1 = 2016-10-13T07:23:00.000 87.42486935766622
ANGLE_2 = 2016-10-13T07:23:00.000 60.358276247339965
RANGE = 2016-10-13T07:23:00.000 169171321.3139535

ANGLE_1 = 2016-10-13T07:24:00.000 87.27818987058663
ANGLE_2 = 2016-10-13T07:24:00.000 60.57320609794293
RANGE = 2016-10-13T07:24:00.000 169172068.560415

ANGLE_1 = 2016-10-13T07:25:00.000 87.13070796272852
ANGLE_2 = 2016-10-13T07:25:00.000 60.786773071686795
RANGE = 2016-10-13T07:25:00.000 169172815.91684964

ANGLE_1 = 2016-10-13T07:26:00.000 86.98143730084945
ANGLE_2 = 2016-10-13T07:26:00.000 61.000830921932234
RANGE = 2016-10-13T07:26:00.000 169173563.406341

ANGLE_1 = 2016-10-13T07:27:00.000 86.83082000533899
ANGLE_2 = 2016-10-13T07:27:00.000 61.21501058410606
RANGE = 2016-10-13T07:27:00.000 169174310.92158303

ANGLE_1 = 2016-10-13T07:28:00.000 86.67975601791932
ANGLE_2 = 2016-10-13T07:28:00.000 61.429686482256066
RANGE = 2016-10-13T07:28:00.000 169175058.51346478

ANGLE_1 = 2016-10-13T07:29:00.000 86.52738177519845
ANGLE_2 = 2016-10-13T07:29:00.000 61.643057895790925
RANGE = 2016-10-13T07:29:00.000 169175806.1926892

ANGLE_1 = 2016-10-13T07:30:00.000 86.37256411847838
ANGLE_2 = 2016-10-13T07:30:00.000 61.856582196152615
RANGE = 2016-10-13T07:30:00.000 169176553.89930132

ANGLE_1 = 2016-10-13T07:31:00.000 86.21752816171595
ANGLE_2 = 2016-10-13T07:31:00.000 62.070825488828234
RANGE = 2016-10-13T07:31:00.000 169177301.7963065

ANGLE_1 = 2016-10-13T07:32:00.000 86.06138543777311
ANGLE_2 = 2016-10-13T07:32:00.000 62.28457404516645
RANGE = 2016-10-13T07:32:00.000 169178049.69455582

ANGLE_1 = 2016-10-13T07:33:00.000 85.90342288747605
ANGLE_2 = 2016-10-13T07:33:00.000 62.49835151914536
RANGE = 2016-10-13T07:33:00.000 169178797.6937291

ANGLE_1 = 2016-10-13T07:34:00.000 85.74407896138138
ANGLE_2 = 2016-10-13T07:34:00.000 62.71218038432931
RANGE = 2016-10-13T07:34:00.000 169179545.738087

ANGLE_1 = 2016-10-13T07:35:00.000 85.58293854575201
ANGLE_2 = 2016-10-13T07:35:00.000 62.92537707480686
RANGE = 2016-10-13T07:35:00.000 169180293.9301456

ANGLE_1 = 2016-10-13T07:36:00.000 85.41980555005053
ANGLE_2 = 2016-10-13T07:36:00.000 63.13973193856692
RANGE = 2016-10-13T07:36:00.000 169181042.1531276

ANGLE_1 = 2016-10-13T07:37:00.000 85.25769709108845
ANGLE_2 = 2016-10-13T07:37:00.000 63.35324649641651
RANGE = 2016-10-13T07:37:00.000 169181790.4664061

ANGLE_1 = 2016-10-13T07:38:00.000 85.09143804213511
ANGLE_2 = 2016-10-13T07:38:00.000 63.567037519358756
RANGE = 2016-10-13T07:38:00.000 169182538.88875154

ANGLE_1 = 2016-10-13T07:39:00.000 84.92493162462222
ANGLE_2 = 2016-10-13T07:39:00.000 63.780163283761404
RANGE = 2016-10-13T07:39:00.000 169183287.33549845

ANGLE_1 = 2016-10-13T07:40:00.000 84.75659950692548
ANGLE_2 = 2016-10-13T07:40:00.000 63.99376016978444
RANGE = 2016-10-13T07:40:00.000 169184035.93392986

ANGLE_1 = 2016-10-13T07:41:00.000 84.58673097925549
ANGLE_2 = 2016-10-13T07:41:00.000 64.20754593045811
RANGE = 2016-10-13T07:41:00.000 169184784.51757276

ANGLE_1 = 2016-10-13T07:42:00.000 84.41371904445593
ANGLE_2 = 2016-10-13T07:42:00.000 64.41996002522109
RANGE = 2016-10-13T07:42:00.000 169185533.2372256

ANGLE_1 = 2016-10-13T07:43:00.000 84.24059226956612
ANGLE_2 = 2016-10-13T07:43:00.000 64.6337192127603
RANGE = 2016-10-13T07:43:00.000 169186282.05153963

ANGLE_1 = 2016-10-13T07:44:00.000 84.06605407006727
ANGLE_2 = 2016-10-13T07:44:00.000 64.84722353821736
RANGE = 2016-10-13T07:44:00.000 169187030.9161699

ANGLE_1 = 2016-10-13T07:45:00.000 83.88781648101502
ANGLE_2 = 2016-10-13T07:45:00.000 65.06020556298463
RANGE = 2016-10-13T07:45:00.000 169187779.91279674

ANGLE_1 = 2016-10-13T07:46:00.000 83.70891323564854
ANGLE_2 = 2016-10-13T07:46:00.000 65.27385620649935
RANGE = 2016-10-13T07:46:00.000 169188528.9371208

ANGLE_1 = 2016-10-13T07:47:00.000 83.52740567642813
ANGLE_2 = 2016-10-13T07:47:00.000 65.4865902361647
RANGE = 2016-10-13T07:47:00.000 169189278.05772987

ANGLE_1 = 2016-10-13T07:48:00.000 83.34422983776548
ANGLE_2 = 2016-10-13T07:48:00.000 65.6990502132645
RANGE = 2016-10-13T07:48:00.000 169190027.27527195

ANGLE_1 = 2016-10-13T07:49:00.000 83.15916091962224
ANGLE_2 = 2016-10-13T07:49:00.000 65.91285670171375
RANGE = 2016-10-13T07:49:00.000 169190776.56563556

ANGLE_1 = 2016-10-13T07:50:00.000 82.97180936471663
ANGLE_2 = 2016-10-13T07:50:00.000 66.12479463522824
RANGE = 2016-10-13T07:50:00.000 169191525.9299216

ANGLE_1 = 2016-10-13T07:51:00.000 82.78158616619211
ANGLE_2 = 2016-10-13T07:51:00.000 66.33802118116395
RANGE = 2016-10-13T07:51:00.000 169192275.4225356

ANGLE_1 = 2016-10-13T07:52:00.000 82.58983415278357
ANGLE_2 = 2016-10-13T07:52:00.000 66.55025343736105
RANGE = 2016-10-13T07:52:00.000 169193024.95505252

ANGLE_1 = 2016-10-13T07:53:00.000 82.39585902024946
ANGLE_2 = 2016-10-13T07:53:00.000 66.76350745948614
RANGE = 2016-10-13T07:53:00.000 169193774.56527668

ANGLE_1 = 2016-10-13T07:54:00.000 82.19901957763231
ANGLE_2 = 2016-10-13T07:54:00.000 66.97546935709993
RANGE = 2016-10-13T07:54:00.000 169194524.2808277

ANGLE_1 = 2016-10-13T07:55:00.000 82.00090055447622
ANGLE_2 = 2016-10-13T07:55:00.000 67.1875340595813
RANGE = 2016-10-13T07:55:00.000 169195274.0684758

ANGLE_1 = 2016-10-13T07:56:00.000 81.7994523342701
ANGLE_2 = 2016-10-13T07:56:00.000 67.39946828134623
RANGE = 2016-10-13T07:56:00.000 169196023.93986705

ANGLE_1 = 2016-10-13T07:57:00.000 81.59491760574393
ANGLE_2 = 2016-10-13T07:57:00.000 67.61149020034014
RANGE = 2016-10-13T07:57:00.000 169196773.92636493

ANGLE_1 = 2016-10-13T07:58:00.000 81.38858062160682
ANGLE_2 = 2016-10-13T07:58:00.000 67.82339649436891
RANGE = 2016-10-13T07:58:00.000 169197523.9148796

ANGLE_1 = 2016-10-13T07:59:00.000 81.17907173963803
ANGLE_2 = 2016-10-13T07:59:00.000 68.03559941210698
RANGE = 2016-10-13T07:59:00.000 169198274.04955813

ANGLE_1 = 2016-10-13T08:00:00.000 80.96708707252412
ANGLE_2 = 2016-10-13T08:00:00.000 68.24749263856695
RANGE = 2016-10-13T08:00:00.000 169199024.2423987

ANGLE_1 = 2016-10-13T08:01:00.000 80.75200489592052
ANGLE_2 = 2016-10-13T08:01:00.000 68.45934916828301
RANGE = 2016-10-13T08:01:00.000 169199774.54068315

ANGLE_1 = 2016-10-13T08:02:00.000 80.53421244432151
ANGLE_2 = 2016-10-13T08:02:00.000 68.6703374691891
RANGE = 2016-10-13T08:02:00.000 169200524.96695048

ANGLE_1 = 2016-10-13T08:03:00.000 80.31266882564738
ANGLE_2 = 2016-10-13T08:03:00.000 68.88197431957076
RANGE = 2016-10-13T08:03:00.000 169201275.41698626

ANGLE_1 = 2016-10-13T08:04:00.000 80.08845254096867
ANGLE_2 = 2016-10-13T08:04:00.000 69.09263553019895
RANGE = 2016-10-13T08:04:00.000 169202025.98755375

ANGLE_1 = 2016-10-13T08:05:00.000 79.86160086961844
ANGLE_2 = 2016-10-13T08:05:00.000 69.30384911224607
RANGE = 2016-10-13T08:05:00.000 169202776.60373926

ANGLE_1 = 2016-10-13T08:06:00.000 79.63012300428115
ANGLE_2 = 2016-10-13T08:06:00.000 69.51493872547663
RANGE = 2016-10-13T08:06:00.000 169203527.3437515

ANGLE_1 = 2016-10-13T08:07:00.000 79.3962353969426
ANGLE_2 = 2016-10-13T08:07:00.000 69.7254668787342
RANGE = 2016-10-13T08:07:00.000 169204278.13627136

ANGLE_1 = 2016-10-13T08:08:00.000 79.15869917203194
ANGLE_2 = 2016-10-13T08:08:00.000 69.93603218755729
RANGE = 2016-10-13T08:08:00.000 169205029.00237083

ANGLE_1 = 2016-10-13T08:09:00.000 78.91641426502669
ANGLE_2 = 2016-10-13T08:09:00.000 70.14661073355708
RANGE = 2016-10-13T08:09:00.000 169205779.98940024

ANGLE_1 = 2016-10-13T08:10:00.000 78.6713501667355
ANGLE_2 = 2016-10-13T08:10:00.000 70.35693120798253
RANGE = 2016-10-13T08:10:00.000 169206531.08197188

ANGLE_1 = 2016-10-13T08:11:00.000 78.4224835931413
ANGLE_2 = 2016-10-13T08:11:00.000 70.5672786071678
RANGE = 2016-10-13T08:11:00.000 169207282.26407665

ANGLE_1 = 2016-10-13T08:12:00.000 78.16892255126977
ANGLE_2 = 2016-10-13T08:12:00.000 70.77699538180974
RANGE = 2016-10-13T08:12:00.000 169208033.46789566

ANGLE_1 = 2016-10-13T08:13:00.000 77.91123802614246
ANGLE_2 = 2016-10-13T08:13:00.000 70.98685874949783
RANGE = 2016-10-13T08:13:00.000 169208784.7894995

ANGLE_1 = 2016-10-13T08:14:00.000 77.65004033882624
ANGLE_2 = 2016-10-13T08:14:00.000 71.19657389148368
RANGE = 2016-10-13T08:14:00.000 169209536.18594298

ANGLE_1 = 2016-10-13T08:15:00.000 77.38412382932727
ANGLE_2 = 2016-10-13T08:15:00.000 71.40583416410855
RANGE = 2016-10-13T08:15:00.000 169210287.68878698

ANGLE_1 = 2016-10-13T08:16:00.000 77.11192631906397
ANGLE_2 = 2016-10-13T08:16:00.000 71.61462721932547
RANGE = 2016-10-13T08:16:00.000 169211039.2766889

ANGLE_1 = 2016-10-13T08:17:00.000 76.83803909495252
ANGLE_2 = 2016-10-13T08:17:00.000 71.82301693306528
RANGE = 2016-10-13T08:17:00.000 169211790.9668315

ANGLE_1 = 2016-10-13T08:18:00.000 76.5571723291351
ANGLE_2 = 2016-10-13T08:18:00.000 72.03229468647469
RANGE = 2016-10-13T08:18:00.000 169212542.71192092

ANGLE_1 = 2016-10-13T08:19:00.000 76.2711419827107
ANGLE_2 = 2016-10-13T08:19:00.000 72.24026760362555
RANGE = 2016-10-13T08:19:00.000 169213294.56889305

ANGLE_1 = 2016-10-13T08:20:00.000 75.98170268163501
ANGLE_2 = 2016-10-13T08:20:00.000 72.44813600614503
RANGE = 2016-10-13T08:20:00.000 169214046.45576954

ANGLE_1 = 2016-10-13T08:21:00.000 75.68464871429438
ANGLE_2 = 2016-10-13T08:21:00.000 72.65599582169301
RANGE = 2016-10-13T08:21:00.000 169214798.48726925

ANGLE_1 = 2016-10-13T08:22:00.000 75.38255342785305
ANGLE_2 = 2016-10-13T08:22:00.000 72.86331167163219
RANGE = 2016-10-13T08:22:00.000 169215550.65024194

ANGLE_1 = 2016-10-13T08:23:00.000 75.07460294152078
ANGLE_2 = 2016-10-13T08:23:00.000 73.07101505281875
RANGE = 2016-10-13T08:23:00.000 169216302.820856

ANGLE_1 = 2016-10-13T08:24:00.000 74.76103423536203
ANGLE_2 = 2016-10-13T08:24:00.000 73.27794817285906
RANGE = 2016-10-13T08:24:00.000 169217055.1285726

ANGLE_1 = 2016-10-13T08:25:00.000 74.44135634546785
ANGLE_2 = 2016-10-13T08:25:00.000 73.48479321228496
RANGE = 2016-10-13T08:25:00.000 169217807.48001572

ANGLE_1 = 2016-10-13T08:26:00.000 74.11443444807932
ANGLE_2 = 2016-10-13T08:26:00.000 73.69052191749032
RANGE = 2016-10-13T08:26:00.000 169218559.9465931

ANGLE_1 = 2016-10-13T08:27:00.000 73.7808157982843
ANGLE_2 = 2016-10-13T08:27:00.000 73.8973830611434
RANGE = 2016-10-13T08:27:00.000 169219312.48994505

ANGLE_1 = 2016-10-13T08:28:00.000 73.44105082943211
ANGLE_2 = 2016-10-13T08:28:00.000 74.10307679370887
RANGE = 2016-10-13T08:28:00.000 169220065.10588756

ANGLE_1 = 2016-10-13T08:29:00.000 73.09444364672672
ANGLE_2 = 2016-10-13T08:29:00.000 74.30827591815459
RANGE = 2016-10-13T08:29:00.000 169220817.87173328

ANGLE_1 = 2016-10-13T08:30:00.000 72.73904312192178
ANGLE_2 = 2016-10-13T08:30:00.000 74.51228523837574
RANGE = 2016-10-13T08:30:00.000 169221570.69257113

ANGLE_1 = 2016-10-13T08:31:00.000 72.37568107638279
ANGLE_2 = 2016-10-13T08:31:00.000 74.7171070053897
RANGE = 2016-10-13T08:31:00.000 169222323.5826195

ANGLE_1 = 2016-10-13T08:32:00.000 72.00511698744477
ANGLE_2 = 2016-10-13T08:32:00.000 74.9208968265758
RANGE = 2016-10-13T08:32:00.000 169223076.57398817

ANGLE_1 = 2016-10-13T08:33:00.000 71.62483006602011
ANGLE_2 = 2016-10-13T08:33:00.000 75.1246786510998
RANGE = 2016-10-13T08:33:00.000 169223829.64897978

ANGLE_1 = 2016-10-13T08:34:00.000 71.23757323701538
ANGLE_2 = 2016-10-13T08:34:00.000 75.32837741142839
RANGE = 2016-10-13T08:34:00.000 169224582.83882573

ANGLE_1 = 2016-10-13T08:35:00.000 70.8400752049246
ANGLE_2 = 2016-10-13T08:35:00.000 75.53097078751665
RANGE = 2016-10-13T08:35:00.000 169225336.07376584

ANGLE_1 = 2016-10-13T08:36:00.000 70.43287800998756
ANGLE_2 = 2016-10-13T08:36:00.000 75.73325616467748
RANGE = 2016-10-13T08:36:00.000 169226089.44055402

ANGLE_1 = 2016-10-13T08:37:00.000 70.01688253169075
ANGLE_2 = 2016-10-13T08:37:00.000 75.93458554650469
RANGE = 2016-10-13T08:37:00.000 169226842.84304494

ANGLE_1 = 2016-10-13T08:38:00.000 69.58977714247378
ANGLE_2 = 2016-10-13T08:38:00.000 76.13574329194046
RANGE = 2016-10-13T08:38:00.000 169227596.4062195

ANGLE_1 = 2016-10-13T08:39:00.000 69.15244361825398
ANGLE_2 = 2016-10-13T08:39:00.000 76.33630626662946
RANGE = 2016-10-13T08:39:00.000 169228350.0355552

ANGLE_1 = 2016-10-13T08:40:00.000 68.70352019955385
ANGLE_2 = 2016-10-13T08:40:00.000 76.53653562154821
RANGE = 2016-10-13T08:40:00.000 169229103.73329055

ANGLE_1 = 2016-10-13T08:41:00.000 68.24379611210341
ANGLE_2 = 2016-10-13T08:41:00.000 76.7355971902055
RANGE = 2016-10-13T08:41:00.000 169229857.51760077

ANGLE_1 = 2016-10-13T08:42:00.000 67.77022923677235
ANGLE_2 = 2016-10-13T08:42:00.000 76.93432009109084
RANGE = 2016-10-13T08:42:00.000 169230611.4346849

ANGLE_1 = 2016-10-13T08:43:00.000 67.28487158697274
ANGLE_2 = 2016-10-13T08:43:00.000 77.13241024434971
RANGE = 2016-10-13T08:43:00.000 169231365.39552587

ANGLE_1 = 2016-10-13T08:44:00.000 66.78711252694023
ANGLE_2 = 2016-10-13T08:44:00.000 77.33004843933996
RANGE = 2016-10-13T08:44:00.000 169232119.5057041

ANGLE_1 = 2016-10-13T08:45:00.000 66.2750409286992
ANGLE_2 = 2016-10-13T08:45:00.000 77.52620812070606
RANGE = 2016-10-13T08:45:00.000 169232873.63646096

ANGLE_1 = 2016-10-13T08:46:00.000 65.74814027492896
ANGLE_2 = 2016-10-13T08:46:00.000 77.7220555982953
RANGE = 2016-10-13T08:46:00.000 169233627.89560464

ANGLE_1 = 2016-10-13T08:47:00.000 65.2071062763008
ANGLE_2 = 2016-10-13T08:47:00.000 77.91742857194134
RANGE = 2016-10-13T08:47:00.000 169234382.2356137

ANGLE_1 = 2016-10-13T08:48:00.000 64.6487984212125
ANGLE_2 = 2016-10-13T08:48:00.000 78.11126521151236
RANGE = 2016-10-13T08:48:00.000 169235136.65972558

ANGLE_1 = 2016-10-13T08:49:00.000 64.07551120406748
ANGLE_2 = 2016-10-13T08:49:00.000 78.30460214439215
RANGE = 2016-10-13T08:49:00.000 169235891.1956378

ANGLE_1 = 2016-10-13T08:50:00.000 63.484175564618475
ANGLE_2 = 2016-10-13T08:50:00.000 78.49722202720758
RANGE = 2016-10-13T08:50:00.000 169236645.80100203

ANGLE_1 = 2016-10-13T08:51:00.000 62.87645023214932
ANGLE_2 = 2016-10-13T08:51:00.000 78.68827463750108
RANGE = 2016-10-13T08:51:00.000 169237400.47191337

ANGLE_1 = 2016-10-13T08:52:00.000 62.24844864771302
ANGLE_2 = 2016-10-13T08:52:00.000 78.87903673173727
RANGE = 2016-10-13T08:52:00.000 169238155.31471562

ANGLE_1 = 2016-10-13T08:53:00.000 61.60141962571228
ANGLE_2 = 2016-10-13T08:53:00.000 79.06739631854492
RANGE = 2016-10-13T08:53:00.000 169238910.19913143

ANGLE_1 = 2016-10-13T08:54:00.000 60.93451418829516
ANGLE_2 = 2016-10-13T08:54:00.000 79.25529428043704
RANGE = 2016-10-13T08:54:00.000 169239665.1526446

ANGLE_1 = 2016-10-13T08:55:00.000 60.2447260496691
ANGLE_2 = 2016-10-13T08:55:00.000 79.44177967418017
RANGE = 2016-10-13T08:55:00.000 169240420.21605137

ANGLE_1 = 2016-10-13T08:56:00.000 59.533386019501705
ANGLE_2 = 2016-10-13T08:56:00.000 79.62761736243779
RANGE = 2016-10-13T08:56:00.000 169241175.4096137

ANGLE_1 = 2016-10-13T08:57:00.000 58.798309466544644
ANGLE_2 = 2016-10-13T08:57:00.000 79.81154349404571
RANGE = 2016-10-13T08:57:00.000 169241930.6856818

ANGLE_1 = 2016-10-13T08:58:00.000 58.038645666064475
ANGLE_2 = 2016-10-13T08:58:00.000 79.99420168302446
RANGE = 2016-10-13T08:58:00.000 169242685.98397887

ANGLE_1 = 2016-10-13T08:59:00.000 57.25330823331361
ANGLE_2 = 2016-10-13T08:59:00.000 80.17542158859499
RANGE = 2016-10-13T08:59:00.000 169243441.427526

ANGLE_1 = 2016-10-13T09:00:00.000 56.43956356397874
ANGLE_2 = 2016-10-13T09:00:00.000 80.35485571712132
RANGE = 2016-10-13T09:00:00.000 169244196.9486682

ANGLE_1 = 2016-10-13T09:01:00.000 55.598888536632025
ANGLE_2 = 2016-10-13T09:01:00.000 80.5327183380924
RANGE = 2016-10-13T09:01:00.000 169244952.59280863

ANGLE_1 = 2016-10-13T09:02:00.000 54.7277528627418
ANGLE_2 = 2016-10-13T09:02:00.000 80.7077749846187
RANGE = 2016-10-13T09:02:00.000 169245708.2517004

ANGLE_1 = 2016-10-13T09:03:00.000 53.82655533268793
ANGLE_2 = 2016-10-13T09:03:00.000 80.88252651374259
RANGE = 2016-10-13T09:03:00.000 169246464.06703866

ANGLE_1 = 2016-10-13T09:04:00.000 52.89153265005937
ANGLE_2 = 2016-10-13T09:04:00.000 81.05396190457994
RANGE = 2016-10-13T09:04:00.000 169247219.9813109

ANGLE_1 = 2016-10-13T09:05:00.000 51.92355596942783
ANGLE_2 = 2016-10-13T09:05:00.000 81.22417007328353
RANGE = 2016-10-13T09:05:00.000 169247975.9615232

ANGLE_1 = 2016-10-13T09:06:00.000 50.92023257490622
ANGLE_2 = 2016-10-13T09:06:00.000 81.39105451587457
RANGE = 2016-10-13T09:06:00.000 169248732.013243

ANGLE_1 = 2016-10-13T09:07:00.000 49.87915497167835
ANGLE_2 = 2016-10-13T09:07:00.000 81.556765434433
RANGE = 2016-10-13T09:07:00.000 169249488.18339595

ANGLE_1 = 2016-10-13T09:08:00.000 48.79956747599218
ANGLE_2 = 2016-10-13T09:08:00.000 81.71906995540277
RANGE = 2016-10-13T09:08:00.000 169250244.46056548

ANGLE_1 = 2016-10-13T09:09:00.000 47.67946949185552
ANGLE_2 = 2016-10-13T09:09:00.000 81.87936382302868
RANGE = 2016-10-13T09:09:00.000 169251000.8396967

ANGLE_1 = 2016-10-13T09:10:00.000 46.516795834483105
ANGLE_2 = 2016-10-13T09:10:00.000 82.03591190034881
RANGE = 2016-10-13T09:10:00.000 169251757.25691605

ANGLE_1 = 2016-10-13T09:11:00.000 45.311246481777076
ANGLE_2 = 2016-10-13T09:11:00.000 82.1898677956517
RANGE = 2016-10-13T09:11:00.000 169252513.79759973

ANGLE_1 = 2016-10-13T09:12:00.000 44.05916879213683
ANGLE_2 = 2016-10-13T09:12:00.000 82.34024517585488
RANGE = 2016-10-13T09:12:00.000 169253270.42476442

ANGLE_1 = 2016-10-13T09:13:00.000 42.760719030621516
ANGLE_2 = 2016-10-13T09:13:00.000 82.48755435338192
RANGE = 2016-10-13T09:13:00.000 169254027.14401913

ANGLE_1 = 2016-10-13T09:14:00.000 41.41323693255189
ANGLE_2 = 2016-10-13T09:14:00.000 82.63115085706747
RANGE = 2016-10-13T09:14:00.000 169254783.9462119

ANGLE_1 = 2016-10-13T09:15:00.000 40.015051818272596
ANGLE_2 = 2016-10-13T09:15:00.000 82.77148261722972
RANGE = 2016-10-13T09:15:00.000 169255540.8786367

ANGLE_1 = 2016-10-13T09:16:00.000 38.564739596735215
ANGLE_2 = 2016-10-13T09:16:00.000 82.90708191824797
RANGE = 2016-10-13T09:16:00.000 169256297.84873113

ANGLE_1 = 2016-10-13T09:17:00.000 37.061401823921244
ANGLE_2 = 2016-10-13T09:17:00.000 83.03807943097623
RANGE = 2016-10-13T09:17:00.000 169257054.9600169

ANGLE_1 = 2016-10-13T09:18:00.000 35.50416698774011
ANGLE_2 = 2016-10-13T09:18:00.000 83.1656747680679
RANGE = 2016-10-13T09:18:00.000 169257812.13958398

ANGLE_1 = 2016-10-13T09:19:00.000 33.89019694165182
ANGLE_2 = 2016-10-13T09:19:00.000 83.2873614723732
RANGE = 2016-10-13T09:19:00.000 169258569.40371805

ANGLE_1 = 2016-10-13T09:20:00.000 32.22039925608586
ANGLE_2 = 2016-10-13T09:20:00.000 83.40452231314849
RANGE = 2016-10-13T09:20:00.000 169259326.7665858

ANGLE_1 = 2016-10-13T09:21:00.000 30.494751385377363
ANGLE_2 = 2016-10-13T09:21:00.000 83.51525882934075
RANGE = 2016-10-13T09:21:00.000 169260084.23452905

ANGLE_1 = 2016-10-13T09:22:00.000 28.711543559631867
ANGLE_2 = 2016-10-13T09:22:00.000 83.6216156130392
RANGE = 2016-10-13T09:22:00.000 169260841.7732325

ANGLE_1 = 2016-10-13T09:23:00.000 26.872532918093942
ANGLE_2 = 2016-10-13T09:23:00.000 83.7223012128909
RANGE = 2016-10-13T09:23:00.000 169261599.41815034

ANGLE_1 = 2016-10-13T09:24:00.000 24.97746433194538
ANGLE_2 = 2016-10-13T09:24:00.000 83.81466040947399
RANGE = 2016-10-13T09:24:00.000 169262357.17459437

ANGLE_1 = 2016-10-13T09:25:00.000 23.028454538035326
ANGLE_2 = 2016-10-13T09:25:00.000 83.9020131597412
RANGE = 2016-10-13T09:25:00.000 169263114.96793362

ANGLE_1 = 2016-10-13T09:26:00.000 21.026290348821796
ANGLE_2 = 2016-10-13T09:26:00.000 83.98286825886514
RANGE = 2016-10-13T09:26:00.000 169263872.93487

ANGLE_1 = 2016-10-13T09:27:00.000 18.973971519029384
ANGLE_2 = 2016-10-13T09:27:00.000 84.05573369026479
RANGE = 2016-10-13T09:27:00.000 169264630.95158726

ANGLE_1 = 2016-10-13T09:28:00.000 16.874900578654003
ANGLE_2 = 2016-10-13T09:28:00.000 84.12192964407964
RANGE = 2016-10-13T09:28:00.000 169265389.05554423

ANGLE_1 = 2016-10-13T09:29:00.000 14.731844088716748
ANGLE_2 = 2016-10-13T09:29:00.000 84.18006382684214
RANGE = 2016-10-13T09:29:00.000 169266147.24760747

ANGLE_1 = 2016-10-13T09:30:00.000 12.550095464448916
ANGLE_2 = 2016-10-13T09:30:00.000 84.23062197407918
RANGE = 2016-10-13T09:30:00.000 169266905.5474369

ANGLE_1 = 2016-10-13T09:31:00.000 10.332659180233994
ANGLE_2 = 2016-10-13T09:31:00.000 84.2735725653453
RANGE = 2016-10-13T09:31:00.000 169267663.91630834

ANGLE_1 = 2016-10-13T09:32:00.000 8.087573502179723
ANGLE_2 = 2016-10-13T09:32:00.000 84.30645963281847
RANGE = 2016-10-13T09:32:00.000 169268422.4038487

ANGLE_1 = 2016-10-13T09:33:00.000 5.818507039350878
ANGLE_2 = 2016-10-13T09:33:00.000 84.3330383053248
RANGE = 2016-10-13T09:33:00.000 169269180.9869985

ANGLE_1 = 2016-10-13T09:34:00.000 3.533358534080501
ANGLE_2 = 2016-10-13T09:34:00.000 84.35081486914741
RANGE = 2016-10-13T09:34:00.000 169269939.6397636

ANGLE_1 = 2016-10-13T09:35:00.000 1.2370532546107684
ANGLE_2 = 2016-10-13T09:35:00.000 84.35928053313877
RANGE = 2016-10-13T09:35:00.000 169270698.44351166

ANGLE_1 = 2016-10-13T09:36:00.000 358.93778895005596
ANGLE_2 = 2016-10-13T09:36:00.000 84.35953366629991
RANGE = 2016-10-13T09:36:00.000 169271457.2841621

ANGLE_1 = 2016-10-13T09:37:00.000 356.6408017412053
ANGLE_2 = 2016-10-13T09:37:00.000 84.35137107994258
RANGE = 2016-10-13T09:37:00.000 169272216.22381008

ANGLE_1 = 2016-10-13T09:38:00.000 354.3544600723503
ANGLE_2 = 2016-10-13T09:38:00.000 84.3343832742809
RANGE = 2016-10-13T09:38:00.000 169272975.20969126

ANGLE_1 = 2016-10-13T09:39:00.000 352.08454999259175
ANGLE_2 = 2016-10-13T09:39:00.000 84.30875355033689
RANGE = 2016-10-13T09:39:00.000 169273734.3868755

ANGLE_1 = 2016-10-13T09:40:00.000 349.83814340856924
ANGLE_2 = 2016-10-13T09:40:00.000 84.27478285995764
RANGE = 2016-10-13T09:40:00.000 169274493.64483848

ANGLE_1 = 2016-10-13T09:41:00.000 347.61891344259845
ANGLE_2 = 2016-10-13T09:41:00.000 84.23310639431601
RANGE = 2016-10-13T09:41:00.000 169275252.95755163

ANGLE_1 = 2016-10-13T09:42:00.000 345.43517782354763
ANGLE_2 = 2016-10-13T09:42:00.000 84.1829308625233
RANGE = 2016-10-13T09:42:00.000 169276012.32764778

ANGLE_1 = 2016-10-13T09:43:00.000 343.2894901686793
ANGLE_2 = 2016-10-13T09:43:00.000 84.12566442997655
RANGE = 2016-10-13T09:43:00.000 169276771.81676593

ANGLE_1 = 2016-10-13T09:44:00.000 341.1868490791404
ANGLE_2 = 2016-10-13T09:44:00.000 84.05968326516596
RANGE = 2016-10-13T09:44:00.000 169277531.3795815

ANGLE_1 = 2016-10-13T09:45:00.000 339.13242989223465
ANGLE_2 = 2016-10-13T09:45:00.000 83.9870261760612
RANGE = 2016-10-13T09:45:00.000 169278291.08990073

ANGLE_1 = 2016-10-13T09:46:00.000 337.12748274458744
ANGLE_2 = 2016-10-13T09:46:00.000 83.90709009819852
RANGE = 2016-10-13T09:46:00.000 169279050.85073638

ANGLE_1 = 2016-10-13T09:47:00.000 335.17450764941134
ANGLE_2 = 2016-10-13T09:47:00.000 83.82014342842446
RANGE = 2016-10-13T09:47:00.000 169279810.7287506

ANGLE_1 = 2016-10-13T09:48:00.000 333.2769853539797
ANGLE_2 = 2016-10-13T09:48:00.000 83.72738925930057
RANGE = 2016-10-13T09:48:00.000 169280570.72381553

ANGLE_1 = 2016-10-13T09:49:00.000 331.4341536155453
ANGLE_2 = 2016-10-13T09:49:00.000 83.62775001609596
RANGE = 2016-10-13T09:49:00.000 169281330.73979

ANGLE_1 = 2016-10-13T09:50:00.000 329.6474632112518
ANGLE_2 = 2016-10-13T09:50:00.000 83.52094201035145
RANGE = 2016-10-13T09:50:00.000 169282090.92859685

ANGLE_1 = 2016-10-13T09:51:00.000 327.9186396242402
ANGLE_2 = 2016-10-13T09:51:00.000 83.41099535498898
RANGE = 2016-10-13T09:51:00.000 169282851.1269071

ANGLE_1 = 2016-10-13T09:52:00.000 326.2453159649906
ANGLE_2 = 2016-10-13T09:52:00.000 83.29431729164672
RANGE = 2016-10-13T09:52:00.000 169283611.50651327

ANGLE_1 = 2016-10-13T09:53:00.000 324.6289321933081
ANGLE_2 = 2016-10-13T09:53:00.000 83.17250591262896
RANGE = 2016-10-13T09:53:00.000 169284371.90173244

ANGLE_1 = 2016-10-13T09:54:00.000 323.06787114270435
ANGLE_2 = 2016-10-13T09:54:00.000 83.04562703368512
RANGE = 2016-10-13T09:54:00.000 169285132.44531068

ANGLE_1 = 2016-10-13T09:55:00.000 321.5616428242629
ANGLE_2 = 2016-10-13T09:55:00.000 82.91502287449599
RANGE = 2016-10-13T09:55:00.000 169285893.02751902

ANGLE_1 = 2016-10-13T09:56:00.000 320.10826672039315
ANGLE_2 = 2016-10-13T09:56:00.000 82.77930367971923
RANGE = 2016-10-13T09:56:00.000 169286653.73273033

ANGLE_1 = 2016-10-13T09:57:00.000 318.706995338256
ANGLE_2 = 2016-10-13T09:57:00.000 82.63970070856377
RANGE = 2016-10-13T09:57:00.000 169287414.50331923

ANGLE_1 = 2016-10-13T09:58:00.000 317.35644601971455
ANGLE_2 = 2016-10-13T09:58:00.000 82.49627440764844
RANGE = 2016-10-13T09:58:00.000 169288175.39589152

ANGLE_1 = 2016-10-13T09:59:00.000 316.0547333363092
ANGLE_2 = 2016-10-13T09:59:00.000 82.34975029011642
RANGE = 2016-10-13T09:59:00.000 169288936.40938997

ANGLE_1 = 2016-10-13T10:00:00.000 314.8006447112018
ANGLE_2 = 2016-10-13T10:00:00.000 82.19871996855319
RANGE = 2016-10-13T10:00:00.000 169289697.46037778

ANGLE_1 = 2016-10-13T10:01:00.000 313.5918197048886
ANGLE_2 = 2016-10-13T10:01:00.000 82.04563552977264
RANGE = 2016-10-13T10:01:00.000 169290458.6253326

ANGLE_1 = 2016-10-13T10:02:00.000 312.42714161340774
ANGLE_2 = 2016-10-13T10:02:00.000 81.88865501385723
RANGE = 2016-10-13T10:02:00.000 169291219.89779362

ANGLE_1 = 2016-10-13T10:03:00.000 311.3052593827417
ANGLE_2 = 2016-10-13T10:03:00.000 81.72806460921345
RANGE = 2016-10-13T10:03:00.000 169291981.2383314

ANGLE_1 = 2016-10-13T10:04:00.000 310.2223123778508
ANGLE_2 = 2016-10-13T10:04:00.000 81.5659660483318
RANGE = 2016-10-13T10:04:00.000 169292742.643386

ANGLE_1 = 2016-10-13T10:05:00.000 309.179354615661
ANGLE_2 = 2016-10-13T10:05:00.000 81.40175217552826
RANGE = 2016-10-13T10:05:00.000 169293504.2249441

ANGLE_1 = 2016-10-13T10:06:00.000 308.17319336663473
ANGLE_2 = 2016-10-13T10:06:00.000 81.23458251683537
RANGE = 2016-10-13T10:06:00.000 169294265.83126962

ANGLE_1 = 2016-10-13T10:07:00.000 307.20290733478214
ANGLE_2 = 2016-10-13T10:07:00.000 81.06409590501939
RANGE = 2016-10-13T10:07:00.000 169295027.56498918

ANGLE_1 = 2016-10-13T10:08:00.000 306.2667914772856
ANGLE_2 = 2016-10-13T10:08:00.000 80.8923256275312
RANGE = 2016-10-13T10:08:00.000 169295789.3685103

ANGLE_1 = 2016-10-13T10:09:00.000 305.3632334694096
ANGLE_2 = 2016-10-13T10:09:00.000 80.71862190389683
RANGE = 2016-10-13T10:09:00.000 169296551.25483468

ANGLE_1 = 2016-10-13T10:10:00.000 304.4901703426007
ANGLE_2 = 2016-10-13T10:10:00.000 80.54259835067936
RANGE = 2016-10-13T10:10:00.000 169297313.25088626

ANGLE_1 = 2016-10-13T10:11:00.000 303.6474886649691
ANGLE_2 = 2016-10-13T10:11:00.000 80.36513274091558
RANGE = 2016-10-13T10:11:00.000 169298075.32522744

ANGLE_1 = 2016-10-13T10:12:00.000 302.833675890145
ANGLE_2 = 2016-10-13T10:12:00.000 80.18594793672177
RANGE = 2016-10-13T10:12:00.000 169298837.52279723

ANGLE_1 = 2016-10-13T10:13:00.000 302.04647255725627
ANGLE_2 = 2016-10-13T10:13:00.000 80.00466101418155
RANGE = 2016-10-13T10:13:00.000 169299599.76980484

ANGLE_1 = 2016-10-13T10:14:00.000 301.2846672908729
ANGLE_2 = 2016-10-13T10:14:00.000 79.82262054635507
RANGE = 2016-10-13T10:14:00.000 169300362.13685074

ANGLE_1 = 2016-10-13T10:15:00.000 300.54819098816665
ANGLE_2 = 2016-10-13T10:15:00.000 79.63852956932375
RANGE = 2016-10-13T10:15:00.000 169301124.56894797

ANGLE_1 = 2016-10-13T10:16:00.000 299.8353907178256
ANGLE_2 = 2016-10-13T10:16:00.000 79.4529110361386
RANGE = 2016-10-13T10:16:00.000 169301887.11266145

ANGLE_1 = 2016-10-13T10:17:00.000 299.1448336767762
ANGLE_2 = 2016-10-13T10:17:00.000 79.2661059496057
RANGE = 2016-10-13T10:17:00.000 169302649.73773324

ANGLE_1 = 2016-10-13T10:18:00.000 298.47656450079296
ANGLE_2 = 2016-10-13T10:18:00.000 79.07856171811487
RANGE = 2016-10-13T10:18:00.000 169303412.44903356

ANGLE_1 = 2016-10-13T10:19:00.000 297.8277195013433
ANGLE_2 = 2016-10-13T10:19:00.000 78.88887999918772
RANGE = 2016-10-13T10:19:00.000 169304175.27899846

ANGLE_1 = 2016-10-13T10:20:00.000 297.1991635554691
ANGLE_2 = 2016-10-13T10:20:00.000 78.69913532919226
RANGE = 2016-10-13T10:20:00.000 169304938.17424032

ANGLE_1 = 2016-10-13T10:21:00.000 296.5887668444087
ANGLE_2 = 2016-10-13T10:21:00.000 78.50738224258662
RANGE = 2016-10-13T10:21:00.000 169305701.2185728

ANGLE_1 = 2016-10-13T10:22:00.000 295.9981424614439
ANGLE_2 = 2016-10-13T10:22:00.000 78.31576411174947
RANGE = 2016-10-13T10:22:00.000 169306464.28081924

ANGLE_1 = 2016-10-13T10:23:00.000 295.422630219422
