2nd Assignment - Navigation/tdm/NEW_NORCIA_EXM_20161011T041336_20161011T150208.tdm

CCSDS_TDM_VERS = 2.0

COMMENT This TDM contains synthetic data, not from real observations

CREATION_DATE = 2021-11-26T14:48:46.560791
ORIGINATOR = POLIMI-DAER

META_START
TIME_SYSTEM = UTC
START_TIME = 2016-10-11T04:13:36.589
STOP_TIME = 2016-10-11T15:02:08.642
PARTICIPANT_1 = NEW_NORCIA
PARTICIPANT_2 = EXM
MODE = SEQUENTIAL
PATH = 1,2,1
RANGE_UNITS = km
ANGLE_TYPE = AZEL
META_STOP

DATA_START

ANGLE_1 = 2016-10-11T04:13:36.589 108.56287637203802
ANGLE_2 = 2016-10-11T04:13:36.589 19.999781257007122
RANGE = 2016-10-11T04:13:36.589 166837988.4654205

ANGLE_1 = 2016-10-11T04:14:00.000 108.52302993914137
ANGLE_2 = 2016-10-11T04:14:00.000 20.07935705565637
RANGE = 2016-10-11T04:14:00.000 166838278.04321602

ANGLE_1 = 2016-10-11T04:15:00.000 108.41934680071944
ANGLE_2 = 2016-10-11T04:15:00.000 20.28305345342272
RANGE = 2016-10-11T04:15:00.000 166839020.30023694

ANGLE_1 = 2016-10-11T04:16:00.000 108.31455530591512
ANGLE_2 = 2016-10-11T04:16:00.000 20.486315805330726
RANGE = 2016-10-11T04:16:00.000 166839762.529461

ANGLE_1 = 2016-10-11T04:17:00.000 108.21130674196003
ANGLE_2 = 2016-10-11T04:17:00.000 20.68913421147929
RANGE = 2016-10-11T04:17:00.000 166840504.7832885

ANGLE_1 = 2016-10-11T04:18:00.000 108.1071783030754
ANGLE_2 = 2016-10-11T04:18:00.000 20.89359732233888
RANGE = 2016-10-11T04:18:00.000 166841247.04415405

ANGLE_1 = 2016-10-11T04:19:00.000 108.00332786068672
ANGLE_2 = 2016-10-11T04:19:00.000 21.097130825747087
RANGE = 2016-10-11T04:19:00.000 166841989.35283163

ANGLE_1 = 2016-10-11T04:20:00.000 107.8997908178695
ANGLE_2 = 2016-10-11T04:20:00.000 21.30077263219418
RANGE = 2016-10-11T04:20:00.000 166842731.64047655

ANGLE_1 = 2016-10-11T04:21:00.000 107.79667209332798
ANGLE_2 = 2016-10-11T04:21:00.000 21.5049774228203
RANGE = 2016-10-11T04:21:00.000 166843473.97402647

ANGLE_1 = 2016-10-11T04:22:00.000 107.69361901403246
ANGLE_2 = 2016-10-11T04:22:00.000 21.70910135391327
RANGE = 2016-10-11T04:22:00.000 166844216.33610076

ANGLE_1 = 2016-10-11T04:23:00.000 107.58970310304784
ANGLE_2 = 2016-10-11T04:23:00.000 21.913318713714006
RANGE = 2016-10-11T04:23:00.000 166844958.6612518

ANGLE_1 = 2016-10-11T04:24:00.000 107.48764165643472
ANGLE_2 = 2016-10-11T04:24:00.000 22.1174709981849
RANGE = 2016-10-11T04:24:00.000 166845701.0363924

ANGLE_1 = 2016-10-11T04:25:00.000 107.3843772808276
ANGLE_2 = 2016-10-11T04:25:00.000 22.32189266085026
RANGE = 2016-10-11T04:25:00.000 166846443.4371273

ANGLE_1 = 2016-10-11T04:26:00.000 107.28166960008426
ANGLE_2 = 2016-10-11T04:26:00.000 22.52646081711137
RANGE = 2016-10-11T04:26:00.000 166847185.84215724

ANGLE_1 = 2016-10-11T04:27:00.000 107.17947998596433
ANGLE_2 = 2016-10-11T04:27:00.000 22.732026362513622
RANGE = 2016-10-11T04:27:00.000 166847928.2926636

ANGLE_1 = 2016-10-11T04:28:00.000 107.07640380502795
ANGLE_2 = 2016-10-11T04:28:00.000 22.93613700339767
RANGE = 2016-10-11T04:28:00.000 166848670.6960571

ANGLE_1 = 2016-10-11T04:29:00.000 106.97373068300945
ANGLE_2 = 2016-10-11T04:29:00.000 23.140732758106004
RANGE = 2016-10-11T04:29:00.000 166849413.1914414

ANGLE_1 = 2016-10-11T04:30:00.000 106.87170844978249
ANGLE_2 = 2016-10-11T04:30:00.000 23.34620000905732
RANGE = 2016-10-11T04:30:00.000 166850155.654249

ANGLE_1 = 2016-10-11T04:31:00.000 106.76979695524889
ANGLE_2 = 2016-10-11T04:31:00.000 23.55202774091664
RANGE = 2016-10-11T04:31:00.000 166850898.1230883

ANGLE_1 = 2016-10-11T04:32:00.000 106.66684700982537
ANGLE_2 = 2016-10-11T04:32:00.000 23.756613762711613
RANGE = 2016-10-11T04:32:00.000 166851640.62583184

ANGLE_1 = 2016-10-11T04:33:00.000 106.5655134701246
ANGLE_2 = 2016-10-11T04:33:00.000 23.962303166027603
RANGE = 2016-10-11T04:33:00.000 166852383.2123945

ANGLE_1 = 2016-10-11T04:34:00.000 106.46363303930904
ANGLE_2 = 2016-10-11T04:34:00.000 24.167499669412265
RANGE = 2016-10-11T04:34:00.000 166853125.74388516

ANGLE_1 = 2016-10-11T04:35:00.000 106.3614969602096
ANGLE_2 = 2016-10-11T04:35:00.000 24.373110634613585
RANGE = 2016-10-11T04:35:00.000 166853868.3402715

ANGLE_1 = 2016-10-11T04:36:00.000 106.2596341787375
ANGLE_2 = 2016-10-11T04:36:00.000 24.57827924935704
RANGE = 2016-10-11T04:36:00.000 166854610.95188043

ANGLE_1 = 2016-10-11T04:37:00.000 106.15826898899817
ANGLE_2 = 2016-10-11T04:37:00.000 24.78461447203658
RANGE = 2016-10-11T04:37:00.000 166855353.55592853

ANGLE_1 = 2016-10-11T04:38:00.000 106.05668249434434
ANGLE_2 = 2016-10-11T04:38:00.000 24.991144759894613
RANGE = 2016-10-11T04:38:00.000 166856096.2011435

ANGLE_1 = 2016-10-11T04:39:00.000 105.95561030294404
ANGLE_2 = 2016-10-11T04:39:00.000 25.1969515890687
RANGE = 2016-10-11T04:39:00.000 166856838.89075407

ANGLE_1 = 2016-10-11T04:40:00.000 105.85366676282727
ANGLE_2 = 2016-10-11T04:40:00.000 25.403565279793984
RANGE = 2016-10-11T04:40:00.000 166857581.58945104

ANGLE_1 = 2016-10-11T04:41:00.000 105.75222736377565
ANGLE_2 = 2016-10-11T04:41:00.000 25.60898899955225
RANGE = 2016-10-11T04:41:00.000 166858324.29996163

ANGLE_1 = 2016-10-11T04:42:00.000 105.65117662926193
ANGLE_2 = 2016-10-11T04:42:00.000 25.815640563801427
RANGE = 2016-10-11T04:42:00.000 166859067.0674875

ANGLE_1 = 2016-10-11T04:43:00.000 105.55038205415339
ANGLE_2 = 2016-10-11T04:43:00.000 26.02143651853543
RANGE = 2016-10-11T04:43:00.000 166859809.7723211

ANGLE_1 = 2016-10-11T04:44:00.000 105.44952315019525
ANGLE_2 = 2016-10-11T04:44:00.000 26.227989084578546
RANGE = 2016-10-11T04:44:00.000 166860552.62513006

ANGLE_1 = 2016-10-11T04:45:00.000 105.34855538383542
ANGLE_2 = 2016-10-11T04:45:00.000 26.43539911985679
RANGE = 2016-10-11T04:45:00.000 166861295.42617163

ANGLE_1 = 2016-10-11T04:46:00.000 105.24829853459406
ANGLE_2 = 2016-10-11T04:46:00.000 26.641346868044444
RANGE = 2016-10-11T04:46:00.000 166862038.28040057

ANGLE_1 = 2016-10-11T04:47:00.000 105.14727062751635
ANGLE_2 = 2016-10-11T04:47:00.000 26.84866994086443
RANGE = 2016-10-11T04:47:00.000 166862781.16441798

ANGLE_1 = 2016-10-11T04:48:00.000 105.04624113934936
ANGLE_2 = 2016-10-11T04:48:00.000 27.055259647205602
RANGE = 2016-10-11T04:48:00.000 166863524.01883548

ANGLE_1 = 2016-10-11T04:49:00.000 104.94568860008964
ANGLE_2 = 2016-10-11T04:49:00.000 27.262317343926547
RANGE = 2016-10-11T04:49:00.000 166864266.9615322

ANGLE_1 = 2016-10-11T04:50:00.000 104.84521650629108
ANGLE_2 = 2016-10-11T04:50:00.000 27.469772352194592
RANGE = 2016-10-11T04:50:00.000 166865009.91782343

ANGLE_1 = 2016-10-11T04:51:00.000 104.74354917147082
ANGLE_2 = 2016-10-11T04:51:00.000 27.67684064550859
RANGE = 2016-10-11T04:51:00.000 166865752.85121137

ANGLE_1 = 2016-10-11T04:52:00.000 104.64403755897901
ANGLE_2 = 2016-10-11T04:52:00.000 27.88378595183814
RANGE = 2016-10-11T04:52:00.000 166866495.88290015

ANGLE_1 = 2016-10-11T04:53:00.000 104.54361483131954
ANGLE_2 = 2016-10-11T04:53:00.000 28.09113841593288
RANGE = 2016-10-11T04:53:00.000 166867238.9205366

ANGLE_1 = 2016-10-11T04:54:00.000 104.44299991071638
ANGLE_2 = 2016-10-11T04:54:00.000 28.299178845945303
RANGE = 2016-10-11T04:54:00.000 166867981.97480133

ANGLE_1 = 2016-10-11T04:55:00.000 104.3425261335294
ANGLE_2 = 2016-10-11T04:55:00.000 28.50696832072597
RANGE = 2016-10-11T04:55:00.000 166868725.08186504

ANGLE_1 = 2016-10-11T04:56:00.000 104.24219628259164
ANGLE_2 = 2016-10-11T04:56:00.000 28.714440734137877
RANGE = 2016-10-11T04:56:00.000 166869468.20671296

ANGLE_1 = 2016-10-11T04:57:00.000 104.14208462895748
ANGLE_2 = 2016-10-11T04:57:00.000 28.922025678822017
RANGE = 2016-10-11T04:57:00.000 166870211.34564167

ANGLE_1 = 2016-10-11T04:58:00.000 104.04278856104798
ANGLE_2 = 2016-10-11T04:58:00.000 29.130432097188024
RANGE = 2016-10-11T04:58:00.000 166870954.5240749

ANGLE_1 = 2016-10-11T04:59:00.000 103.94244397941928
ANGLE_2 = 2016-10-11T04:59:00.000 29.338173777670747
RANGE = 2016-10-11T04:59:00.000 166871697.7054887

ANGLE_1 = 2016-10-11T05:00:00.000 103.84219369737299
ANGLE_2 = 2016-10-11T05:00:00.000 29.54654625833281
RANGE = 2016-10-11T05:00:00.000 166872440.9692289

ANGLE_1 = 2016-10-11T05:01:00.000 103.74196452449434
ANGLE_2 = 2016-10-11T05:01:00.000 29.754471818627422
RANGE = 2016-10-11T05:01:00.000 166873184.26347166

ANGLE_1 = 2016-10-11T05:02:00.000 103.64177028264115
ANGLE_2 = 2016-10-11T05:02:00.000 29.962916185344213
RANGE = 2016-10-11T05:02:00.000 166873927.52531785

ANGLE_1 = 2016-10-11T05:03:00.000 103.54243772741607
ANGLE_2 = 2016-10-11T05:03:00.000 30.170928359118218
RANGE = 2016-10-11T05:03:00.000 166874670.90226445

ANGLE_1 = 2016-10-11T05:04:00.000 103.44194777325393
ANGLE_2 = 2016-10-11T05:04:00.000 30.37976014001014
RANGE = 2016-10-11T05:04:00.000 166875414.2180622

ANGLE_1 = 2016-10-11T05:05:00.000 103.34183131010941
ANGLE_2 = 2016-10-11T05:05:00.000 30.588100278088536
RANGE = 2016-10-11T05:05:00.000 166876157.66727483

ANGLE_1 = 2016-10-11T05:06:00.000 103.24231671602641
ANGLE_2 = 2016-10-11T05:06:00.000 30.796320251863687
RANGE = 2016-10-11T05:06:00.000 166876901.07735333

ANGLE_1 = 2016-10-11T05:07:00.000 103.14312051883344
ANGLE_2 = 2016-10-11T05:07:00.000 31.00510845887737
RANGE = 2016-10-11T05:07:00.000 166877644.56726107

ANGLE_1 = 2016-10-11T05:08:00.000 103.04271746571239
ANGLE_2 = 2016-10-11T05:08:00.000 31.21378636648494
RANGE = 2016-10-11T05:08:00.000 166878388.0619907

ANGLE_1 = 2016-10-11T05:09:00.000 102.94311051028315
ANGLE_2 = 2016-10-11T05:09:00.000 31.422791394956644
RANGE = 2016-10-11T05:09:00.000 166879131.6129904

ANGLE_1 = 2016-10-11T05:10:00.000 102.84347043803734
ANGLE_2 = 2016-10-11T05:10:00.000 31.632009975701276
RANGE = 2016-10-11T05:10:00.000 166879875.19455084

ANGLE_1 = 2016-10-11T05:11:00.000 102.7433531181216
ANGLE_2 = 2016-10-11T05:11:00.000 31.84061749835333
RANGE = 2016-10-11T05:11:00.000 166880618.7918374

ANGLE_1 = 2016-10-11T05:12:00.000 102.6442816228892
ANGLE_2 = 2016-10-11T05:12:00.000 32.04985326871162
RANGE = 2016-10-11T05:12:00.000 166881362.44869128

ANGLE_1 = 2016-10-11T05:13:00.000 102.54389435165798
ANGLE_2 = 2016-10-11T05:13:00.000 32.258899446269
RANGE = 2016-10-11T05:13:00.000 166882106.10484543

ANGLE_1 = 2016-10-11T05:14:00.000 102.44434529762796
ANGLE_2 = 2016-10-11T05:14:00.000 32.46773777092917
RANGE = 2016-10-11T05:14:00.000 166882849.8237956

ANGLE_1 = 2016-10-11T05:15:00.000 102.34435106536858
ANGLE_2 = 2016-10-11T05:15:00.000 32.67749078830221
RANGE = 2016-10-11T05:15:00.000 166883593.54232496

ANGLE_1 = 2016-10-11T05:16:00.000 102.24464875828862
ANGLE_2 = 2016-10-11T05:16:00.000 32.88635179440139
RANGE = 2016-10-11T05:16:00.000 166884337.35283282

ANGLE_1 = 2016-10-11T05:17:00.000 102.14477803756584
ANGLE_2 = 2016-10-11T05:17:00.000 33.096529289652
RANGE = 2016-10-11T05:17:00.000 166885081.20832354

ANGLE_1 = 2016-10-11T05:18:00.000 102.04507915734891
ANGLE_2 = 2016-10-11T05:18:00.000 33.30598347389425
RANGE = 2016-10-11T05:18:00.000 166885825.07422718

ANGLE_1 = 2016-10-11T05:19:00.000 101.94613531547954
ANGLE_2 = 2016-10-11T05:19:00.000 33.51553015427086
RANGE = 2016-10-11T05:19:00.000 166886568.95058337

ANGLE_1 = 2016-10-11T05:20:00.000 101.8458649618399
ANGLE_2 = 2016-10-11T05:20:00.000 33.72577085950587
RANGE = 2016-10-11T05:20:00.000 166887312.9117717

ANGLE_1 = 2016-10-11T05:21:00.000 101.74629849700422
ANGLE_2 = 2016-10-11T05:21:00.000 33.93550303176066
RANGE = 2016-10-11T05:21:00.000 166888056.8929193

ANGLE_1 = 2016-10-11T05:22:00.000 101.64602477919496
ANGLE_2 = 2016-10-11T05:22:00.000 34.14481218449407
RANGE = 2016-10-11T05:22:00.000 166888800.8884423

ANGLE_1 = 2016-10-11T05:23:00.000 101.54636424344604
ANGLE_2 = 2016-10-11T05:23:00.000 34.35495852454129
RANGE = 2016-10-11T05:23:00.000 166889544.94727343

ANGLE_1 = 2016-10-11T05:24:00.000 101.44622867426182
ANGLE_2 = 2016-10-11T05:24:00.000 34.565111724101236
RANGE = 2016-10-11T05:24:00.000 166890289.06120092

ANGLE_1 = 2016-10-11T05:25:00.000 101.3472621471312
ANGLE_2 = 2016-10-11T05:25:00.000 34.77501008163537
RANGE = 2016-10-11T05:25:00.000 166891033.20133263

ANGLE_1 = 2016-10-11T05:26:00.000 101.24762579590035
ANGLE_2 = 2016-10-11T05:26:00.000 34.9859364342912
RANGE = 2016-10-11T05:26:00.000 166891777.40010375

ANGLE_1 = 2016-10-11T05:27:00.000 101.1469811832048
ANGLE_2 = 2016-10-11T05:27:00.000 35.19590745642938
RANGE = 2016-10-11T05:27:00.000 166892521.5797203

ANGLE_1 = 2016-10-11T05:28:00.000 101.04742550300168
ANGLE_2 = 2016-10-11T05:28:00.000 35.40589945263519
RANGE = 2016-10-11T05:28:00.000 166893265.87150538

ANGLE_1 = 2016-10-11T05:29:00.000 100.94716389429858
ANGLE_2 = 2016-10-11T05:29:00.000 35.61614851753278
RANGE = 2016-10-11T05:29:00.000 166894010.16791344

ANGLE_1 = 2016-10-11T05:30:00.000 100.84717480276373
ANGLE_2 = 2016-10-11T05:30:00.000 35.82679947078783
RANGE = 2016-10-11T05:30:00.000 166894754.51546144

ANGLE_1 = 2016-10-11T05:31:00.000 100.74713164770992
ANGLE_2 = 2016-10-11T05:31:00.000 36.037693151692004
RANGE = 2016-10-11T05:31:00.000 166895498.93276316

ANGLE_1 = 2016-10-11T05:32:00.000 100.64756006511143
ANGLE_2 = 2016-10-11T05:32:00.000 36.24826869327069
RANGE = 2016-10-11T05:32:00.000 166896243.37605938

ANGLE_1 = 2016-10-11T05:33:00.000 100.54741767533706
ANGLE_2 = 2016-10-11T05:33:00.000 36.458466820444045
RANGE = 2016-10-11T05:33:00.000 166896987.82388064

ANGLE_1 = 2016-10-11T05:34:00.000 100.44726603363158
ANGLE_2 = 2016-10-11T05:34:00.000 36.66949802359543
RANGE = 2016-10-11T05:34:00.000 166897732.34258986

ANGLE_1 = 2016-10-11T05:35:00.000 100.34643365747671
ANGLE_2 = 2016-10-11T05:35:00.000 36.880952104490206
RANGE = 2016-10-11T05:35:00.000 166898476.91514772

ANGLE_1 = 2016-10-11T05:36:00.000 100.24681947716321
ANGLE_2 = 2016-10-11T05:36:00.000 37.09087535643935
RANGE = 2016-10-11T05:36:00.000 166899221.54246154

ANGLE_1 = 2016-10-11T05:37:00.000 100.1461131722184
ANGLE_2 = 2016-10-11T05:37:00.000 37.3023460292199
RANGE = 2016-10-11T05:37:00.000 166899966.18256035

ANGLE_1 = 2016-10-11T05:38:00.000 100.04614337458554
ANGLE_2 = 2016-10-11T05:38:00.000 37.51348722946821
RANGE = 2016-10-11T05:38:00.000 166900710.90536335

ANGLE_1 = 2016-10-11T05:39:00.000 99.9456629641944
ANGLE_2 = 2016-10-11T05:39:00.000 37.724422327571766
RANGE = 2016-10-11T05:39:00.000 166901455.64950877

ANGLE_1 = 2016-10-11T05:40:00.000 99.84445702679935
ANGLE_2 = 2016-10-11T05:40:00.000 37.93576020937512
RANGE = 2016-10-11T05:40:00.000 166902200.4116117

ANGLE_1 = 2016-10-11T05:41:00.000 99.74417583761476
ANGLE_2 = 2016-10-11T05:41:00.000 38.1465896263776
RANGE = 2016-10-11T05:41:00.000 166902945.2680068

ANGLE_1 = 2016-10-11T05:42:00.000 99.64359998270007
ANGLE_2 = 2016-10-11T05:42:00.000 38.357950043359146
RANGE = 2016-10-11T05:42:00.000 166903690.1550327

ANGLE_1 = 2016-10-11T05:43:00.000 99.54316732617832
ANGLE_2 = 2016-10-11T05:43:00.000 38.56931809279087
RANGE = 2016-10-11T05:43:00.000 166904435.12899745

ANGLE_1 = 2016-10-11T05:44:00.000 99.4422899768088
ANGLE_2 = 2016-10-11T05:44:00.000 38.78113595825965
RANGE = 2016-10-11T05:44:00.000 166905180.03977558

ANGLE_1 = 2016-10-11T05:45:00.000 99.34129348753132
ANGLE_2 = 2016-10-11T05:45:00.000 38.99234533621445
RANGE = 2016-10-11T05:45:00.000 166905925.10214785

ANGLE_1 = 2016-10-11T05:46:00.000 99.2395021203628
ANGLE_2 = 2016-10-11T05:46:00.000 39.20390606819513
RANGE = 2016-10-11T05:46:00.000 166906670.1827727

ANGLE_1 = 2016-10-11T05:47:00.000 99.13853542100226
ANGLE_2 = 2016-10-11T05:47:00.000 39.41480470516702
RANGE = 2016-10-11T05:47:00.000 166907415.2905477

ANGLE_1 = 2016-10-11T05:48:00.000 99.03760238714436
ANGLE_2 = 2016-10-11T05:48:00.000 39.62710440622628
RANGE = 2016-10-11T05:48:00.000 166908160.47532058

ANGLE_1 = 2016-10-11T05:49:00.000 98.93618826387886
ANGLE_2 = 2016-10-11T05:49:00.000 39.83866271801004
RANGE = 2016-10-11T05:49:00.000 166908905.6505199

ANGLE_1 = 2016-10-11T05:50:00.000 98.83512595521793
ANGLE_2 = 2016-10-11T05:50:00.000 40.05063546241297
RANGE = 2016-10-11T05:50:00.000 166909650.93858185

ANGLE_1 = 2016-10-11T05:51:00.000 98.73331178237208
ANGLE_2 = 2016-10-11T05:51:00.000 40.262376516641226
RANGE = 2016-10-11T05:51:00.000 166910396.28713337

ANGLE_1 = 2016-10-11T05:52:00.000 98.63146514714968
ANGLE_2 = 2016-10-11T05:52:00.000 40.474124398543005
RANGE = 2016-10-11T05:52:00.000 166911141.65407112

ANGLE_1 = 2016-10-11T05:53:00.000 98.52997641047048
ANGLE_2 = 2016-10-11T05:53:00.000 40.68638139509215
RANGE = 2016-10-11T05:53:00.000 166911887.08717933

ANGLE_1 = 2016-10-11T05:54:00.000 98.42818749587448
ANGLE_2 = 2016-10-11T05:54:00.000 40.89809766603891
RANGE = 2016-10-11T05:54:00.000 166912632.54461643

ANGLE_1 = 2016-10-11T05:55:00.000 98.3257227269983
ANGLE_2 = 2016-10-11T05:55:00.000 41.11021802653964
RANGE = 2016-10-11T05:55:00.000 166913378.04936895

ANGLE_1 = 2016-10-11T05:56:00.000 98.22389186384021
ANGLE_2 = 2016-10-11T05:56:00.000 41.32202298646711
RANGE = 2016-10-11T05:56:00.000 166914123.61360708

ANGLE_1 = 2016-10-11T05:57:00.000 98.12216458859059
ANGLE_2 = 2016-10-11T05:57:00.000 41.53428504210616
RANGE = 2016-10-11T05:57:00.000 166914869.23871148

ANGLE_1 = 2016-10-11T05:58:00.000 98.01933573145293
ANGLE_2 = 2016-10-11T05:58:00.000 41.74653196704468
RANGE = 2016-10-11T05:58:00.000 166915614.94763365

ANGLE_1 = 2016-10-11T05:59:00.000 97.91646020811852
ANGLE_2 = 2016-10-11T05:59:00.000 41.95878961245981
RANGE = 2016-10-11T05:59:00.000 166916360.62789723

ANGLE_1 = 2016-10-11T06:00:00.000 97.8144569138947
ANGLE_2 = 2016-10-11T06:00:00.000 42.171863778745546
RANGE = 2016-10-11T06:00:00.000 166917106.45060566

ANGLE_1 = 2016-10-11T06:01:00.000 97.71101662052793
ANGLE_2 = 2016-10-11T06:01:00.000 42.38397787873628
RANGE = 2016-10-11T06:01:00.000 166917852.2869091

ANGLE_1 = 2016-10-11T06:02:00.000 97.60843826345189
ANGLE_2 = 2016-10-11T06:02:00.000 42.59636684598139
RANGE = 2016-10-11T06:02:00.000 166918598.19200954

ANGLE_1 = 2016-10-11T06:03:00.000 97.50583183161585
ANGLE_2 = 2016-10-11T06:03:00.000 42.80848211501338
RANGE = 2016-10-11T06:03:00.000 166919344.13793117

ANGLE_1 = 2016-10-11T06:04:00.000 97.40173721947646
ANGLE_2 = 2016-10-11T06:04:00.000 43.020750947388706
RANGE = 2016-10-11T06:04:00.000 166920090.12186724

ANGLE_1 = 2016-10-11T06:05:00.000 97.2994725928335
ANGLE_2 = 2016-10-11T06:05:00.000 43.23349853360594
RANGE = 2016-10-11T06:05:00.000 166920836.18887118

ANGLE_1 = 2016-10-11T06:06:00.000 97.1952766094025
ANGLE_2 = 2016-10-11T06:06:00.000 43.446192274378134
RANGE = 2016-10-11T06:06:00.000 166921582.26675427

ANGLE_1 = 2016-10-11T06:07:00.000 97.09113012743302
ANGLE_2 = 2016-10-11T06:07:00.000 43.65912854550712
RANGE = 2016-10-11T06:07:00.000 166922328.45280576

ANGLE_1 = 2016-10-11T06:08:00.000 96.98708739505297
ANGLE_2 = 2016-10-11T06:08:00.000 43.8721566112368
RANGE = 2016-10-11T06:08:00.000 166923074.63409874

ANGLE_1 = 2016-10-11T06:09:00.000 96.8836554958447
ANGLE_2 = 2016-10-11T06:09:00.000 44.08499333499647
RANGE = 2016-10-11T06:09:00.000 166923820.91115525

ANGLE_1 = 2016-10-11T06:10:00.000 96.77900187887937
ANGLE_2 = 2016-10-11T06:10:00.000 44.29710771864511
RANGE = 2016-10-11T06:10:00.000 166924567.25139725

ANGLE_1 = 2016-10-11T06:11:00.000 96.67428785101171
ANGLE_2 = 2016-10-11T06:11:00.000 44.510067659247035
RANGE = 2016-10-11T06:11:00.000 166925313.62660506

ANGLE_1 = 2016-10-11T06:12:00.000 96.56925929340613
ANGLE_2 = 2016-10-11T06:12:00.000 44.72303456858655
RANGE = 2016-10-11T06:12:00.000 166926060.10476515

ANGLE_1 = 2016-10-11T06:13:00.000 96.46454752111725
ANGLE_2 = 2016-10-11T06:13:00.000 44.9348929346057
RANGE = 2016-10-11T06:13:00.000 166926806.5909905

ANGLE_1 = 2016-10-11T06:14:00.000 96.35927080474184
ANGLE_2 = 2016-10-11T06:14:00.000 45.14884232320465
RANGE = 2016-10-11T06:14:00.000 166927553.11604202

ANGLE_1 = 2016-10-11T06:15:00.000 96.25418403593613
ANGLE_2 = 2016-10-11T06:15:00.000 45.361896167712096
RANGE = 2016-10-11T06:15:00.000 166928299.76040956

ANGLE_1 = 2016-10-11T06:16:00.000 96.1482685098452
ANGLE_2 = 2016-10-11T06:16:00.000 45.57546716393189
RANGE = 2016-10-11T06:16:00.000 166929046.41901237

ANGLE_1 = 2016-10-11T06:17:00.000 96.04325266925795
ANGLE_2 = 2016-10-11T06:17:00.000 45.787904388003774
RANGE = 2016-10-11T06:17:00.000 166929793.16222605

ANGLE_1 = 2016-10-11T06:18:00.000 95.93710909319695
ANGLE_2 = 2016-10-11T06:18:00.000 46.00144813928641
RANGE = 2016-10-11T06:18:00.000 166930539.9682686

ANGLE_1 = 2016-10-11T06:19:00.000 95.82998467244104
ANGLE_2 = 2016-10-11T06:19:00.000 46.21427309666156
RANGE = 2016-10-11T06:19:00.000 166931286.78720212

ANGLE_1 = 2016-10-11T06:20:00.000 95.72340323842474
ANGLE_2 = 2016-10-11T06:20:00.000 46.42805832078823
RANGE = 2016-10-11T06:20:00.000 166932033.70923358

ANGLE_1 = 2016-10-11T06:21:00.000 95.61646360948224
ANGLE_2 = 2016-10-11T06:21:00.000 46.64110027728021
RANGE = 2016-10-11T06:21:00.000 166932780.67851767

ANGLE_1 = 2016-10-11T06:22:00.000 95.51042321249324
ANGLE_2 = 2016-10-11T06:22:00.000 46.8544342233176
RANGE = 2016-10-11T06:22:00.000 166933527.68460748

ANGLE_1 = 2016-10-11T06:23:00.000 95.40265757695374
ANGLE_2 = 2016-10-11T06:23:00.000 47.0680160697994
RANGE = 2016-10-11T06:23:00.000 166934274.80563992

ANGLE_1 = 2016-10-11T06:24:00.000 95.29522524723386
ANGLE_2 = 2016-10-11T06:24:00.000 47.281005381154806
RANGE = 2016-10-11T06:24:00.000 166935021.9384026

ANGLE_1 = 2016-10-11T06:25:00.000 95.18730450235381
ANGLE_2 = 2016-10-11T06:25:00.000 47.49467007189561
RANGE = 2016-10-11T06:25:00.000 166935769.14058897

ANGLE_1 = 2016-10-11T06:26:00.000 95.07886140891752
ANGLE_2 = 2016-10-11T06:26:00.000 47.70878032478941
RANGE = 2016-10-11T06:26:00.000 166936516.43843153

ANGLE_1 = 2016-10-11T06:27:00.000 94.97066898233129
ANGLE_2 = 2016-10-11T06:27:00.000 47.921641177639955
RANGE = 2016-10-11T06:27:00.000 166937263.7332146

ANGLE_1 = 2016-10-11T06:28:00.000 94.86182386065384
ANGLE_2 = 2016-10-11T06:28:00.000 48.135478136517875
RANGE = 2016-10-11T06:28:00.000 166938011.1375556

ANGLE_1 = 2016-10-11T06:29:00.000 94.75257233838707
ANGLE_2 = 2016-10-11T06:29:00.000 48.349306893902295
RANGE = 2016-10-11T06:29:00.000 166938758.59146702

ANGLE_1 = 2016-10-11T06:30:00.000 94.64332769321753
ANGLE_2 = 2016-10-11T06:30:00.000 48.56269687920417
RANGE = 2016-10-11T06:30:00.000 166939506.09961963

ANGLE_1 = 2016-10-11T06:31:00.000 94.53394899995216
ANGLE_2 = 2016-10-11T06:31:00.000 48.77651922249118
RANGE = 2016-10-11T06:31:00.000 166940253.69933057

ANGLE_1 = 2016-10-11T06:32:00.000 94.42387138008392
ANGLE_2 = 2016-10-11T06:32:00.000 48.990020252791425
RANGE = 2016-10-11T06:32:00.000 166941001.3305721

ANGLE_1 = 2016-10-11T06:33:00.000 94.31372565354393
ANGLE_2 = 2016-10-11T06:33:00.000 49.20403806232594
RANGE = 2016-10-11T06:33:00.000 166941749.0616819

ANGLE_1 = 2016-10-11T06:34:00.000 94.20226162634407
ANGLE_2 = 2016-10-11T06:34:00.000 49.41757286707955
RANGE = 2016-10-11T06:34:00.000 166942496.81649932

ANGLE_1 = 2016-10-11T06:35:00.000 94.091892919785
ANGLE_2 = 2016-10-11T06:35:00.000 49.631334679995334
RANGE = 2016-10-11T06:35:00.000 166943244.6398894

ANGLE_1 = 2016-10-11T06:36:00.000 93.98091783571685
ANGLE_2 = 2016-10-11T06:36:00.000 49.845211002696956
RANGE = 2016-10-11T06:36:00.000 166943992.5675959

ANGLE_1 = 2016-10-11T06:37:00.000 93.86897588097811
ANGLE_2 = 2016-10-11T06:37:00.000 50.059145618231
RANGE = 2016-10-11T06:37:00.000 166944740.49076453

ANGLE_1 = 2016-10-11T06:38:00.000 93.75637625149132
ANGLE_2 = 2016-10-11T06:38:00.000 50.27257734879729
RANGE = 2016-10-11T06:38:00.000 166945488.5568293

ANGLE_1 = 2016-10-11T06:39:00.000 93.64432496405003
ANGLE_2 = 2016-10-11T06:39:00.000 50.4868998761612
RANGE = 2016-10-11T06:39:00.000 166946236.6080447

ANGLE_1 = 2016-10-11T06:40:00.000 93.5309755995704
ANGLE_2 = 2016-10-11T06:40:00.000 50.7004681403532
RANGE = 2016-10-11T06:40:00.000 166946984.78013232

ANGLE_1 = 2016-10-11T06:41:00.000 93.41813523708255
ANGLE_2 = 2016-10-11T06:41:00.000 50.91430543889033
RANGE = 2016-10-11T06:41:00.000 166947733.00157762

ANGLE_1 = 2016-10-11T06:42:00.000 93.30448820854383
ANGLE_2 = 2016-10-11T06:42:00.000 51.1281464052501
RANGE = 2016-10-11T06:42:00.000 166948481.30777138

ANGLE_1 = 2016-10-11T06:43:00.000 93.19092058411253
ANGLE_2 = 2016-10-11T06:43:00.000 51.34284152488119
RANGE = 2016-10-11T06:43:00.000 166949229.6614104

ANGLE_1 = 2016-10-11T06:44:00.000 93.07640079185704
ANGLE_2 = 2016-10-11T06:44:00.000 51.556677703486955
RANGE = 2016-10-11T06:44:00.000 166949978.0873485

ANGLE_1 = 2016-10-11T06:45:00.000 92.96150396020624
ANGLE_2 = 2016-10-11T06:45:00.000 51.77011653825486
RANGE = 2016-10-11T06:45:00.000 166950726.57090315

ANGLE_1 = 2016-10-11T06:46:00.000 92.84624500165206
ANGLE_2 = 2016-10-11T06:46:00.000 51.98486111350377
RANGE = 2016-10-11T06:46:00.000 166951475.1400745

ANGLE_1 = 2016-10-11T06:47:00.000 92.73024704084459
ANGLE_2 = 2016-10-11T06:47:00.000 52.19873695435803
RANGE = 2016-10-11T06:47:00.000 166952223.74044412

ANGLE_1 = 2016-10-11T06:48:00.000 92.61416489502284
ANGLE_2 = 2016-10-11T06:48:00.000 52.4117161155575
RANGE = 2016-10-11T06:48:00.000 166952972.4385365

ANGLE_1 = 2016-10-11T06:49:00.000 92.4976254876026
ANGLE_2 = 2016-10-11T06:49:00.000 52.626613004672926
RANGE = 2016-10-11T06:49:00.000 166953721.22111785

ANGLE_1 = 2016-10-11T06:50:00.000 92.3799116502351
ANGLE_2 = 2016-10-11T06:50:00.000 52.8407949884105
RANGE = 2016-10-11T06:50:00.000 166954470.03217384

ANGLE_1 = 2016-10-11T06:51:00.000 92.2621674772417
ANGLE_2 = 2016-10-11T06:51:00.000 53.055600632937214
RANGE = 2016-10-11T06:51:00.000 166955218.94114435

ANGLE_1 = 2016-10-11T06:52:00.000 92.1441298858195
ANGLE_2 = 2016-10-11T06:52:00.000 53.26888405953475
RANGE = 2016-10-11T06:52:00.000 166955967.94360507

ANGLE_1 = 2016-10-11T06:53:00.000 92.02674203402422
ANGLE_2 = 2016-10-11T06:53:00.000 53.48406888484673
RANGE = 2016-10-11T06:53:00.000 166956716.94452658

ANGLE_1 = 2016-10-11T06:54:00.000 91.90648001781871
ANGLE_2 = 2016-10-11T06:54:00.000 53.69800460825365
RANGE = 2016-10-11T06:54:00.000 166957466.01236546

ANGLE_1 = 2016-10-11T06:55:00.000 91.78734340278365
ANGLE_2 = 2016-10-11T06:55:00.000 53.91245927711761
RANGE = 2016-10-11T06:55:00.000 166958215.1655857

ANGLE_1 = 2016-10-11T06:56:00.000 91.66631935564806
ANGLE_2 = 2016-10-11T06:56:00.000 54.12625030963708
RANGE = 2016-10-11T06:56:00.000 166958964.4407394

ANGLE_1 = 2016-10-11T06:57:00.000 91.545942469432
ANGLE_2 = 2016-10-11T06:57:00.000 54.34068010131722
RANGE = 2016-10-11T06:57:00.000 166959713.7624009

ANGLE_1 = 2016-10-11T06:58:00.000 91.42429324839321
ANGLE_2 = 2016-10-11T06:58:00.000 54.55425454633064
RANGE = 2016-10-11T06:58:00.000 166960463.10650572

ANGLE_1 = 2016-10-11T06:59:00.000 91.30289280005807
ANGLE_2 = 2016-10-11T06:59:00.000 54.76900492835507
RANGE = 2016-10-11T06:59:00.000 166961212.5783466

ANGLE_1 = 2016-10-11T07:00:00.000 91.18014728147088
ANGLE_2 = 2016-10-11T07:00:00.000 54.98428242962922
RANGE = 2016-10-11T07:00:00.000 166961962.10879546

ANGLE_1 = 2016-10-11T07:01:00.000 91.05669637897607
ANGLE_2 = 2016-10-11T07:01:00.000 55.197539604663014
RANGE = 2016-10-11T07:01:00.000 166962711.68028054

ANGLE_1 = 2016-10-11T07:02:00.000 90.93242504238177
ANGLE_2 = 2016-10-11T07:02:00.000 55.412300159249746
RANGE = 2016-10-11T07:02:00.000 166963461.3970424

ANGLE_1 = 2016-10-11T07:03:00.000 90.80868025159268
ANGLE_2 = 2016-10-11T07:03:00.000 55.62592185825363
RANGE = 2016-10-11T07:03:00.000 166964211.10876513

ANGLE_1 = 2016-10-11T07:04:00.000 90.68290185826538
ANGLE_2 = 2016-10-11T07:04:00.000 55.84014848988189
RANGE = 2016-10-11T07:04:00.000 166964960.89248303

ANGLE_1 = 2016-10-11T07:05:00.000 90.5576699523148
ANGLE_2 = 2016-10-11T07:05:00.000 56.05531833131562
RANGE = 2016-10-11T07:05:00.000 166965710.76220092

ANGLE_1 = 2016-10-11T07:06:00.000 90.4310453483298
ANGLE_2 = 2016-10-11T07:06:00.000 56.26922609477468
RANGE = 2016-10-11T07:06:00.000 166966460.73616403

ANGLE_1 = 2016-10-11T07:07:00.000 90.3046264224242
ANGLE_2 = 2016-10-11T07:07:00.000 56.48347699481752
RANGE = 2016-10-11T07:07:00.000 166967210.764313

ANGLE_1 = 2016-10-11T07:08:00.000 90.17666783209545
ANGLE_2 = 2016-10-11T07:08:00.000 56.69807256765702
RANGE = 2016-10-11T07:08:00.000 166967960.87973097

ANGLE_1 = 2016-10-11T07:09:00.000 90.04761441984864
ANGLE_2 = 2016-10-11T07:09:00.000 56.912567654698734
RANGE = 2016-10-11T07:09:00.000 166968711.02951524

ANGLE_1 = 2016-10-11T07:10:00.000 89.91847828094689
ANGLE_2 = 2016-10-11T07:10:00.000 57.12700430935293
RANGE = 2016-10-11T07:10:00.000 166969461.275686

ANGLE_1 = 2016-10-11T07:11:00.000 89.7880983565267
ANGLE_2 = 2016-10-11T07:11:00.000 57.34077570660804
RANGE = 2016-10-11T07:11:00.000 166970211.60144982

ANGLE_1 = 2016-10-11T07:12:00.000 89.65752620273106
ANGLE_2 = 2016-10-11T07:12:00.000 57.55517624853232
RANGE = 2016-10-11T07:12:00.000 166970962.00916448

ANGLE_1 = 2016-10-11T07:13:00.000 89.52618481872722
ANGLE_2 = 2016-10-11T07:13:00.000 57.769896158914136
RANGE = 2016-10-11T07:13:00.000 166971712.49719295

ANGLE_1 = 2016-10-11T07:14:00.000 89.39382852511052
ANGLE_2 = 2016-10-11T07:14:00.000 57.98354063807981
RANGE = 2016-10-11T07:14:00.000 166972463.0321476

ANGLE_1 = 2016-10-11T07:15:00.000 89.26031374884234
ANGLE_2 = 2016-10-11T07:15:00.000 58.198392357944186
RANGE = 2016-10-11T07:15:00.000 166973213.64422753

ANGLE_1 = 2016-10-11T07:16:00.000 89.12686728705691
ANGLE_2 = 2016-10-11T07:16:00.000 58.41267463865865
RANGE = 2016-10-11T07:16:00.000 166973964.31700638

ANGLE_1 = 2016-10-11T07:17:00.000 88.99205852841209
ANGLE_2 = 2016-10-11T07:17:00.000 58.62705226044949
RANGE = 2016-10-11T07:17:00.000 166974715.10663044

ANGLE_1 = 2016-10-11T07:18:00.000 88.85562407315915
ANGLE_2 = 2016-10-11T07:18:00.000 58.8415414443942
RANGE = 2016-10-11T07:18:00.000 166975465.92156243

ANGLE_1 = 2016-10-11T07:19:00.000 88.71943364877252
ANGLE_2 = 2016-10-11T07:19:00.000 59.05569405731913
RANGE = 2016-10-11T07:19:00.000 166976216.85267174

ANGLE_1 = 2016-10-11T07:20:00.000 88.5813639636628
ANGLE_2 = 2016-10-11T07:20:00.000 59.270002828145124
RANGE = 2016-10-11T07:20:00.000 166976967.82580617

ANGLE_1 = 2016-10-11T07:21:00.000 88.44281857780116
ANGLE_2 = 2016-10-11T07:21:00.000 59.48394392834443
RANGE = 2016-10-11T07:21:00.000 166977718.9053041

ANGLE_1 = 2016-10-11T07:22:00.000 88.30298048126907
ANGLE_2 = 2016-10-11T07:22:00.000 59.69879223251871
RANGE = 2016-10-11T07:22:00.000 166978470.04393423

ANGLE_1 = 2016-10-11T07:23:00.000 88.16308586617806
ANGLE_2 = 2016-10-11T07:23:00.000 59.91280663322788
RANGE = 2016-10-11T07:23:00.000 166979221.29708204

ANGLE_1 = 2016-10-11T07:24:00.000 88.02102603203073
ANGLE_2 = 2016-10-11T07:24:00.000 60.12691622262058
RANGE = 2016-10-11T07:24:00.000 166979972.60247803

ANGLE_1 = 2016-10-11T07:25:00.000 87.87856256004858
ANGLE_2 = 2016-10-11T07:25:00.000 60.34105465470994
RANGE = 2016-10-11T07:25:00.000 166980723.96365538

ANGLE_1 = 2016-10-11T07:26:00.000 87.73429242966755
ANGLE_2 = 2016-10-11T07:26:00.000 60.55511572538833
RANGE = 2016-10-11T07:26:00.000 166981475.40509525

ANGLE_1 = 2016-10-11T07:27:00.000 87.59049409742315
ANGLE_2 = 2016-10-11T07:27:00.000 60.769462168844086
RANGE = 2016-10-11T07:27:00.000 166982226.93082854

ANGLE_1 = 2016-10-11T07:28:00.000 87.44426798525389
ANGLE_2 = 2016-10-11T07:28:00.000 60.98382519840629
RANGE = 2016-10-11T07:28:00.000 166982978.53952911

ANGLE_1 = 2016-10-11T07:29:00.000 87.29740727370088
ANGLE_2 = 2016-10-11T07:29:00.000 61.198164874831605
RANGE = 2016-10-11T07:29:00.000 166983730.2224569

ANGLE_1 = 2016-10-11T07:30:00.000 87.14896342352435
ANGLE_2 = 2016-10-11T07:30:00.000 61.41202291025628
RANGE = 2016-10-11T07:30:00.000 166984481.99980265

ANGLE_1 = 2016-10-11T07:31:00.000 86.99927510192748
ANGLE_2 = 2016-10-11T07:31:00.000 61.6256378462532
RANGE = 2016-10-11T07:31:00.000 166985233.84239745

ANGLE_1 = 2016-10-11T07:32:00.000 86.84904042685527
ANGLE_2 = 2016-10-11T07:32:00.000 61.84001577110869
RANGE = 2016-10-11T07:32:00.000 166985985.74767873

ANGLE_1 = 2016-10-11T07:33:00.000 86.69705599130558
ANGLE_2 = 2016-10-11T07:33:00.000 62.05413108367266
RANGE = 2016-10-11T07:33:00.000 166986737.7861401

ANGLE_1 = 2016-10-11T07:34:00.000 86.54470884631853
ANGLE_2 = 2016-10-11T07:34:00.000 62.267863571379785
RANGE = 2016-10-11T07:34:00.000 166987489.85525078

ANGLE_1 = 2016-10-11T07:35:00.000 86.38997026798965
ANGLE_2 = 2016-10-11T07:35:00.000 62.48200039071448
RANGE = 2016-10-11T07:35:00.000 166988242.01303136

ANGLE_1 = 2016-10-11T07:36:00.000 86.23380648075371
ANGLE_2 = 2016-10-11T07:36:00.000 62.6952853667189
RANGE = 2016-10-11T07:36:00.000 166988994.26566952

ANGLE_1 = 2016-10-11T07:37:00.000 86.07644035729238
ANGLE_2 = 2016-10-11T07:37:00.000 62.90969130357618
RANGE = 2016-10-11T07:37:00.000 166989746.57918411

ANGLE_1 = 2016-10-11T07:38:00.000 85.9188336438703
ANGLE_2 = 2016-10-11T07:38:00.000 63.12391019261731
RANGE = 2016-10-11T07:38:00.000 166990498.94809234

ANGLE_1 = 2016-10-11T07:39:00.000 85.75813999287054
ANGLE_2 = 2016-10-11T07:39:00.000 63.33752227199394
RANGE = 2016-10-11T07:39:00.000 166991251.42052394

ANGLE_1 = 2016-10-11T07:40:00.000 85.59671663087185
ANGLE_2 = 2016-10-11T07:40:00.000 63.550969894275106
RANGE = 2016-10-11T07:40:00.000 166992004.00682598

ANGLE_1 = 2016-10-11T07:41:00.000 85.43323468529297
ANGLE_2 = 2016-10-11T07:41:00.000 63.76467707679242
RANGE = 2016-10-11T07:41:00.000 166992756.63174784

ANGLE_1 = 2016-10-11T07:42:00.000 85.26892457741373
ANGLE_2 = 2016-10-11T07:42:00.000 63.97881575295703
RANGE = 2016-10-11T07:42:00.000 166993509.34877807

ANGLE_1 = 2016-10-11T07:43:00.000 85.1028212618482
ANGLE_2 = 2016-10-11T07:43:00.000 64.19184480084377
RANGE = 2016-10-11T07:43:00.000 166994262.14619267

ANGLE_1 = 2016-10-11T07:44:00.000 84.93489142821385
ANGLE_2 = 2016-10-11T07:44:00.000 64.40583581925098
RANGE = 2016-10-11T07:44:00.000 166995015.04220584

ANGLE_1 = 2016-10-11T07:45:00.000 84.7650247128082
ANGLE_2 = 2016-10-11T07:45:00.000 64.61885797823165
RANGE = 2016-10-11T07:45:00.000 166995768.01935956

ANGLE_1 = 2016-10-11T07:46:00.000 84.59408437064991
ANGLE_2 = 2016-10-11T07:46:00.000 64.8321776236402
RANGE = 2016-10-11T07:46:00.000 166996521.04409418

ANGLE_1 = 2016-10-11T07:47:00.000 84.4215351088964
ANGLE_2 = 2016-10-11T07:47:00.000 65.04559774444475
RANGE = 2016-10-11T07:47:00.000 166997274.15127942

ANGLE_1 = 2016-10-11T07:48:00.000 84.24560827260224
ANGLE_2 = 2016-10-11T07:48:00.000 65.25907921254016
RANGE = 2016-10-11T07:48:00.000 166998027.34898353

ANGLE_1 = 2016-10-11T07:49:00.000 84.06944789731557
ANGLE_2 = 2016-10-11T07:49:00.000 65.47195010237833
RANGE = 2016-10-11T07:49:00.000 166998780.67006895

ANGLE_1 = 2016-10-11T07:50:00.000 83.88996234160861
ANGLE_2 = 2016-10-11T07:50:00.000 65.68526919685536
RANGE = 2016-10-11T07:50:00.000 166999534.01886076

ANGLE_1 = 2016-10-11T07:51:00.000 83.7101427585287
ANGLE_2 = 2016-10-11T07:51:00.000 65.898822926942
RANGE = 2016-10-11T07:51:00.000 167000287.46545303

ANGLE_1 = 2016-10-11T07:52:00.000 83.52690762181491
ANGLE_2 = 2016-10-11T07:52:00.000 66.11121858704081
RANGE = 2016-10-11T07:52:00.000 167001041.01781902

ANGLE_1 = 2016-10-11T07:53:00.000 83.34267381931504
ANGLE_2 = 2016-10-11T07:53:00.000 66.32410445830529
RANGE = 2016-10-11T07:53:00.000 167001794.63074893

ANGLE_1 = 2016-10-11T07:54:00.000 83.15549827130312
ANGLE_2 = 2016-10-11T07:54:00.000 66.53725534328434
RANGE = 2016-10-11T07:54:00.000 167002548.31373718

ANGLE_1 = 2016-10-11T07:55:00.000 82.96614504534011
ANGLE_2 = 2016-10-11T07:55:00.000 66.75049074019078
RANGE = 2016-10-11T07:55:00.000 167003302.12035117

ANGLE_1 = 2016-10-11T07:56:00.000 82.77441290725476
ANGLE_2 = 2016-10-11T07:56:00.000 66.96273517683696
RANGE = 2016-10-11T07:56:00.000 167004056.00831902

ANGLE_1 = 2016-10-11T07:57:00.000 82.58016721058098
ANGLE_2 = 2016-10-11T07:57:00.000 67.17515536162041
RANGE = 2016-10-11T07:57:00.000 167004809.8940555

ANGLE_1 = 2016-10-11T07:58:00.000 82.38435522502654
ANGLE_2 = 2016-10-11T07:58:00.000 67.38788751803965
RANGE = 2016-10-11T07:58:00.000 167005563.9854255

ANGLE_1 = 2016-10-11T07:59:00.000 82.18588964592601
ANGLE_2 = 2016-10-11T07:59:00.000 67.60018633919584
RANGE = 2016-10-11T07:59:00.000 167006318.0967489

ANGLE_1 = 2016-10-11T08:00:00.000 81.98524060674805
ANGLE_2 = 2016-10-11T08:00:00.000 67.81305002487748
RANGE = 2016-10-11T08:00:00.000 167007072.2895696

ANGLE_1 = 2016-10-11T08:01:00.000 81.78057611654097
ANGLE_2 = 2016-10-11T08:01:00.000 68.02504346173922
RANGE = 2016-10-11T08:01:00.000 167007826.56435052

ANGLE_1 = 2016-10-11T08:02:00.000 81.57482233277318
ANGLE_2 = 2016-10-11T08:02:00.000 68.23677357914742
RANGE = 2016-10-11T08:02:00.000 167008580.9682904

ANGLE_1 = 2016-10-11T08:03:00.000 81.3649733618162
ANGLE_2 = 2016-10-11T08:03:00.000 68.44950028126614
RANGE = 2016-10-11T08:03:00.000 167009335.421601

ANGLE_1 = 2016-10-11T08:04:00.000 81.15269152252596
ANGLE_2 = 2016-10-11T08:04:00.000 68.6606071462817
RANGE = 2016-10-11T08:04:00.000 167010089.94515604

ANGLE_1 = 2016-10-11T08:05:00.000 80.93824867599969
ANGLE_2 = 2016-10-11T08:05:00.000 68.8725312737649
RANGE = 2016-10-11T08:05:00.000 167010844.5971345

ANGLE_1 = 2016-10-11T08:06:00.000 80.71970470542105
ANGLE_2 = 2016-10-11T08:06:00.000 69.0838833302058
RANGE = 2016-10-11T08:06:00.000 167011599.300616

ANGLE_1 = 2016-10-11T08:07:00.000 80.49826284101987
ANGLE_2 = 2016-10-11T08:07:00.000 69.29542902915225
RANGE = 2016-10-11T08:07:00.000 167012354.1055388

ANGLE_1 = 2016-10-11T08:08:00.000 80.2736277954363
ANGLE_2 = 2016-10-11T08:08:00.000 69.5068018002482
RANGE = 2016-10-11T08:08:00.000 167013108.9862177

ANGLE_1 = 2016-10-11T08:09:00.000 80.04666495379472
ANGLE_2 = 2016-10-11T08:09:00.000 69.71792606385421
RANGE = 2016-10-11T08:09:00.000 167013863.9662294

ANGLE_1 = 2016-10-11T08:10:00.000 79.8154430745766
ANGLE_2 = 2016-10-11T08:10:00.000 69.92907680022344
RANGE = 2016-10-11T08:10:00.000 167014618.99010935

ANGLE_1 = 2016-10-11T08:11:00.000 79.57998299365077
ANGLE_2 = 2016-10-11T08:11:00.000 70.13952647536578
RANGE = 2016-10-11T08:11:00.000 167015374.14015523

ANGLE_1 = 2016-10-11T08:12:00.000 79.34157503053291
ANGLE_2 = 2016-10-11T08:12:00.000 70.35066119048687
RANGE = 2016-10-11T08:12:00.000 167016129.33309844

ANGLE_1 = 2016-10-11T08:13:00.000 79.09918127643462
ANGLE_2 = 2016-10-11T08:13:00.000 70.56077031208758
RANGE = 2016-10-11T08:13:00.000 167016884.64162493

ANGLE_1 = 2016-10-11T08:14:00.000 78.85310184154658
ANGLE_2 = 2016-10-11T08:14:00.000 70.77115625807471
RANGE = 2016-10-11T08:14:00.000 167017640.04787982

ANGLE_1 = 2016-10-11T08:15:00.000 78.60366329095027
ANGLE_2 = 2016-10-11T08:15:00.000 70.98248524515252
RANGE = 2016-10-11T08:15:00.000 167018395.52653474

ANGLE_1 = 2016-10-11T08:16:00.000 78.34894753742596
ANGLE_2 = 2016-10-11T08:16:00.000 71.19167997304108
RANGE = 2016-10-11T08:16:00.000 167019151.08320382

ANGLE_1 = 2016-10-11T08:17:00.000 78.09010823957577
ANGLE_2 = 2016-10-11T08:17:00.000 71.40214012539028
RANGE = 2016-10-11T08:17:00.000 167019906.7589649

ANGLE_1 = 2016-10-11T08:18:00.000 77.82759492470127
ANGLE_2 = 2016-10-11T08:18:00.000 71.61091312692672
RANGE = 2016-10-11T08:18:00.000 167020662.46414718

ANGLE_1 = 2016-10-11T08:19:00.000 77.56008413334992
ANGLE_2 = 2016-10-11T08:19:00.000 71.82091531740053
RANGE = 2016-10-11T08:19:00.000 167021418.33076134

ANGLE_1 = 2016-10-11T08:20:00.000 77.28783027745946
ANGLE_2 = 2016-10-11T08:20:00.000 72.0298639683415
RANGE = 2016-10-11T08:20:00.000 167022174.23905325

ANGLE_1 = 2016-10-11T08:21:00.000 77.0105145462582
ANGLE_2 = 2016-10-11T08:21:00.000 72.23890377900888
RANGE = 2016-10-11T08:21:00.000 167022930.22759032

ANGLE_1 = 2016-10-11T08:22:00.000 76.72848217521766
ANGLE_2 = 2016-10-11T08:22:00.000 72.44817911478174
RANGE = 2016-10-11T08:22:00.000 167023686.3383091

ANGLE_1 = 2016-10-11T08:23:00.000 76.44134732967123
ANGLE_2 = 2016-10-11T08:23:00.000 72.65585859053331
RANGE = 2016-10-11T08:23:00.000 167024442.49890956

ANGLE_1 = 2016-10-11T08:24:00.000 76.14792424796092
ANGLE_2 = 2016-10-11T08:24:00.000 72.86443803621258
RANGE = 2016-10-11T08:24:00.000 167025198.7621755

ANGLE_1 = 2016-10-11T08:25:00.000 75.84954178091918
ANGLE_2 = 2016-10-11T08:25:00.000 73.07226069640083
RANGE = 2016-10-11T08:25:00.000 167025955.1441975

ANGLE_1 = 2016-10-11T08:26:00.000 75.54508260221527
ANGLE_2 = 2016-10-11T08:26:00.000 73.28020183080095
RANGE = 2016-10-11T08:26:00.000 167026711.56620976

ANGLE_1 = 2016-10-11T08:27:00.000 75.23398475660086
ANGLE_2 = 2016-10-11T08:27:00.000 73.48704564425898
RANGE = 2016-10-11T08:27:00.000 167027468.0705154

ANGLE_1 = 2016-10-11T08:28:00.000 74.91769824414395
ANGLE_2 = 2016-10-11T08:28:00.000 73.69486561717598
RANGE = 2016-10-11T08:28:00.000 167028224.73275226

ANGLE_1 = 2016-10-11T08:29:00.000 74.59412370576247
ANGLE_2 = 2016-10-11T08:29:00.000 73.90139757650651
RANGE = 2016-10-11T08:29:00.000 167028981.40843007

ANGLE_1 = 2016-10-11T08:30:00.000 74.26419786869957
ANGLE_2 = 2016-10-11T08:30:00.000 74.10747730136643
RANGE = 2016-10-11T08:30:00.000 167029738.2165982

ANGLE_1 = 2016-10-11T08:31:00.000 73.926518395519
ANGLE_2 = 2016-10-11T08:31:00.000 74.31401658542022
RANGE = 2016-10-11T08:31:00.000 167030495.10769296

ANGLE_1 = 2016-10-11T08:32:00.000 73.58330288393825
ANGLE_2 = 2016-10-11T08:32:00.000 74.5198858598997
RANGE = 2016-10-11T08:32:00.000 167031252.06115267

ANGLE_1 = 2016-10-11T08:33:00.000 73.23135751783613
ANGLE_2 = 2016-10-11T08:33:00.000 74.7259071000194
RANGE = 2016-10-11T08:33:00.000 167032009.14687693

ANGLE_1 = 2016-10-11T08:34:00.000 72.87140663924082
ANGLE_2 = 2016-10-11T08:34:00.000 74.93019078224492
RANGE = 2016-10-11T08:34:00.000 167032766.2745266

ANGLE_1 = 2016-10-11T08:35:00.000 72.50364273728077
ANGLE_2 = 2016-10-11T08:35:00.000 75.13492813494331
RANGE = 2016-10-11T08:35:00.000 167033523.50047618

ANGLE_1 = 2016-10-11T08:36:00.000 72.12689014743803
ANGLE_2 = 2016-10-11T08:36:00.000 75.33909689380785
RANGE = 2016-10-11T08:36:00.000 167034280.8642839

ANGLE_1 = 2016-10-11T08:37:00.000 71.74239499879006
ANGLE_2 = 2016-10-11T08:37:00.000 75.54275946114981
RANGE = 2016-10-11T08:37:00.000 167035038.24880725

ANGLE_1 = 2016-10-11T08:38:00.000 71.3476201114796
ANGLE_2 = 2016-10-11T08:38:00.000 75.74613718874893
RANGE = 2016-10-11T08:38:00.000 167035795.77369994

ANGLE_1 = 2016-10-11T08:39:00.000 70.94333429349777
ANGLE_2 = 2016-10-11T08:39:00.000 75.94938949041882
RANGE = 2016-10-11T08:39:00.000 167036553.37102106

ANGLE_1 = 2016-10-11T08:40:00.000 70.52957090111278
ANGLE_2 = 2016-10-11T08:40:00.000 76.15168588538177
RANGE = 2016-10-11T08:40:00.000 167037311.04626006

ANGLE_1 = 2016-10-11T08:41:00.000 70.10452931993105
ANGLE_2 = 2016-10-11T08:41:00.000 76.35319246630945
RANGE = 2016-10-11T08:41:00.000 167038068.81275725

ANGLE_1 = 2016-10-11T08:42:00.000 69.66976695704527
ANGLE_2 = 2016-10-11T08:42:00.000 76.55363340744742
RANGE = 2016-10-11T08:42:00.000 167038826.72120413

ANGLE_1 = 2016-10-11T08:43:00.000 69.2238066960712
ANGLE_2 = 2016-10-11T08:43:00.000 76.75554284442498
RANGE = 2016-10-11T08:43:00.000 167039584.6292591

ANGLE_1 = 2016-10-11T08:44:00.000 68.76490040276906
ANGLE_2 = 2016-10-11T08:44:00.000 76.95505771812722
RANGE = 2016-10-11T08:44:00.000 167040342.66812024

ANGLE_1 = 2016-10-11T08:45:00.000 68.29382037081317
ANGLE_2 = 2016-10-11T08:45:00.000 77.15467227683277
RANGE = 2016-10-11T08:45:00.000 167041100.83817238

ANGLE_1 = 2016-10-11T08:46:00.000 67.80965067461159
ANGLE_2 = 2016-10-11T08:46:00.000 77.35345751149042
RANGE = 2016-10-11T08:46:00.000 167041859.04693612

ANGLE_1 = 2016-10-11T08:47:00.000 67.31330649555122
ANGLE_2 = 2016-10-11T08:47:00.000 77.55188450163939
RANGE = 2016-10-11T08:47:00.000 167042617.34768716

ANGLE_1 = 2016-10-11T08:48:00.000 66.80250531564128
ANGLE_2 = 2016-10-11T08:48:00.000 77.74907067035706
RANGE = 2016-10-11T08:48:00.000 167043375.7535803

ANGLE_1 = 2016-10-11T08:49:00.000 66.27658084372767
ANGLE_2 = 2016-10-11T08:49:00.000 77.94555839323522
RANGE = 2016-10-11T08:49:00.000 167044134.26427257

ANGLE_1 = 2016-10-11T08:50:00.000 65.73530392442554
ANGLE_2 = 2016-10-11T08:50:00.000 78.14118240732385
RANGE = 2016-10-11T08:50:00.000 167044892.8357391

ANGLE_1 = 2016-10-11T08:51:00.000 65.17903731243628
ANGLE_2 = 2016-10-11T08:51:00.000 78.33574723935428
RANGE = 2016-10-11T08:51:00.000 167045651.4994574

ANGLE_1 = 2016-10-11T08:52:00.000 64.60539603078747
ANGLE_2 = 2016-10-11T08:52:00.000 78.53040561722088
RANGE = 2016-10-11T08:52:00.000 167046410.29466963

ANGLE_1 = 2016-10-11T08:53:00.000 64.013675080972
ANGLE_2 = 2016-10-11T08:53:00.000 78.72309099618982
RANGE = 2016-10-11T08:53:00.000 167047169.13166913

ANGLE_1 = 2016-10-11T08:54:00.000 63.404744085844555
ANGLE_2 = 2016-10-11T08:54:00.000 78.91585930095462
RANGE = 2016-10-11T08:54:00.000 167047928.05764237

ANGLE_1 = 2016-10-11T08:55:00.000 62.77503055065317
ANGLE_2 = 2016-10-11T08:55:00.000 79.10740344675929
RANGE = 2016-10-11T08:55:00.000 167048687.1431338

ANGLE_1 = 2016-10-11T08:56:00.000 62.12569219714671
ANGLE_2 = 2016-10-11T08:56:00.000 79.29741873332384
RANGE = 2016-10-11T08:56:00.000 167049446.2593599

ANGLE_1 = 2016-10-11T08:57:00.000 61.45497809166433
ANGLE_2 = 2016-10-11T08:57:00.000 79.48580913321148
RANGE = 2016-10-11T08:57:00.000 167050205.4830284

ANGLE_1 = 2016-10-11T08:58:00.000 60.76266519275666
ANGLE_2 = 2016-10-11T08:58:00.000 79.67348485365393
RANGE = 2016-10-11T08:58:00.000 167050964.79650202

ANGLE_1 = 2016-10-11T08:59:00.000 60.047180269078126
ANGLE_2 = 2016-10-11T08:59:00.000 79.8596959959899
RANGE = 2016-10-11T08:59:00.000 167051724.18851453

ANGLE_1 = 2016-10-11T09:00:00.000 59.30666421416601
ANGLE_2 = 2016-10-11T09:00:00.000 80.04530568447579
RANGE = 2016-10-11T09:00:00.000 167052483.6801516

ANGLE_1 = 2016-10-11T09:01:00.000 58.540925105404646
ANGLE_2 = 2016-10-11T09:01:00.000 80.2282866389036
RANGE = 2016-10-11T09:01:00.000 167053243.2853873

ANGLE_1 = 2016-10-11T09:02:00.000 57.748205315554976
ANGLE_2 = 2016-10-11T09:02:00.000 80.409839669658
RANGE = 2016-10-11T09:02:00.000 167054002.9650582

ANGLE_1 = 2016-10-11T09:03:00.000 56.92760266985369
ANGLE_2 = 2016-10-11T09:03:00.000 80.59016690797736
RANGE = 2016-10-11T09:03:00.000 167054762.71635476

ANGLE_1 = 2016-10-11T09:04:00.000 56.07769040983121
ANGLE_2 = 2016-10-11T09:04:00.000 80.7694203278721
RANGE = 2016-10-11T09:04:00.000 167055522.57379413

ANGLE_1 = 2016-10-11T09:05:00.000 55.195387956918665
ANGLE_2 = 2016-10-11T09:05:00.000 80.94633357001014
RANGE = 2016-10-11T09:05:00.000 167056282.54204074

ANGLE_1 = 2016-10-11T09:06:00.000 54.2820919000334
ANGLE_2 = 2016-10-11T09:06:00.000 81.12140617913502
RANGE = 2016-10-11T09:06:00.000 167057042.582714

ANGLE_1 = 2016-10-11T09:07:00.000 53.33498427164912
ANGLE_2 = 2016-10-11T09:07:00.000 81.2940631164608
RANGE = 2016-10-11T09:07:00.000 167057802.68051502

ANGLE_1 = 2016-10-11T09:08:00.000 52.35097475481812
ANGLE_2 = 2016-10-11T09:08:00.000 81.46571294250249
RANGE = 2016-10-11T09:08:00.000 167058562.93576574

ANGLE_1 = 2016-10-11T09:09:00.000 51.33010487462507
ANGLE_2 = 2016-10-11T09:09:00.000 81.63328993072025
RANGE = 2016-10-11T09:09:00.000 167059323.26522362

ANGLE_1 = 2016-10-11T09:10:00.000 50.26958050464335
ANGLE_2 = 2016-10-11T09:10:00.000 81.7997734995735
RANGE = 2016-10-11T09:10:00.000 167060083.64103478

ANGLE_1 = 2016-10-11T09:11:00.000 49.168724272157256
ANGLE_2 = 2016-10-11T09:11:00.000 81.96326434628033
RANGE = 2016-10-11T09:11:00.000 167060844.18009725

ANGLE_1 = 2016-10-11T09:12:00.000 48.02490452756499
ANGLE_2 = 2016-10-11T09:12:00.000 82.12362128327324
RANGE = 2016-10-11T09:12:00.000 167061604.7542144

ANGLE_1 = 2016-10-11T09:13:00.000 46.836569721941366
ANGLE_2 = 2016-10-11T09:13:00.000 82.28161352098424
RANGE = 2016-10-11T09:13:00.000 167062365.4350999

ANGLE_1 = 2016-10-11T09:14:00.000 45.60134144339362
ANGLE_2 = 2016-10-11T09:14:00.000 82.43675496758118
RANGE = 2016-10-11T09:14:00.000 167063126.20358446

ANGLE_1 = 2016-10-11T09:15:00.000 44.31757282231758
ANGLE_2 = 2016-10-11T09:15:00.000 82.58784193426447
RANGE = 2016-10-11T09:15:00.000 167063887.09510615

ANGLE_1 = 2016-10-11T09:16:00.000 42.98382295802541
ANGLE_2 = 2016-10-11T09:16:00.000 82.73608218305588
RANGE = 2016-10-11T09:16:00.000 167064648.0596269

ANGLE_1 = 2016-10-11T09:17:00.000 41.59770067214597
ANGLE_2 = 2016-10-11T09:17:00.000 82.88051111027701
RANGE = 2016-10-11T09:17:00.000 167065409.10814083

ANGLE_1 = 2016-10-11T09:18:00.000 40.15766547675969
ANGLE_2 = 2016-10-11T09:18:00.000 83.02063515390928
RANGE = 2016-10-11T09:18:00.000 167066170.22993812

ANGLE_1 = 2016-10-11T09:19:00.000 38.66217729890602
ANGLE_2 = 2016-10-11T09:19:00.000 83.15609625033932
RANGE = 2016-10-11T09:19:00.000 167066931.51445532

ANGLE_1 = 2016-10-11T09:20:00.000 37.109092556359855
ANGLE_2 = 2016-10-11T09:20:00.000 83.28806885801768
RANGE = 2016-10-11T09:20:00.000 167067692.81152707

ANGLE_1 = 2016-10-11T09:21:00.000 35.49786448513433
ANGLE_2 = 2016-10-11T09:21:00.000 83.41502036173476
RANGE = 2016-10-11T09:21:00.000 167068454.29869547

ANGLE_1 = 2016-10-11T09:22:00.000 33.82589610360084
ANGLE_2 = 2016-10-11T09:22:00.000 83.53678964898553
RANGE = 2016-10-11T09:22:00.000 167069215.7936369

ANGLE_1 = 2016-10-11T09:23:00.000 32.094945755932706
ANGLE_2 = 2016-10-11T09:23:00.000 83.65330111633872
RANGE = 2016-10-11T09:23:00.000 167069977.36693153

ANGLE_1 = 2016-10-11T09:24:00.000 30.3015016510318
ANGLE_2 = 2016-10-11T09:24:00.000 83.76422255845752
RANGE = 2016-10-11T09:24:00.000 167070739.07887977

ANGLE_1 = 2016-10-11T09:25:00.000 28.447971774697656
ANGLE_2 = 2016-10-11T09:25:00.000 83.86930130486114
RANGE = 2016-10-11T09:25:00.000 167071500.8798753

ANGLE_1 = 2016-10-11T09:26:00.000 26.533428531231884
ANGLE_2 = 2016-10-11T09:26:00.000 83.9686306348193
RANGE = 2016-10-11T09:26:00.000 167072262.80269676

ANGLE_1 = 2016-10-11T09:27:00.000 24.55917799259385
ANGLE_2 = 2016-10-11T09:27:00.000 84.06101217842446
RANGE = 2016-10-11T09:27:00.000 167073024.80016327

ANGLE_1 = 2016-10-11T09:28:00.000 22.527143904797686
ANGLE_2 = 2016-10-11T09:28:00.000 84.14651004204686
RANGE = 2016-10-11T09:28:00.000 167073786.82184863

ANGLE_1 = 2016-10-11T09:29:00.000 20.438640116869816
ANGLE_2 = 2016-10-11T09:29:00.000 84.22475285116197
RANGE = 2016-10-11T09:29:00.000 167074549.00221172

ANGLE_1 = 2016-10-11T09:30:00.000 18.297307725226826
ANGLE_2 = 2016-10-11T09:30:00.000 84.29595746505188
RANGE = 2016-10-11T09:30:00.000 167075311.24372342

ANGLE_1 = 2016-10-11T09:31:00.000 16.106628543017894
ANGLE_2 = 2016-10-11T09:31:00.000 84.35933111268677
RANGE = 2016-10-11T09:31:00.000 167076073.59493735

ANGLE_1 = 2016-10-11T09:32:00.000 13.869304728573024
ANGLE_2 = 2016-10-11T09:32:00.000 84.41421620256197
RANGE = 2016-10-11T09:32:00.000 167076836.03551528

ANGLE_1 = 2016-10-11T09:33:00.000 11.59309677837247
ANGLE_2 = 2016-10-11T09:33:00.000 84.46118365738356
RANGE = 2016-10-11T09:33:00.000 167077598.59297618

ANGLE_1 = 2016-10-11T09:34:00.000 9.282048329769994
ANGLE_2 = 2016-10-11T09:34:00.000 84.50073080802264
RANGE = 2016-10-11T09:34:00.000 167078361.16628048

ANGLE_1 = 2016-10-11T09:35:00.000 6.943138163019638
ANGLE_2 = 2016-10-11T09:35:00.000 84.5309505521127
RANGE = 2016-10-11T09:35:00.000 167079123.9029387

ANGLE_1 = 2016-10-11T09:36:00.000 4.581229671647497
ANGLE_2 = 2016-10-11T09:36:00.000 84.55220260637579
RANGE = 2016-10-11T09:36:00.000 167079886.70682654

ANGLE_1 = 2016-10-11T09:37:00.000 2.2055321498434437
ANGLE_2 = 2016-10-11T09:37:00.000 84.56471231891324
RANGE = 2016-10-11T09:37:00.000 167080649.61628023

ANGLE_1 = 2016-10-11T09:38:00.000 359.82317355090436
ANGLE_2 = 2016-10-11T09:38:00.000 84.56845755551167
RANGE = 2016-10-11T09:38:00.000 167081412.65865493

ANGLE_1 = 2016-10-11T09:39:00.000 357.44095866555773
ANGLE_2 = 2016-10-11T09:39:00.000 84.56254959118263
RANGE = 2016-10-11T09:39:00.000 167082175.7502333

ANGLE_1 = 2016-10-11T09:40:00.000 355.06701813709543
ANGLE_2 = 2016-10-11T09:40:00.000 84.5486203939588
RANGE = 2016-10-11T09:40:00.000 167082938.91052806

ANGLE_1 = 2016-10-11T09:41:00.000 352.7091142175193
ANGLE_2 = 2016-10-11T09:41:00.000 84.52606342589067
RANGE = 2016-10-11T09:41:00.000 167083702.1800882

ANGLE_1 = 2016-10-11T09:42:00.000 350.3735358928919
ANGLE_2 = 2016-10-11T09:42:00.000 84.49486099427686
RANGE = 2016-10-11T09:42:00.000 167084465.5653027

ANGLE_1 = 2016-10-11T09:43:00.000 348.067898460183
ANGLE_2 = 2016-10-11T09:43:00.000 84.455014694207
RANGE = 2016-10-11T09:43:00.000 167085228.99300492

ANGLE_1 = 2016-10-11T09:44:00.000 345.7970998816305
ANGLE_2 = 2016-10-11T09:44:00.000 84.40553008930148
RANGE = 2016-10-11T09:44:00.000 167085992.5522701

ANGLE_1 = 2016-10-11T09:45:00.000 343.5679721848439
ANGLE_2 = 2016-10-11T09:45:00.000 84.34881436017663
RANGE = 2016-10-11T09:45:00.000 167086756.23467466

ANGLE_1 = 2016-10-11T09:46:00.000 341.38495779866764
ANGLE_2 = 2016-10-11T09:46:00.000 84.28454245575075
RANGE = 2016-10-11T09:46:00.000 167087519.96733603

ANGLE_1 = 2016-10-11T09:47:00.000 339.25191880527194
ANGLE_2 = 2016-10-11T09:47:00.000 84.21263739143237
RANGE = 2016-10-11T09:47:00.000 167088283.72902215

ANGLE_1 = 2016-10-11T09:48:00.000 337.1727780645763
ANGLE_2 = 2016-10-11T09:48:00.000 84.13303106984154
RANGE = 2016-10-11T09:48:00.000 167089047.71340677

ANGLE_1 = 2016-10-11T09:49:00.000 335.15037689877096
ANGLE_2 = 2016-10-11T09:49:00.000 84.04615900755093
RANGE = 2016-10-11T09:49:00.000 167089811.7361061

ANGLE_1 = 2016-10-11T09:50:00.000 333.1854243248578
ANGLE_2 = 2016-10-11T09:50:00.000 83.95285135229135
RANGE = 2016-10-11T09:50:00.000 167090575.8595

ANGLE_1 = 2016-10-11T09:51:00.000 331.28075493817107
ANGLE_2 = 2016-10-11T09:51:00.000 83.8522210334136
RANGE = 2016-10-11T09:51:00.000 167091340.0426813

ANGLE_1 = 2016-10-11T09:52:00.000 329.4367383590127
ANGLE_2 = 2016-10-11T09:52:00.000 83.74693317650063
RANGE = 2016-10-11T09:52:00.000 167092104.31270885

ANGLE_1 = 2016-10-11T09:53:00.000 327.65415114639956
ANGLE_2 = 2016-10-11T09:53:00.000 83.63461922023636
RANGE = 2016-10-11T09:53:00.000 167092868.72478053

ANGLE_1 = 2016-10-11T09:54:00.000 325.93212586743306
ANGLE_2 = 2016-10-11T09:54:00.000 83.51707725423157
RANGE = 2016-10-11T09:54:00.000 167093633.19255504

ANGLE_1 = 2016-10-11T09:55:00.000 324.2706089565294
ANGLE_2 = 2016-10-11T09:55:00.000 83.39421937584306
RANGE = 2016-10-11T09:55:00.000 167094397.77373725

ANGLE_1 = 2016-10-11T09:56:00.000 322.6694305262775
ANGLE_2 = 2016-10-11T09:56:00.000 83.26688774373991
RANGE = 2016-10-11T09:56:00.000 167095162.40242392

ANGLE_1 = 2016-10-11T09:57:00.000 321.1257822564511
ANGLE_2 = 2016-10-11T09:57:00.000 83.13419497840466
RANGE = 2016-10-11T09:57:00.000 167095927.1818199

ANGLE_1 = 2016-10-11T09:58:00.000 319.6387749656856
ANGLE_2 = 2016-10-11T09:58:00.000 82.99720757338312
RANGE = 2016-10-11T09:58:00.000 167096692.06587175

ANGLE_1 = 2016-10-11T09:59:00.000 318.2079961109178
ANGLE_2 = 2016-10-11T09:59:00.000 82.85676868468512
RANGE = 2016-10-11T09:59:00.000 167097456.9661014

ANGLE_1 = 2016-10-11T10:00:00.000 316.8311541645369
ANGLE_2 = 2016-10-11T10:00:00.000 82.71136767663158
RANGE = 2016-10-11T10:00:00.000 167098221.97977924

ANGLE_1 = 2016-10-11T10:01:00.000 315.5044926468713
ANGLE_2 = 2016-10-11T10:01:00.000 82.56364135922281
RANGE = 2016-10-11T10:01:00.000 167098987.14568466

ANGLE_1 = 2016-10-11T10:02:00.000 314.22990678951555
ANGLE_2 = 2016-10-11T10:02:00.000 82.41122947497537
RANGE = 2016-10-11T10:02:00.000 167099752.35189593

ANGLE_1 = 2016-10-11T10:03:00.000 313.0025615955463
ANGLE_2 = 2016-10-11T10:03:00.000 82.25602444349505
RANGE = 2016-10-11T10:03:00.000 167100517.6771097

ANGLE_1 = 2016-10-11T10:04:00.000 311.8214078393591
ANGLE_2 = 2016-10-11T10:04:00.000 82.0974829282817
RANGE = 2016-10-11T10:04:00.000 167101283.04641566

ANGLE_1 = 2016-10-11T10:05:00.000 310.684803208801
ANGLE_2 = 2016-10-11T10:05:00.000 81.93667689931303
RANGE = 2016-10-11T10:05:00.000 167102048.5655922

ANGLE_1 = 2016-10-11T10:06:00.000 309.590396988705
ANGLE_2 = 2016-10-11T10:06:00.000 81.77248743072461
RANGE = 2016-10-11T10:06:00.000 167102814.12408116

ANGLE_1 = 2016-10-11T10:07:00.000 308.5373645019779
ANGLE_2 = 2016-10-11T10:07:00.000 81.60598409406794
RANGE = 2016-10-11T10:07:00.000 167103579.78252417

ANGLE_1 = 2016-10-11T10:08:00.000 307.5224485372355
ANGLE_2 = 2016-10-11T10:08:00.000 81.43727967358372
RANGE = 2016-10-11T10:08:00.000 167104345.60936132

ANGLE_1 = 2016-10-11T10:09:00.000 306.5458198082067
ANGLE_2 = 2016-10-11T10:09:00.000 81.26647555744887
RANGE = 2016-10-11T10:09:00.000 167105111.43796405

ANGLE_1 = 2016-10-11T10:10:00.000 305.602082867592
ANGLE_2 = 2016-10-11T10:10:00.000 81.09240613566708
RANGE = 2016-10-11T10:10:00.000 167105877.4111568

ANGLE_1 = 2016-10-11T10:11:00.000 304.6945995222888
ANGLE_2 = 2016-10-11T10:11:00.000 80.91716504447764
RANGE = 2016-10-11T10:11:00.000 167106643.41979626

ANGLE_1 = 2016-10-11T10:12:00.000 303.81856474084833
ANGLE_2 = 2016-10-11T10:12:00.000 80.74045550393764
RANGE = 2016-10-11T10:12:00.000 167107409.56581622

ANGLE_1 = 2016-10-11T10:13:00.000 302.9729657908292
ANGLE_2 = 2016-10-11T10:13:00.000 80.56128878377343
RANGE = 2016-10-11T10:13:00.000 167108175.8151991

ANGLE_1 = 2016-10-11T10:14:00.000 302.1564628379068
ANGLE_2 = 2016-10-11T10:14:00.000 80.38038249950426
RANGE = 2016-10-11T10:14:00.000 167108942.1110907

ANGLE_1 = 2016-10-11T10:15:00.000 301.3684792149016
ANGLE_2 = 2016-10-11T10:15:00.000 80.19717731375125
RANGE = 2016-10-11T10:15:00.000 167109708.53459275

ANGLE_1 = 2016-10-11T10:16:00.000 300.60747002619854
ANGLE_2 = 2016-10-11T10:16:00.000 80.01429217694375
RANGE = 2016-10-11T10:16:00.000 167110475.02405787

ANGLE_1 = 2016-10-11T10:17:00.000 299.8711328873685
ANGLE_2 = 2016-10-11T10:17:00.000 79.82848969229833
RANGE = 2016-10-11T10:17:00.000 167111241.62565753

ANGLE_1 = 2016-10-11T10:18:00.000 299.15923280548816
ANGLE_2 = 2016-10-11T10:18:00.000 79.64215196726173
RANGE = 2016-10-11T10:18:00.000 167112008.3179603

ANGLE_1 = 2016-10-11T10:19:00.000 298.4705140981364
ANGLE_2 = 2016-10-11T10:19:00.000 79.45486531898088
RANGE = 2016-10-11T10:19:00.000 167112775.0808345

ANGLE_1 = 2016-10-11T10:20:00.000 297.80336679817935
ANGLE_2 = 2016-10-11T10:20:00.000 79.26552961072275
RANGE = 2016-10-11T10:20:00.000 167113541.96686792

ANGLE_1 = 2016-10-11T10:21:00.000 297.1578307830676
ANGLE_2 = 2016-10-11T10:21:00.000 79.07536347530935
RANGE = 2016-10-11T10:21:00.000 167114308.90742955

ANGLE_1 = 2016-10-11T10:22:00.000 296.53187575559514
ANGLE_2 = 2016-10-11T10:22:00.000 78.8844226121771
RANGE = 2016-10-11T10:22:00.000 167115075.96322164

ANGLE_1 = 2016-10-11T10:23:00.000 295.92538316674097
ANGLE_2 = 2016-10-11T10:23:00.000 78.6913139845222
RANGE = 2016-10-11T10:23:00.000 167115843.08779815

ANGLE_1 = 2016-10-11T10:24:00.000 295.33671932487607
ANGLE_2 = 2016-10-11T10:24:00.000 78.49784162009294
RANGE = 2016-10-11T10:24:00.000 167116610.34848142

ANGLE_1 = 2016-10-11T10:25:00.000 294.7656888006288
ANGLE_2 = 2016-10-11T10:25:00.000 78.30374040680239
